[{"id":3435910,"name":"Buenos Aires","timezone":{"dstOffset":-3,"gmtOffset":-3,"timeZoneId":"America/Argentina/Buenos_Aires"},"lat":-34.61315,"lng":-58.37723,"population":13076300},{"id":3860259,"name":"Córdoba","timezone":{"dstOffset":-3,"gmtOffset":-3,"timeZoneId":"America/Argentina/Cordoba"},"lat":-31.4135,"lng":-64.18105,"population":1428214},{"id":3838583,"name":"Rosario","timezone":{"dstOffset":-3,"gmtOffset":-3,"timeZoneId":"America/Argentina/Cordoba"},"lat":-32.94682,"lng":-60.63932,"population":1173533},{"id":3844421,"name":"Mendoza","timezone":{"dstOffset":-3,"gmtOffset":-3,"timeZoneId":"America/Argentina/Mendoza"},"lat":-32.89084,"lng":-68.82717,"population":876884},{"id":3836873,"name":"San Miguel de Tucumán","timezone":{"dstOffset":-3,"gmtOffset":-3,"timeZoneId":"America/Argentina/Tucuman"},"lat":-26.82414,"lng":-65.2226,"population":781023},{"id":3432043,"name":"La Plata","timezone":{"dstOffset":-3,"gmtOffset":-3,"timeZoneId":"America/Argentina/Buenos_Aires"},"lat":-34.92145,"lng":-57.95453,"population":694167},{"id":3430863,"name":"Mar del Plata","timezone":{"dstOffset":-3,"gmtOffset":-3,"timeZoneId":"America/Argentina/Buenos_Aires"},"lat":-38.00228,"lng":-57.55754,"population":553935},{"id":3429652,"name":"Quilmes","timezone":{"dstOffset":-3,"gmtOffset":-3,"timeZoneId":"America/Argentina/Buenos_Aires"},"lat":-34.72418,"lng":-58.25265,"population":518788},{"id":3838233,"name":"Salta","timezone":{"dstOffset":-3,"gmtOffset":-3,"timeZoneId":"America/Argentina/Salta"},"lat":-24.7859,"lng":-65.41166,"population":512686},{"id":3836277,"name":"Santa Fe","timezone":{"dstOffset":-3,"gmtOffset":-3,"timeZoneId":"America/Argentina/Cordoba"},"lat":-31.63333,"lng":-60.7,"population":489505},{"id":3837213,"name":"San Juan","timezone":{"dstOffset":-3,"gmtOffset":-3,"timeZoneId":"America/Argentina/San_Juan"},"lat":-31.5375,"lng":-68.53639,"population":447048},{"id":3429577,"name":"Resistencia","timezone":{"dstOffset":-3,"gmtOffset":-3,"timeZoneId":"America/Argentina/Cordoba"},"lat":-27.46056,"lng":-58.98389,"population":387158},{"id":3835869,"name":"Santiago del Estero","timezone":{"dstOffset":-3,"gmtOffset":-3,"timeZoneId":"America/Argentina/Cordoba"},"lat":-27.79511,"lng":-64.26149,"population":354692},{"id":3435217,"name":"Corrientes","timezone":{"dstOffset":-3,"gmtOffset":-3,"timeZoneId":"America/Argentina/Cordoba"},"lat":-27.4806,"lng":-58.8341,"population":339067},{"id":3429886,"name":"Posadas","timezone":{"dstOffset":-3,"gmtOffset":-3,"timeZoneId":"America/Argentina/Cordoba"},"lat":-27.36708,"lng":-55.89608,"population":323739},{"id":3430545,"name":"Morón","timezone":{"dstOffset":-3,"gmtOffset":-3,"timeZoneId":"America/Argentina/Buenos_Aires"},"lat":-34.65344,"lng":-58.61975,"population":319934},{"id":3836564,"name":"San Salvador de Jujuy","timezone":{"dstOffset":-3,"gmtOffset":-3,"timeZoneId":"America/Argentina/Jujuy"},"lat":-24.19456,"lng":-65.29712,"population":305891},{"id":3865086,"name":"Bahía Blanca","timezone":{"dstOffset":-3,"gmtOffset":-3,"timeZoneId":"America/Argentina/Buenos_Aires"},"lat":-38.7196,"lng":-62.27243,"population":276546},{"id":3841956,"name":"Paraná","timezone":{"dstOffset":-3,"gmtOffset":-3,"timeZoneId":"America/Argentina/Cordoba"},"lat":-31.73197,"lng":-60.5238,"population":262295},{"id":3843123,"name":"Neuquén","timezone":{"dstOffset":-3,"gmtOffset":-3,"timeZoneId":"America/Argentina/Salta"},"lat":-38.95161,"lng":-68.0591,"population":242092},{"id":3433899,"name":"Formosa","timezone":{"dstOffset":-3,"gmtOffset":-3,"timeZoneId":"America/Argentina/Cordoba"},"lat":-26.17753,"lng":-58.17814,"population":221383},{"id":3837702,"name":"San Fernando del Valle de Catamarca","timezone":{"dstOffset":-3,"gmtOffset":-3,"timeZoneId":"America/Argentina/Catamarca"},"lat":-28.46957,"lng":-65.78524,"population":188812},{"id":3837056,"name":"San Luis","timezone":{"dstOffset":-3,"gmtOffset":-3,"timeZoneId":"America/Argentina/San_Luis"},"lat":-33.29501,"lng":-66.33563,"population":183982},{"id":3848950,"name":"La Rioja","timezone":{"dstOffset":-3,"gmtOffset":-3,"timeZoneId":"America/Argentina/La_Rioja"},"lat":-29.41105,"lng":-66.85067,"population":162620},{"id":3838874,"name":"Río Cuarto","timezone":{"dstOffset":-3,"gmtOffset":-3,"timeZoneId":"America/Argentina/Cordoba"},"lat":-33.13067,"lng":-64.34992,"population":153757},{"id":3435261,"name":"Concordia","timezone":{"dstOffset":-3,"gmtOffset":-3,"timeZoneId":"America/Argentina/Cordoba"},"lat":-31.39296,"lng":-58.02089,"population":145210},{"id":3860443,"name":"Comodoro Rivadavia","timezone":{"dstOffset":-3,"gmtOffset":-3,"timeZoneId":"America/Argentina/Catamarca"},"lat":-45.86414,"lng":-67.49656,"population":140850},{"id":3836846,"name":"San Nicolás de los Arroyos","timezone":{"dstOffset":-3,"gmtOffset":-3,"timeZoneId":"America/Argentina/Buenos_Aires"},"lat":-33.33578,"lng":-60.22523,"population":127742},{"id":3427408,"name":"Villa Lugano","timezone":{"dstOffset":-3,"gmtOffset":-3,"timeZoneId":"America/Argentina/Buenos_Aires"},"lat":-34.67907,"lng":-58.47262,"population":114000},{"id":3835994,"name":"Santa Rosa","timezone":{"dstOffset":-3,"gmtOffset":-3,"timeZoneId":"America/Argentina/Salta"},"lat":-36.61667,"lng":-64.28333,"population":111424},{"id":3836669,"name":"San Rafael","timezone":{"dstOffset":-3,"gmtOffset":-3,"timeZoneId":"America/Argentina/Mendoza"},"lat":-34.61772,"lng":-68.33007,"population":109163},{"id":3427833,"name":"Tandil","timezone":{"dstOffset":-3,"gmtOffset":-3,"timeZoneId":"America/Argentina/Buenos_Aires"},"lat":-37.32167,"lng":-59.13316,"population":104325},{"id":7116866,"name":"Villa Mercedes","timezone":{"dstOffset":-3,"gmtOffset":-3,"timeZoneId":"America/Argentina/San_Luis"},"lat":-33.67571,"lng":-65.45783,"population":96781},{"id":7647007,"name":"Bariloche","timezone":{"dstOffset":-3,"gmtOffset":-3,"timeZoneId":"America/Argentina/Salta"},"lat":-41.14557,"lng":-71.30822,"population":95394},{"id":3833883,"name":"Trelew","timezone":{"dstOffset":-3,"gmtOffset":-3,"timeZoneId":"America/Argentina/Catamarca"},"lat":-43.24895,"lng":-65.30505,"population":93442},{"id":3832694,"name":"Villa María","timezone":{"dstOffset":-3,"gmtOffset":-3,"timeZoneId":"America/Argentina/Cordoba"},"lat":-32.40751,"lng":-63.24016,"population":92453},{"id":3429594,"name":"Reconquista","timezone":{"dstOffset":-3,"gmtOffset":-3,"timeZoneId":"America/Argentina/Cordoba"},"lat":-29.15,"lng":-59.65,"population":90184},{"id":3427213,"name":"Zárate","timezone":{"dstOffset":-3,"gmtOffset":-3,"timeZoneId":"America/Argentina/Buenos_Aires"},"lat":-34.09814,"lng":-59.02858,"population":88781},{"id":3839479,"name":"Rafaela","timezone":{"dstOffset":-3,"gmtOffset":-3,"timeZoneId":"America/Argentina/Cordoba"},"lat":-31.25033,"lng":-61.4867,"population":88713},{"id":3841490,"name":"Pergamino","timezone":{"dstOffset":-3,"gmtOffset":-3,"timeZoneId":"America/Argentina/Buenos_Aires"},"lat":-33.88995,"lng":-60.57357,"population":87652},{"id":3842670,"name":"Olavarría","timezone":{"dstOffset":-3,"gmtOffset":-3,"timeZoneId":"America/Argentina/Buenos_Aires"},"lat":-36.89272,"lng":-60.32254,"population":86320},{"id":3838859,"name":"Río Gallegos","timezone":{"dstOffset":-3,"gmtOffset":-3,"timeZoneId":"America/Argentina/Rio_Gallegos"},"lat":-51.62261,"lng":-69.21813,"population":85700},{"id":3853354,"name":"Junín","timezone":{"dstOffset":-3,"gmtOffset":-3,"timeZoneId":"America/Argentina/Buenos_Aires"},"lat":-34.58382,"lng":-60.94332,"population":85007},{"id":3836992,"name":"San Martín","timezone":{"dstOffset":-3,"gmtOffset":-3,"timeZoneId":"America/Argentina/Mendoza"},"lat":-33.08103,"lng":-68.46814,"population":82549},{"id":3840300,"name":"Presidencia Roque Sáenz Peña","timezone":{"dstOffset":-3,"gmtOffset":-3,"timeZoneId":"America/Argentina/Cordoba"},"lat":-26.78522,"lng":-60.43876,"population":81879},{"id":3430988,"name":"Luján","timezone":{"dstOffset":-3,"gmtOffset":-3,"timeZoneId":"America/Argentina/Buenos_Aires"},"lat":-34.57028,"lng":-59.105,"population":81749},{"id":3435810,"name":"Campana","timezone":{"dstOffset":-3,"gmtOffset":-3,"timeZoneId":"America/Argentina/Buenos_Aires"},"lat":-34.16874,"lng":-58.95914,"population":81612},{"id":3430443,"name":"Necochea","timezone":{"dstOffset":-3,"gmtOffset":-3,"timeZoneId":"America/Argentina/Buenos_Aires"},"lat":-38.54726,"lng":-58.73675,"population":80478},{"id":3433658,"name":"Gualeguaychú","timezone":{"dstOffset":-3,"gmtOffset":-3,"timeZoneId":"America/Argentina/Cordoba"},"lat":-33.00938,"lng":-58.51722,"population":78676},{"id":3861056,"name":"Cipolletti","timezone":{"dstOffset":-3,"gmtOffset":-3,"timeZoneId":"America/Argentina/Salta"},"lat":-38.93392,"lng":-67.99032,"population":75078},{"id":3854985,"name":"Gobernador Gálvez","timezone":{"dstOffset":-3,"gmtOffset":-3,"timeZoneId":"America/Argentina/Cordoba"},"lat":-33.03016,"lng":-60.64045,"population":74650},{"id":3836620,"name":"Orán","timezone":{"dstOffset":-3,"gmtOffset":-3,"timeZoneId":"America/Argentina/Salta"},"lat":-23.13705,"lng":-64.32426,"population":74059},{"id":3861416,"name":"Chimbas","timezone":{"dstOffset":-3,"gmtOffset":-3,"timeZoneId":"America/Argentina/San_Juan"},"lat":-31.48333,"lng":-68.53333,"population":73829},{"id":3855065,"name":"General Roca","timezone":{"dstOffset":-3,"gmtOffset":-3,"timeZoneId":"America/Argentina/Salta"},"lat":-39.03333,"lng":-67.58333,"population":73212},{"id":3833062,"name":"Venado Tuerto","timezone":{"dstOffset":-3,"gmtOffset":-3,"timeZoneId":"America/Argentina/Cordoba"},"lat":-33.74556,"lng":-61.96884,"population":72340},{"id":3433715,"name":"Goya","timezone":{"dstOffset":-3,"gmtOffset":-3,"timeZoneId":"America/Argentina/Cordoba"},"lat":-29.14003,"lng":-59.26256,"population":70245},{"id":3832791,"name":"Villa Carlos Paz","timezone":{"dstOffset":-3,"gmtOffset":-3,"timeZoneId":"America/Argentina/Cordoba"},"lat":-31.42414,"lng":-64.49778,"population":69451},{"id":3435264,"name":"Concepción del Uruguay","timezone":{"dstOffset":-3,"gmtOffset":-3,"timeZoneId":"America/Argentina/Cordoba"},"lat":-32.48249,"lng":-58.23722,"population":67895},{"id":3840092,"name":"Puerto Madryn","timezone":{"dstOffset":-3,"gmtOffset":-3,"timeZoneId":"America/Argentina/Catamarca"},"lat":-42.7692,"lng":-65.03851,"population":64555},{"id":3834601,"name":"Tartagal","timezone":{"dstOffset":-3,"gmtOffset":-3,"timeZoneId":"America/Argentina/Salta"},"lat":-22.51636,"lng":-63.80131,"population":60819},{"id":3835793,"name":"Santo Tomé","timezone":{"dstOffset":-3,"gmtOffset":-3,"timeZoneId":"America/Argentina/Cordoba"},"lat":-31.66274,"lng":-60.7653,"population":59072},{"id":3837675,"name":"San Francisco","timezone":{"dstOffset":-3,"gmtOffset":-3,"timeZoneId":"America/Argentina/Cordoba"},"lat":-31.42797,"lng":-62.08266,"population":59062},{"id":3836772,"name":"San Pedro","timezone":{"dstOffset":-3,"gmtOffset":-3,"timeZoneId":"America/Argentina/Jujuy"},"lat":-24.23127,"lng":-64.86614,"population":58430},{"id":3833367,"name":"Ushuaia","timezone":{"dstOffset":-3,"gmtOffset":-3,"timeZoneId":"America/Argentina/Ushuaia"},"lat":-54.8,"lng":-68.3,"population":58028},{"id":3839982,"name":"Punta Alta","timezone":{"dstOffset":-3,"gmtOffset":-3,"timeZoneId":"America/Argentina/Buenos_Aires"},"lat":-38.87588,"lng":-62.07359,"population":57209},{"id":3855075,"name":"General Pico","timezone":{"dstOffset":-3,"gmtOffset":-3,"timeZoneId":"America/Argentina/Salta"},"lat":-35.65662,"lng":-63.75682,"population":57029},{"id":3435356,"name":"Colegiales","timezone":{"dstOffset":-3,"gmtOffset":-3,"timeZoneId":"America/Argentina/Buenos_Aires"},"lat":-34.57365,"lng":-58.44924,"population":57000},{"id":3430340,"name":"Oberá","timezone":{"dstOffset":-3,"gmtOffset":-3,"timeZoneId":"America/Argentina/Cordoba"},"lat":-27.48706,"lng":-55.11994,"population":56528},{"id":3861344,"name":"Chivilcoy","timezone":{"dstOffset":-3,"gmtOffset":-3,"timeZoneId":"America/Argentina/Buenos_Aires"},"lat":-34.89566,"lng":-60.01667,"population":54514},{"id":3429790,"name":"Puerto Eldorado","timezone":{"dstOffset":-3,"gmtOffset":-3,"timeZoneId":"America/Argentina/Cordoba"},"lat":-26.40842,"lng":-54.69463,"population":54189},{"id":3436199,"name":"Azul","timezone":{"dstOffset":-3,"gmtOffset":-3,"timeZoneId":"America/Argentina/Buenos_Aires"},"lat":-36.77698,"lng":-59.85854,"population":53941},{"id":3838793,"name":"Río Tercero","timezone":{"dstOffset":-3,"gmtOffset":-3,"timeZoneId":"America/Argentina/Cordoba"},"lat":-32.17301,"lng":-64.11406,"population":53389},{"id":3430708,"name":"Mercedes","timezone":{"dstOffset":-3,"gmtOffset":-3,"timeZoneId":"America/Argentina/Buenos_Aires"},"lat":-34.65146,"lng":-59.43068,"population":52949},{"id":3436124,"name":"Barranqueras","timezone":{"dstOffset":-3,"gmtOffset":-3,"timeZoneId":"America/Argentina/Cordoba"},"lat":-27.48299,"lng":-58.93579,"population":50823},{"id":3832260,"name":"Yerba Buena","timezone":{"dstOffset":-3,"gmtOffset":-3,"timeZoneId":"America/Argentina/Tucuman"},"lat":-26.81667,"lng":-65.31667,"population":50783},{"id":3846915,"name":"Libertador General San Martín","timezone":{"dstOffset":-3,"gmtOffset":-3,"timeZoneId":"America/Argentina/Jujuy"},"lat":-23.80644,"lng":-64.78757,"population":49267},{"id":3832899,"name":"Viedma","timezone":{"dstOffset":-3,"gmtOffset":-3,"timeZoneId":"America/Argentina/Salta"},"lat":-40.81345,"lng":-62.99668,"population":48940},{"id":3834813,"name":"Tafí Viejo","timezone":{"dstOffset":-3,"gmtOffset":-3,"timeZoneId":"America/Argentina/Tucuman"},"lat":-26.73201,"lng":-65.25921,"population":48459},{"id":3842190,"name":"Palpalá","timezone":{"dstOffset":-3,"gmtOffset":-3,"timeZoneId":"America/Argentina/Jujuy"},"lat":-24.25648,"lng":-65.21163,"population":48199},{"id":3428759,"name":"San Lorenzo","timezone":{"dstOffset":-3,"gmtOffset":-3,"timeZoneId":"America/Argentina/Cordoba"},"lat":-28.13306,"lng":-58.76733,"population":47626},{"id":3859552,"name":"Cutral-Có","timezone":{"dstOffset":-3,"gmtOffset":-3,"timeZoneId":"America/Argentina/Salta"},"lat":-38.93424,"lng":-69.23052,"population":47380},{"id":3833859,"name":"Tres Arroyos","timezone":{"dstOffset":-3,"gmtOffset":-3,"timeZoneId":"America/Argentina/Buenos_Aires"},"lat":-38.37394,"lng":-60.27978,"population":47136},{"id":3428992,"name":"San Isidro","timezone":{"dstOffset":-3,"gmtOffset":-3,"timeZoneId":"America/Argentina/Buenos_Aires"},"lat":-34.47145,"lng":-58.50776,"population":45190},{"id":3832778,"name":"Villa Constitución","timezone":{"dstOffset":-3,"gmtOffset":-3,"timeZoneId":"America/Argentina/Cordoba"},"lat":-33.22778,"lng":-60.3297,"population":44271},{"id":3430104,"name":"Paso de los Libres","timezone":{"dstOffset":-3,"gmtOffset":-3,"timeZoneId":"America/Argentina/Cordoba"},"lat":-29.71251,"lng":-57.08771,"population":43805},{"id":3836194,"name":"Santa Lucía","timezone":{"dstOffset":-3,"gmtOffset":-3,"timeZoneId":"America/Argentina/San_Juan"},"lat":-31.53987,"lng":-68.49503,"population":43565},{"id":3832811,"name":"Villa Ángela","timezone":{"dstOffset":-3,"gmtOffset":-3,"timeZoneId":"America/Argentina/Cordoba"},"lat":-27.57383,"lng":-60.71526,"population":43511},{"id":3861445,"name":"Chilecito","timezone":{"dstOffset":-3,"gmtOffset":-3,"timeZoneId":"America/Argentina/La_Rioja"},"lat":-29.16195,"lng":-67.4974,"population":42248},{"id":3846864,"name":"Lincoln","timezone":{"dstOffset":-3,"gmtOffset":-3,"timeZoneId":"America/Argentina/Buenos_Aires"},"lat":-34.86649,"lng":-61.5302,"population":41808},{"id":3840860,"name":"Pocito","timezone":{"dstOffset":-3,"gmtOffset":-3,"timeZoneId":"America/Argentina/San_Juan"},"lat":-31.68333,"lng":-68.58333,"population":40969},{"id":3866163,"name":"Alta Gracia","timezone":{"dstOffset":-3,"gmtOffset":-3,"timeZoneId":"America/Argentina/Cordoba"},"lat":-31.65292,"lng":-64.42826,"population":40384},{"id":3429576,"name":"Retiro","timezone":{"dstOffset":-3,"gmtOffset":-3,"timeZoneId":"America/Argentina/Buenos_Aires"},"lat":-34.58333,"lng":-58.38333,"population":38635},{"id":3866367,"name":"Alderetes","timezone":{"dstOffset":-3,"gmtOffset":-3,"timeZoneId":"America/Argentina/Tucuman"},"lat":-26.81667,"lng":-65.13333,"population":38466},{"id":3428068,"name":"San Vicente","timezone":{"dstOffset":-3,"gmtOffset":-3,"timeZoneId":"America/Argentina/Cordoba"},"lat":-26.61667,"lng":-54.13333,"population":38247},{"id":3862320,"name":"Castelli","timezone":{"dstOffset":-3,"gmtOffset":-3,"timeZoneId":"America/Argentina/Cordoba"},"lat":-25.94679,"lng":-60.61947,"population":36588},{"id":3435103,"name":"Curuzú Cuatiá","timezone":{"dstOffset":-3,"gmtOffset":-3,"timeZoneId":"America/Argentina/Cordoba"},"lat":-29.79171,"lng":-58.0546,"population":36390},{"id":3863379,"name":"Caleta Olivia","timezone":{"dstOffset":-3,"gmtOffset":-3,"timeZoneId":"America/Argentina/Rio_Gallegos"},"lat":-46.43929,"lng":-67.52814,"population":36077},{"id":3862981,"name":"Cañada de Gómez","timezone":{"dstOffset":-3,"gmtOffset":-3,"timeZoneId":"America/Argentina/Cordoba"},"lat":-32.81636,"lng":-61.39493,"population":36000},{"id":3856022,"name":"Esperanza","timezone":{"dstOffset":-3,"gmtOffset":-3,"timeZoneId":"America/Argentina/Cordoba"},"lat":-31.4488,"lng":-60.93173,"population":35885},{"id":3864331,"name":"Bell Ville","timezone":{"dstOffset":-3,"gmtOffset":-3,"timeZoneId":"America/Argentina/Cordoba"},"lat":-32.62591,"lng":-62.68873,"population":35105},{"id":3842881,"name":"Nueve de Julio","timezone":{"dstOffset":-3,"gmtOffset":-3,"timeZoneId":"America/Argentina/Buenos_Aires"},"lat":-35.44437,"lng":-60.88313,"population":34718},{"id":3861953,"name":"Chacabuco","timezone":{"dstOffset":-3,"gmtOffset":-3,"timeZoneId":"America/Argentina/Buenos_Aires"},"lat":-34.64167,"lng":-60.47389,"population":34587},{"id":6693230,"name":"Villa Santa Rita","timezone":{"dstOffset":-3,"gmtOffset":-3,"timeZoneId":"America/Argentina/Buenos_Aires"},"lat":-34.61082,"lng":-58.481,"population":34000},{"id":3862240,"name":"Caucete","timezone":{"dstOffset":-3,"gmtOffset":-3,"timeZoneId":"America/Argentina/San_Juan"},"lat":-31.65179,"lng":-68.28105,"population":33609},{"id":3429902,"name":"Pontevedra","timezone":{"dstOffset":-3,"gmtOffset":-3,"timeZoneId":"America/Argentina/Buenos_Aires"},"lat":-34.74974,"lng":-58.68696,"population":33515},{"id":3433663,"name":"Gualeguay","timezone":{"dstOffset":-3,"gmtOffset":-3,"timeZoneId":"America/Argentina/Cordoba"},"lat":-33.14156,"lng":-59.30966,"population":33120},{"id":3866496,"name":"Aguilares","timezone":{"dstOffset":-3,"gmtOffset":-3,"timeZoneId":"America/Argentina/Tucuman"},"lat":-27.4338,"lng":-65.61427,"population":32494},{"id":3854895,"name":"Granadero Baigorria","timezone":{"dstOffset":-3,"gmtOffset":-3,"timeZoneId":"America/Argentina/Cordoba"},"lat":-32.85683,"lng":-60.71754,"population":32427},{"id":3839490,"name":"Quitilipi","timezone":{"dstOffset":-3,"gmtOffset":-3,"timeZoneId":"America/Argentina/Cordoba"},"lat":-26.86913,"lng":-60.21683,"population":32083},{"id":3429777,"name":"Puerto Iguazú","timezone":{"dstOffset":-3,"gmtOffset":-3,"timeZoneId":"America/Argentina/Cordoba"},"lat":-25.59912,"lng":-54.57355,"population":32038},{"id":3427428,"name":"Villaguay","timezone":{"dstOffset":-3,"gmtOffset":-3,"timeZoneId":"America/Argentina/Cordoba"},"lat":-31.8653,"lng":-59.02689,"population":32027},{"id":3862351,"name":"Casilda","timezone":{"dstOffset":-3,"gmtOffset":-3,"timeZoneId":"America/Argentina/Cordoba"},"lat":-33.04417,"lng":-61.16806,"population":32002},{"id":3433803,"name":"General José de San Martín","timezone":{"dstOffset":-3,"gmtOffset":-3,"timeZoneId":"America/Argentina/Cordoba"},"lat":-26.53743,"lng":-59.34158,"population":31758},{"id":3832132,"name":"Zapala","timezone":{"dstOffset":-3,"gmtOffset":-3,"timeZoneId":"America/Argentina/Salta"},"lat":-38.89916,"lng":-70.05442,"population":31534},{"id":3832647,"name":"Villa Regina","timezone":{"dstOffset":-3,"gmtOffset":-3,"timeZoneId":"America/Argentina/Salta"},"lat":-39.1,"lng":-67.06667,"population":31209},{"id":3427761,"name":"Tigre","timezone":{"dstOffset":-3,"gmtOffset":-3,"timeZoneId":"America/Argentina/Buenos_Aires"},"lat":-34.42603,"lng":-58.57962,"population":31106},{"id":3855666,"name":"Famaillá","timezone":{"dstOffset":-3,"gmtOffset":-3,"timeZoneId":"America/Argentina/Tucuman"},"lat":-27.05413,"lng":-65.40329,"population":30951},{"id":3435486,"name":"Chajarí","timezone":{"dstOffset":-3,"gmtOffset":-3,"timeZoneId":"America/Argentina/Cordoba"},"lat":-30.75048,"lng":-57.97962,"population":30655},{"id":3430709,"name":"Mercedes","timezone":{"dstOffset":-3,"gmtOffset":-3,"timeZoneId":"America/Argentina/Cordoba"},"lat":-29.18186,"lng":-58.07895,"population":30649},{"id":3862144,"name":"Centenario","timezone":{"dstOffset":-3,"gmtOffset":-3,"timeZoneId":"America/Argentina/Salta"},"lat":-38.82955,"lng":-68.1318,"population":28956},{"id":3433836,"name":"Garupá","timezone":{"dstOffset":-3,"gmtOffset":-3,"timeZoneId":"America/Argentina/Cordoba"},"lat":-27.48171,"lng":-55.82921,"population":28814},{"id":3433753,"name":"Gobernador Ingeniero Valentín Virasoro","timezone":{"dstOffset":-3,"gmtOffset":-3,"timeZoneId":"America/Argentina/Cordoba"},"lat":-28.05,"lng":-56.03333,"population":28756},{"id":3855974,"name":"Esquel","timezone":{"dstOffset":-3,"gmtOffset":-3,"timeZoneId":"America/Argentina/Catamarca"},"lat":-42.91147,"lng":-71.31947,"population":28486},{"id":10172104,"name":"Adrogué","timezone":{"dstOffset":-3,"gmtOffset":-3,"timeZoneId":"America/Argentina/Buenos_Aires"},"lat":-34.80041,"lng":-58.38384,"population":28265},{"id":3859828,"name":"Cruz del Eje","timezone":{"dstOffset":-3,"gmtOffset":-3,"timeZoneId":"America/Argentina/Cordoba"},"lat":-30.72644,"lng":-64.80387,"population":28166},{"id":3845330,"name":"Machagai","timezone":{"dstOffset":-3,"gmtOffset":-3,"timeZoneId":"America/Argentina/Cordoba"},"lat":-26.92614,"lng":-60.04956,"population":28070},{"id":3832756,"name":"Villa Dolores","timezone":{"dstOffset":-3,"gmtOffset":-3,"timeZoneId":"America/Argentina/Cordoba"},"lat":-31.94585,"lng":-65.18958,"population":28009},{"id":3834502,"name":"Termas de Río Hondo","timezone":{"dstOffset":-3,"gmtOffset":-3,"timeZoneId":"America/Argentina/Cordoba"},"lat":-27.49362,"lng":-64.85972,"population":27838},{"id":3861678,"name":"Charata","timezone":{"dstOffset":-3,"gmtOffset":-3,"timeZoneId":"America/Argentina/Cordoba"},"lat":-27.21438,"lng":-61.18795,"population":27813},{"id":3862738,"name":"Capitán Bermúdez","timezone":{"dstOffset":-3,"gmtOffset":-3,"timeZoneId":"America/Argentina/Cordoba"},"lat":-32.82262,"lng":-60.71852,"population":27060},{"id":3860164,"name":"Coronel Suárez","timezone":{"dstOffset":-3,"gmtOffset":-3,"timeZoneId":"America/Argentina/Buenos_Aires"},"lat":-37.45467,"lng":-61.93343,"population":27000},{"id":3848687,"name":"Las Breñas","timezone":{"dstOffset":-3,"gmtOffset":-3,"timeZoneId":"America/Argentina/Cordoba"},"lat":-27.08966,"lng":-61.08161,"population":26955},{"id":3853510,"name":"Jesús María","timezone":{"dstOffset":-3,"gmtOffset":-3,"timeZoneId":"America/Argentina/Cordoba"},"lat":-30.98153,"lng":-64.09424,"population":26825},{"id":3433901,"name":"Fontana","timezone":{"dstOffset":-3,"gmtOffset":-3,"timeZoneId":"America/Argentina/Cordoba"},"lat":-27.41813,"lng":-59.02392,"population":26745},{"id":3434095,"name":"Esquina","timezone":{"dstOffset":-3,"gmtOffset":-3,"timeZoneId":"America/Argentina/Cordoba"},"lat":-30.01444,"lng":-59.52719,"population":26399},{"id":3839307,"name":"Rawson","timezone":{"dstOffset":-3,"gmtOffset":-3,"timeZoneId":"America/Argentina/Catamarca"},"lat":-43.30016,"lng":-65.10228,"population":26335},{"id":3866242,"name":"Allen","timezone":{"dstOffset":-3,"gmtOffset":-3,"timeZoneId":"America/Argentina/Salta"},"lat":-38.97736,"lng":-67.82714,"population":26083},{"id":3435038,"name":"Dolores","timezone":{"dstOffset":-3,"gmtOffset":-3,"timeZoneId":"America/Argentina/Buenos_Aires"},"lat":-36.31322,"lng":-57.67918,"population":25190},{"id":3840885,"name":"Plottier","timezone":{"dstOffset":-3,"gmtOffset":-3,"timeZoneId":"America/Argentina/Salta"},"lat":-38.96667,"lng":-68.23333,"population":25186},{"id":3832934,"name":"Victoria","timezone":{"dstOffset":-3,"gmtOffset":-3,"timeZoneId":"America/Argentina/Cordoba"},"lat":-32.61841,"lng":-60.15478,"population":25139},{"id":3433349,"name":"Jardín América","timezone":{"dstOffset":-3,"gmtOffset":-3,"timeZoneId":"America/Argentina/Cordoba"},"lat":-27.04346,"lng":-55.22698,"population":24905},{"id":3852374,"name":"La Calera","timezone":{"dstOffset":-3,"gmtOffset":-3,"timeZoneId":"America/Argentina/Cordoba"},"lat":-31.34377,"lng":-64.33529,"population":24796},{"id":3833794,"name":"Tres Isletas","timezone":{"dstOffset":-3,"gmtOffset":-3,"timeZoneId":"America/Argentina/Cordoba"},"lat":-26.34066,"lng":-60.43207,"population":24747},{"id":3432079,"name":"La Paz","timezone":{"dstOffset":-3,"gmtOffset":-3,"timeZoneId":"America/Argentina/Cordoba"},"lat":-30.74485,"lng":-59.64566,"population":24716},{"id":3430598,"name":"Monte Caseros","timezone":{"dstOffset":-3,"gmtOffset":-3,"timeZoneId":"America/Argentina/Cordoba"},"lat":-30.25359,"lng":-57.63626,"population":24671},{"id":3833112,"name":"Veinticinco de Mayo","timezone":{"dstOffset":-3,"gmtOffset":-3,"timeZoneId":"America/Argentina/Buenos_Aires"},"lat":-35.4323,"lng":-60.17271,"population":24668},{"id":3841500,"name":"Pérez","timezone":{"dstOffset":-3,"gmtOffset":-3,"timeZoneId":"America/Argentina/Cordoba"},"lat":-32.99835,"lng":-60.76791,"population":24436},{"id":3844899,"name":"Marcos Juárez","timezone":{"dstOffset":-3,"gmtOffset":-3,"timeZoneId":"America/Argentina/Cordoba"},"lat":-32.6978,"lng":-62.10672,"population":24226},{"id":3856231,"name":"Embarcación","timezone":{"dstOffset":-3,"gmtOffset":-3,"timeZoneId":"America/Argentina/Salta"},"lat":-23.20898,"lng":-64.09605,"population":23961},{"id":3843803,"name":"Monteros","timezone":{"dstOffset":-3,"gmtOffset":-3,"timeZoneId":"America/Argentina/Tucuman"},"lat":-27.16742,"lng":-65.49832,"population":23771},{"id":3428577,"name":"San Pedro","timezone":{"dstOffset":-3,"gmtOffset":-3,"timeZoneId":"America/Argentina/Cordoba"},"lat":-26.62207,"lng":-54.10842,"population":23736},{"id":3836951,"name":"San Martín de los Andes","timezone":{"dstOffset":-3,"gmtOffset":-3,"timeZoneId":"America/Argentina/Salta"},"lat":-40.15789,"lng":-71.35337,"population":23519},{"id":3427431,"name":"Villa Gesell","timezone":{"dstOffset":-3,"gmtOffset":-3,"timeZoneId":"America/Argentina/Buenos_Aires"},"lat":-37.26394,"lng":-56.97304,"population":23257},{"id":3436230,"name":"Avellaneda","timezone":{"dstOffset":-3,"gmtOffset":-3,"timeZoneId":"America/Argentina/Cordoba"},"lat":-29.11761,"lng":-59.65834,"population":23077},{"id":3428071,"name":"Santo Tomé","timezone":{"dstOffset":-3,"gmtOffset":-3,"timeZoneId":"America/Argentina/Cordoba"},"lat":-28.54939,"lng":-56.04077,"population":22634},{"id":3430601,"name":"Montecarlo","timezone":{"dstOffset":-3,"gmtOffset":-3,"timeZoneId":"America/Argentina/Cordoba"},"lat":-26.5662,"lng":-54.757,"population":22229},{"id":3837124,"name":"San Justo","timezone":{"dstOffset":-3,"gmtOffset":-3,"timeZoneId":"America/Argentina/Cordoba"},"lat":-30.78913,"lng":-60.59189,"population":21809},{"id":3832815,"name":"Villa Allende","timezone":{"dstOffset":-3,"gmtOffset":-3,"timeZoneId":"America/Argentina/Cordoba"},"lat":-31.29458,"lng":-64.29538,"population":21683},{"id":3837240,"name":"San José de Jáchal","timezone":{"dstOffset":-3,"gmtOffset":-3,"timeZoneId":"America/Argentina/San_Juan"},"lat":-30.24057,"lng":-68.74693,"population":21018},{"id":3436287,"name":"Aristóbulo del Valle","timezone":{"dstOffset":-3,"gmtOffset":-3,"timeZoneId":"America/Argentina/Cordoba"},"lat":-27.09625,"lng":-54.89626,"population":20683},{"id":3866425,"name":"Albardón","timezone":{"dstOffset":-3,"gmtOffset":-3,"timeZoneId":"America/Argentina/San_Juan"},"lat":-31.43722,"lng":-68.52556,"population":20413},{"id":3865840,"name":"Añatuya","timezone":{"dstOffset":-3,"gmtOffset":-3,"timeZoneId":"America/Argentina/Cordoba"},"lat":-28.46064,"lng":-62.83472,"population":20261},{"id":3859512,"name":"Deán Funes","timezone":{"dstOffset":-3,"gmtOffset":-3,"timeZoneId":"America/Argentina/Cordoba"},"lat":-30.42036,"lng":-64.34984,"population":20164},{"id":3865385,"name":"Arroyo Seco","timezone":{"dstOffset":-3,"gmtOffset":-3,"timeZoneId":"America/Argentina/Cordoba"},"lat":-33.15489,"lng":-60.50863,"population":20008},{"id":3852468,"name":"Laboulaye","timezone":{"dstOffset":-3,"gmtOffset":-3,"timeZoneId":"America/Argentina/Cordoba"},"lat":-34.12662,"lng":-63.39119,"population":19908},{"id":3861061,"name":"Cinco Saltos","timezone":{"dstOffset":-3,"gmtOffset":-3,"timeZoneId":"America/Argentina/Salta"},"lat":-38.82224,"lng":-68.06293,"population":19819},{"id":3855116,"name":"General Enrique Mosconi","timezone":{"dstOffset":-3,"gmtOffset":-3,"timeZoneId":"America/Argentina/Salta"},"lat":-22.59588,"lng":-63.81255,"population":19811},{"id":3833027,"name":"Vera","timezone":{"dstOffset":-3,"gmtOffset":-3,"timeZoneId":"America/Argentina/Cordoba"},"lat":-29.4593,"lng":-60.21261,"population":19797},{"id":3865424,"name":"Arroyito","timezone":{"dstOffset":-3,"gmtOffset":-3,"timeZoneId":"America/Argentina/Cordoba"},"lat":-31.42022,"lng":-63.05002,"population":19577},{"id":3434291,"name":"El Soberbio","timezone":{"dstOffset":-3,"gmtOffset":-3,"timeZoneId":"America/Argentina/Cordoba"},"lat":-27.29846,"lng":-54.19877,"population":19571},{"id":3859384,"name":"Diamante","timezone":{"dstOffset":-3,"gmtOffset":-3,"timeZoneId":"America/Argentina/Cordoba"},"lat":-32.06641,"lng":-60.63836,"population":19545},{"id":3853491,"name":"Joaquín V. González","timezone":{"dstOffset":-3,"gmtOffset":-3,"timeZoneId":"America/Argentina/Salta"},"lat":-25.08333,"lng":-64.18333,"population":19185},{"id":3429949,"name":"Pirané","timezone":{"dstOffset":-3,"gmtOffset":-3,"timeZoneId":"America/Argentina/Cordoba"},"lat":-25.73239,"lng":-59.10879,"population":19124},{"id":3427388,"name":"Villa Ocampo","timezone":{"dstOffset":-3,"gmtOffset":-3,"timeZoneId":"America/Argentina/Cordoba"},"lat":-28.48752,"lng":-59.35515,"population":19101},{"id":3832653,"name":"Villa Paula de Sarmiento","timezone":{"dstOffset":-3,"gmtOffset":-3,"timeZoneId":"America/Argentina/San_Juan"},"lat":-31.4933,"lng":-68.53838,"population":19092},{"id":3859965,"name":"Cosquín","timezone":{"dstOffset":-3,"gmtOffset":-3,"timeZoneId":"America/Argentina/Cordoba"},"lat":-31.24508,"lng":-64.46563,"population":19070},{"id":3834971,"name":"Sunchales","timezone":{"dstOffset":-3,"gmtOffset":-3,"timeZoneId":"America/Argentina/Cordoba"},"lat":-30.94404,"lng":-61.56148,"population":18757},{"id":3428359,"name":"Santa Elena","timezone":{"dstOffset":-3,"gmtOffset":-3,"timeZoneId":"America/Argentina/Cordoba"},"lat":-30.94768,"lng":-59.78696,"population":18410},{"id":3855244,"name":"Gálvez","timezone":{"dstOffset":-3,"gmtOffset":-3,"timeZoneId":"America/Argentina/Cordoba"},"lat":-32.02927,"lng":-61.22103,"population":18374},{"id":3838506,"name":"Rufino","timezone":{"dstOffset":-3,"gmtOffset":-3,"timeZoneId":"America/Argentina/Cordoba"},"lat":-34.26827,"lng":-62.71262,"population":18361},{"id":3429403,"name":"Saladas","timezone":{"dstOffset":-3,"gmtOffset":-3,"timeZoneId":"America/Argentina/Cordoba"},"lat":-28.25384,"lng":-58.62591,"population":18349},{"id":3859904,"name":"Crespo","timezone":{"dstOffset":-3,"gmtOffset":-3,"timeZoneId":"America/Argentina/Cordoba"},"lat":-32.02873,"lng":-60.30658,"population":18296},{"id":3855554,"name":"Firmat","timezone":{"dstOffset":-3,"gmtOffset":-3,"timeZoneId":"America/Argentina/Cordoba"},"lat":-33.45937,"lng":-61.4832,"population":18294},{"id":3838797,"name":"Río Segundo","timezone":{"dstOffset":-3,"gmtOffset":-3,"timeZoneId":"America/Argentina/Cordoba"},"lat":-31.6526,"lng":-63.9099,"population":18155},{"id":3429732,"name":"Puerto Rico","timezone":{"dstOffset":-3,"gmtOffset":-3,"timeZoneId":"America/Argentina/Cordoba"},"lat":-26.79598,"lng":-55.02402,"population":17491},{"id":3860217,"name":"Coronda","timezone":{"dstOffset":-3,"gmtOffset":-3,"timeZoneId":"America/Argentina/Cordoba"},"lat":-31.97263,"lng":-60.91982,"population":16975},{"id":3837980,"name":"San Antonio Oeste","timezone":{"dstOffset":-3,"gmtOffset":-3,"timeZoneId":"America/Argentina/Salta"},"lat":-40.73193,"lng":-64.94769,"population":16966},{"id":3837441,"name":"San Jorge","timezone":{"dstOffset":-3,"gmtOffset":-3,"timeZoneId":"America/Argentina/Cordoba"},"lat":-31.89618,"lng":-61.85984,"population":16873},{"id":3832662,"name":"Villa Nueva","timezone":{"dstOffset":-3,"gmtOffset":-3,"timeZoneId":"America/Argentina/Cordoba"},"lat":-32.43293,"lng":-63.24763,"population":16841},{"id":3838902,"name":"Río Ceballos","timezone":{"dstOffset":-3,"gmtOffset":-3,"timeZoneId":"America/Argentina/Cordoba"},"lat":-31.16486,"lng":-64.32241,"population":16632},{"id":3433956,"name":"Federal","timezone":{"dstOffset":-3,"gmtOffset":-3,"timeZoneId":"America/Argentina/Cordoba"},"lat":-30.95465,"lng":-58.78326,"population":16333},{"id":3856235,"name":"Embalse","timezone":{"dstOffset":-3,"gmtOffset":-3,"timeZoneId":"America/Argentina/Cordoba"},"lat":-32.18,"lng":-64.41809,"population":15900},{"id":3855074,"name":"General Pinedo","timezone":{"dstOffset":-3,"gmtOffset":-3,"timeZoneId":"America/Argentina/Cordoba"},"lat":-27.31667,"lng":-61.28333,"population":15741},{"id":3862655,"name":"Carcarañá","timezone":{"dstOffset":-3,"gmtOffset":-3,"timeZoneId":"America/Argentina/Cordoba"},"lat":-32.85679,"lng":-61.15331,"population":15619},{"id":3428975,"name":"San Javier","timezone":{"dstOffset":-3,"gmtOffset":-3,"timeZoneId":"America/Argentina/Cordoba"},"lat":-30.57781,"lng":-59.9317,"population":15606},{"id":3429786,"name":"Puerto Esperanza","timezone":{"dstOffset":-3,"gmtOffset":-3,"timeZoneId":"America/Argentina/Cordoba"},"lat":-26.01517,"lng":-54.67306,"population":15579},{"id":3858765,"name":"El Bolsón","timezone":{"dstOffset":-3,"gmtOffset":-3,"timeZoneId":"America/Argentina/Salta"},"lat":-41.96051,"lng":-71.53336,"population":15537},{"id":3833412,"name":"Unquillo","timezone":{"dstOffset":-3,"gmtOffset":-3,"timeZoneId":"America/Argentina/Cordoba"},"lat":-31.23073,"lng":-64.31615,"population":15369},{"id":3428708,"name":"San Luis del Palmar","timezone":{"dstOffset":-3,"gmtOffset":-3,"timeZoneId":"America/Argentina/Cordoba"},"lat":-27.5079,"lng":-58.55454,"population":15347},{"id":3862254,"name":"Catriel","timezone":{"dstOffset":-3,"gmtOffset":-3,"timeZoneId":"America/Argentina/Salta"},"lat":-37.87907,"lng":-67.7956,"population":15169},{"id":3843619,"name":"Morteros","timezone":{"dstOffset":-3,"gmtOffset":-3,"timeZoneId":"America/Argentina/Cordoba"},"lat":-30.71164,"lng":-61.99862,"population":15129},{"id":3864375,"name":"Bella Vista","timezone":{"dstOffset":-3,"gmtOffset":-3,"timeZoneId":"America/Argentina/Tucuman"},"lat":-27.03424,"lng":-65.30196,"population":15126},{"id":3851331,"name":"La Falda","timezone":{"dstOffset":-3,"gmtOffset":-3,"timeZoneId":"America/Argentina/Cordoba"},"lat":-31.08841,"lng":-64.48987,"population":15112},{"id":3435364,"name":"Clorinda","timezone":{"dstOffset":-3,"gmtOffset":-3,"timeZoneId":"America/Argentina/Cordoba"},"lat":-25.28481,"lng":-57.71851,"population":15000},{"id":7284819,"name":"La Punta","timezone":{"dstOffset":-3,"gmtOffset":-3,"timeZoneId":"America/Argentina/San_Luis"},"lat":-33.18368,"lng":-66.3127,"population":15000},{"id":3841309,"name":"Pico Truncado","timezone":{"dstOffset":-3,"gmtOffset":-3,"timeZoneId":"America/Argentina/Rio_Gallegos"},"lat":-46.7949,"lng":-67.95731,"population":14985},{"id":3849140,"name":"La Quiaca","timezone":{"dstOffset":-3,"gmtOffset":-3,"timeZoneId":"America/Argentina/Jujuy"},"lat":-22.10236,"lng":-65.59299,"population":14751},{"id":3855302,"name":"Funes","timezone":{"dstOffset":-3,"gmtOffset":-3,"timeZoneId":"America/Argentina/Cordoba"},"lat":-32.91568,"lng":-60.80995,"population":14750},{"id":3847613,"name":"Las Varillas","timezone":{"dstOffset":-3,"gmtOffset":-3,"timeZoneId":"America/Argentina/Cordoba"},"lat":-31.87208,"lng":-62.71946,"population":14649},{"id":3434995,"name":"Dos de Mayo","timezone":{"dstOffset":-3,"gmtOffset":-3,"timeZoneId":"America/Argentina/Cordoba"},"lat":-27.02277,"lng":-54.68669,"population":14544},{"id":3834361,"name":"Tinogasta","timezone":{"dstOffset":-3,"gmtOffset":-3,"timeZoneId":"America/Argentina/Catamarca"},"lat":-28.06319,"lng":-67.56488,"population":14509},{"id":3855370,"name":"Fray Luis A. Beltrán","timezone":{"dstOffset":-3,"gmtOffset":-3,"timeZoneId":"America/Argentina/Cordoba"},"lat":-32.79122,"lng":-60.72819,"population":14390},{"id":3837823,"name":"San Cristóbal","timezone":{"dstOffset":-3,"gmtOffset":-3,"timeZoneId":"America/Argentina/Cordoba"},"lat":-30.31053,"lng":-61.23724,"population":14286},{"id":3839263,"name":"Recreo","timezone":{"dstOffset":-3,"gmtOffset":-3,"timeZoneId":"America/Argentina/Catamarca"},"lat":-29.28184,"lng":-65.06096,"population":14204},{"id":3865802,"name":"Andalgalá","timezone":{"dstOffset":-3,"gmtOffset":-3,"timeZoneId":"America/Argentina/Catamarca"},"lat":-27.60012,"lng":-66.31794,"population":14068},{"id":3428287,"name":"Santa Lucía","timezone":{"dstOffset":-3,"gmtOffset":-3,"timeZoneId":"America/Argentina/Cordoba"},"lat":-28.98746,"lng":-59.10287,"population":14056},{"id":3834048,"name":"Tostado","timezone":{"dstOffset":-3,"gmtOffset":-3,"timeZoneId":"America/Argentina/Cordoba"},"lat":-29.23202,"lng":-61.76917,"population":14000},{"id":3429439,"name":"Rosario del Tala","timezone":{"dstOffset":-3,"gmtOffset":-3,"timeZoneId":"America/Argentina/Cordoba"},"lat":-32.30286,"lng":-59.14545,"population":13807},{"id":3433959,"name":"Federación","timezone":{"dstOffset":-3,"gmtOffset":-3,"timeZoneId":"America/Argentina/Cordoba"},"lat":-31.00621,"lng":-57.89962,"population":13789},{"id":3865579,"name":"Arauco","timezone":{"dstOffset":-3,"gmtOffset":-3,"timeZoneId":"America/Argentina/La_Rioja"},"lat":-28.5805,"lng":-66.79438,"population":13720},{"id":3855394,"name":"Fraile Pintado","timezone":{"dstOffset":-3,"gmtOffset":-3,"timeZoneId":"America/Argentina/Jujuy"},"lat":-23.94079,"lng":-64.79943,"population":13682},{"id":3861824,"name":"Chamical","timezone":{"dstOffset":-3,"gmtOffset":-3,"timeZoneId":"America/Argentina/La_Rioja"},"lat":-30.36002,"lng":-66.31399,"population":13383},{"id":3862100,"name":"Ceres","timezone":{"dstOffset":-3,"gmtOffset":-3,"timeZoneId":"America/Argentina/Cordoba"},"lat":-29.881,"lng":-61.94504,"population":13063},{"id":3839262,"name":"Recreo","timezone":{"dstOffset":-3,"gmtOffset":-3,"timeZoneId":"America/Argentina/Cordoba"},"lat":-31.49076,"lng":-60.73299,"population":12798},{"id":3847836,"name":"Las Rosas","timezone":{"dstOffset":-3,"gmtOffset":-3,"timeZoneId":"America/Argentina/Cordoba"},"lat":-32.47661,"lng":-61.58041,"population":12793},{"id":3434731,"name":"El Colorado","timezone":{"dstOffset":-3,"gmtOffset":-3,"timeZoneId":"America/Argentina/Cordoba"},"lat":-26.30808,"lng":-59.37291,"population":12780},{"id":3435290,"name":"Colonia Wanda","timezone":{"dstOffset":-3,"gmtOffset":-3,"timeZoneId":"America/Argentina/Cordoba"},"lat":-25.97408,"lng":-54.42806,"population":12779},{"id":3842621,"name":"Oncativo","timezone":{"dstOffset":-3,"gmtOffset":-3,"timeZoneId":"America/Argentina/Cordoba"},"lat":-31.91353,"lng":-63.68201,"population":12660},{"id":3855143,"name":"General Acha","timezone":{"dstOffset":-3,"gmtOffset":-3,"timeZoneId":"America/Argentina/Salta"},"lat":-37.37698,"lng":-64.60431,"population":12536},{"id":3841149,"name":"Pilar","timezone":{"dstOffset":-3,"gmtOffset":-3,"timeZoneId":"America/Argentina/Cordoba"},"lat":-31.6789,"lng":-63.87964,"population":12488},{"id":3838638,"name":"Roldán","timezone":{"dstOffset":-3,"gmtOffset":-3,"timeZoneId":"America/Argentina/Cordoba"},"lat":-32.89846,"lng":-60.90681,"population":12468},{"id":3840896,"name":"Plaza Huincul","timezone":{"dstOffset":-3,"gmtOffset":-3,"timeZoneId":"America/Argentina/Salta"},"lat":-38.92598,"lng":-69.20863,"population":12273},{"id":3850920,"name":"Laguna Paiva","timezone":{"dstOffset":-3,"gmtOffset":-3,"timeZoneId":"America/Argentina/Cordoba"},"lat":-31.30391,"lng":-60.65894,"population":12250},{"id":3429866,"name":"Presidencia de la Plaza","timezone":{"dstOffset":-3,"gmtOffset":-3,"timeZoneId":"America/Argentina/Cordoba"},"lat":-27.00147,"lng":-59.84243,"population":12231},{"id":3435789,"name":"Campo Grande","timezone":{"dstOffset":-3,"gmtOffset":-3,"timeZoneId":"America/Argentina/Cordoba"},"lat":-27.2077,"lng":-54.97977,"population":12040},{"id":3832797,"name":"Villa Berthet","timezone":{"dstOffset":-3,"gmtOffset":-3,"timeZoneId":"America/Argentina/Cordoba"},"lat":-27.29174,"lng":-60.41263,"population":12029},{"id":3427537,"name":"Veinticinco de Mayo","timezone":{"dstOffset":-3,"gmtOffset":-3,"timeZoneId":"America/Argentina/Cordoba"},"lat":-27.37679,"lng":-54.74312,"population":11928},{"id":3431606,"name":"Las Toscas","timezone":{"dstOffset":-3,"gmtOffset":-3,"timeZoneId":"America/Argentina/Cordoba"},"lat":-28.3529,"lng":-59.25795,"population":11811},{"id":3863503,"name":"Cafayate","timezone":{"dstOffset":-3,"gmtOffset":-3,"timeZoneId":"America/Argentina/Salta"},"lat":-26.07286,"lng":-65.97766,"population":11785},{"id":3861262,"name":"Chos Malal","timezone":{"dstOffset":-3,"gmtOffset":-3,"timeZoneId":"America/Argentina/Salta"},"lat":-37.37809,"lng":-70.27085,"population":11721},{"id":3860199,"name":"Coronel Dorrego","timezone":{"dstOffset":-3,"gmtOffset":-3,"timeZoneId":"America/Argentina/Buenos_Aires"},"lat":-38.71867,"lng":-61.28732,"population":11644},{"id":3842662,"name":"Oliva","timezone":{"dstOffset":-3,"gmtOffset":-3,"timeZoneId":"America/Argentina/Cordoba"},"lat":-32.04158,"lng":-63.56978,"population":11629},{"id":3428481,"name":"San Salvador","timezone":{"dstOffset":-3,"gmtOffset":-3,"timeZoneId":"America/Argentina/Cordoba"},"lat":-31.62487,"lng":-58.50524,"population":11626},{"id":3430180,"name":"Pampa del Indio","timezone":{"dstOffset":-3,"gmtOffset":-3,"timeZoneId":"America/Argentina/Cordoba"},"lat":-26.06468,"lng":-59.91898,"population":11588},{"id":3852279,"name":"La Carlota","timezone":{"dstOffset":-3,"gmtOffset":-3,"timeZoneId":"America/Argentina/Cordoba"},"lat":-33.41993,"lng":-63.29769,"population":11490},{"id":3853967,"name":"Humahuaca","timezone":{"dstOffset":-3,"gmtOffset":-3,"timeZoneId":"America/Argentina/Jujuy"},"lat":-23.20544,"lng":-65.35048,"population":11369},{"id":3847933,"name":"Las Parejas","timezone":{"dstOffset":-3,"gmtOffset":-3,"timeZoneId":"America/Argentina/Cordoba"},"lat":-32.68478,"lng":-61.51637,"population":11317},{"id":3429160,"name":"San Clemente del Tuyú","timezone":{"dstOffset":-3,"gmtOffset":-3,"timeZoneId":"America/Argentina/Buenos_Aires"},"lat":-36.35694,"lng":-56.72351,"population":11174},{"id":3844377,"name":"Merlo","timezone":{"dstOffset":-3,"gmtOffset":-3,"timeZoneId":"America/Argentina/San_Luis"},"lat":-32.34288,"lng":-65.01396,"population":11159},{"id":3428858,"name":"San José de Feliciano","timezone":{"dstOffset":-3,"gmtOffset":-3,"timeZoneId":"America/Argentina/Cordoba"},"lat":-30.38452,"lng":-58.75167,"population":11137},{"id":3837943,"name":"San Bernardo","timezone":{"dstOffset":-3,"gmtOffset":-3,"timeZoneId":"America/Argentina/Cordoba"},"lat":-27.28782,"lng":-60.71252,"population":11101},{"id":3435734,"name":"Candelaria","timezone":{"dstOffset":-3,"gmtOffset":-3,"timeZoneId":"America/Argentina/Cordoba"},"lat":-27.4595,"lng":-55.74536,"population":11039},{"id":3839565,"name":"Quimilí","timezone":{"dstOffset":-3,"gmtOffset":-3,"timeZoneId":"America/Argentina/Cordoba"},"lat":-27.63333,"lng":-62.41667,"population":10959},{"id":3436030,"name":"Bernardo de Irigoyen","timezone":{"dstOffset":-3,"gmtOffset":-3,"timeZoneId":"America/Argentina/Cordoba"},"lat":-26.2552,"lng":-53.64581,"population":10889},{"id":3856436,"name":"El Trébol","timezone":{"dstOffset":-3,"gmtOffset":-3,"timeZoneId":"America/Argentina/Cordoba"},"lat":-32.2008,"lng":-61.7014,"population":10871},{"id":3863095,"name":"Campo Largo","timezone":{"dstOffset":-3,"gmtOffset":-3,"timeZoneId":"America/Argentina/Cordoba"},"lat":-26.80077,"lng":-60.84215,"population":10743},{"id":3853350,"name":"Junín de los Andes","timezone":{"dstOffset":-3,"gmtOffset":-3,"timeZoneId":"America/Argentina/Salta"},"lat":-39.95043,"lng":-71.06936,"population":10592},{"id":3866237,"name":"Almafuerte","timezone":{"dstOffset":-3,"gmtOffset":-3,"timeZoneId":"America/Argentina/Cordoba"},"lat":-32.19296,"lng":-64.25559,"population":10534},{"id":3854331,"name":"Hernando","timezone":{"dstOffset":-3,"gmtOffset":-3,"timeZoneId":"America/Argentina/Cordoba"},"lat":-32.42657,"lng":-63.73333,"population":10486},{"id":3859974,"name":"Corzuela","timezone":{"dstOffset":-3,"gmtOffset":-3,"timeZoneId":"America/Argentina/Cordoba"},"lat":-26.95374,"lng":-60.96928,"population":10470},{"id":3837857,"name":"San Carlos Centro","timezone":{"dstOffset":-3,"gmtOffset":-3,"timeZoneId":"America/Argentina/Cordoba"},"lat":-31.72864,"lng":-61.09192,"population":10465},{"id":3865449,"name":"Armstrong","timezone":{"dstOffset":-3,"gmtOffset":-3,"timeZoneId":"America/Argentina/Cordoba"},"lat":-32.78215,"lng":-61.60222,"population":10388},{"id":3853788,"name":"Ingeniero Guillermo N. Juárez","timezone":{"dstOffset":-3,"gmtOffset":-3,"timeZoneId":"America/Argentina/Cordoba"},"lat":-23.9,"lng":-61.85,"population":10357},{"id":3848164,"name":"Las Lomitas","timezone":{"dstOffset":-3,"gmtOffset":-3,"timeZoneId":"America/Argentina/Cordoba"},"lat":-24.70955,"lng":-60.59303,"population":10354},{"id":3855124,"name":"General Cabrera","timezone":{"dstOffset":-3,"gmtOffset":-3,"timeZoneId":"America/Argentina/Cordoba"},"lat":-32.81313,"lng":-63.87243,"population":10351},{"id":3857012,"name":"El Quebrachal","timezone":{"dstOffset":-3,"gmtOffset":-3,"timeZoneId":"America/Argentina/Salta"},"lat":-25.28333,"lng":-64.06667,"population":10243},{"id":3840104,"name":"Puerto Deseado","timezone":{"dstOffset":-3,"gmtOffset":-3,"timeZoneId":"America/Argentina/Rio_Gallegos"},"lat":-47.75034,"lng":-65.89382,"population":10237},{"id":3863419,"name":"Calchaquí","timezone":{"dstOffset":-3,"gmtOffset":-3,"timeZoneId":"America/Argentina/Cordoba"},"lat":-29.88767,"lng":-60.28696,"population":10221},{"id":3836993,"name":"San Martín","timezone":{"dstOffset":-3,"gmtOffset":-3,"timeZoneId":"America/Argentina/San_Juan"},"lat":-31.42957,"lng":-68.50064,"population":10140},{"id":3435765,"name":"Campo Ramón","timezone":{"dstOffset":-3,"gmtOffset":-3,"timeZoneId":"America/Argentina/Cordoba"},"lat":-27.46108,"lng":-55.01901,"population":10088},{"id":3432355,"name":"La Leonesa","timezone":{"dstOffset":-3,"gmtOffset":-3,"timeZoneId":"America/Argentina/Cordoba"},"lat":-27.03786,"lng":-58.70347,"population":10067},{"id":3846991,"name":"Leones","timezone":{"dstOffset":-3,"gmtOffset":-3,"timeZoneId":"America/Argentina/Cordoba"},"lat":-32.66174,"lng":-62.29678,"population":9971},{"id":3860129,"name":"Corral de Bustos","timezone":{"dstOffset":-3,"gmtOffset":-3,"timeZoneId":"America/Argentina/Cordoba"},"lat":-33.28205,"lng":-62.18463,"population":9882},{"id":3859036,"name":"Eduardo Castex","timezone":{"dstOffset":-3,"gmtOffset":-3,"timeZoneId":"America/Argentina/Salta"},"lat":-35.91501,"lng":-64.29448,"population":9861},{"id":3861329,"name":"Choele Choel","timezone":{"dstOffset":-3,"gmtOffset":-3,"timeZoneId":"America/Argentina/Salta"},"lat":-39.26667,"lng":-65.68333,"population":9791},{"id":3858553,"name":"El Carril","timezone":{"dstOffset":-3,"gmtOffset":-3,"timeZoneId":"America/Argentina/Salta"},"lat":-25.0741,"lng":-65.49174,"population":9780},{"id":3429721,"name":"Puerto Tirol","timezone":{"dstOffset":-3,"gmtOffset":-3,"timeZoneId":"America/Argentina/Cordoba"},"lat":-27.37218,"lng":-59.08206,"population":9767},{"id":3853330,"name":"Justo Daract","timezone":{"dstOffset":-3,"gmtOffset":-3,"timeZoneId":"America/Argentina/San_Luis"},"lat":-33.8594,"lng":-65.18277,"population":9680},{"id":3833995,"name":"Totoras","timezone":{"dstOffset":-3,"gmtOffset":-3,"timeZoneId":"America/Argentina/Cordoba"},"lat":-32.5844,"lng":-61.16852,"population":9587},{"id":3835943,"name":"Santa Rosa de Calamuchita","timezone":{"dstOffset":-3,"gmtOffset":-3,"timeZoneId":"America/Argentina/Cordoba"},"lat":-32.06905,"lng":-64.53631,"population":9504},{"id":3867009,"name":"Abra Pampa","timezone":{"dstOffset":-3,"gmtOffset":-3,"timeZoneId":"America/Argentina/Jujuy"},"lat":-22.72049,"lng":-65.69697,"population":9425},{"id":3845202,"name":"Malagueño","timezone":{"dstOffset":-3,"gmtOffset":-3,"timeZoneId":"America/Argentina/Cordoba"},"lat":-31.46467,"lng":-64.3584,"population":9364},{"id":3427443,"name":"Villa Elisa","timezone":{"dstOffset":-3,"gmtOffset":-3,"timeZoneId":"America/Argentina/Cordoba"},"lat":-32.1632,"lng":-58.40082,"population":9334},{"id":3832793,"name":"Villa Cañás","timezone":{"dstOffset":-3,"gmtOffset":-3,"timeZoneId":"America/Argentina/Cordoba"},"lat":-34.00565,"lng":-61.60757,"population":9328},{"id":3848353,"name":"Las Heras","timezone":{"dstOffset":-3,"gmtOffset":-3,"timeZoneId":"America/Argentina/Rio_Gallegos"},"lat":-46.54186,"lng":-68.93593,"population":9303},{"id":3435750,"name":"Campo Viera","timezone":{"dstOffset":-3,"gmtOffset":-3,"timeZoneId":"America/Argentina/Cordoba"},"lat":-27.38333,"lng":-55.03333,"population":9228},{"id":3848209,"name":"Las Lajitas","timezone":{"dstOffset":-3,"gmtOffset":-3,"timeZoneId":"America/Argentina/Salta"},"lat":-24.68333,"lng":-64.25,"population":9151},{"id":3860197,"name":"Coronel Du Graty","timezone":{"dstOffset":-3,"gmtOffset":-3,"timeZoneId":"America/Argentina/Cordoba"},"lat":-27.68038,"lng":-60.91462,"population":9140},{"id":3862761,"name":"Capilla del Monte","timezone":{"dstOffset":-3,"gmtOffset":-3,"timeZoneId":"America/Argentina/Cordoba"},"lat":-30.86088,"lng":-64.52515,"population":9085},{"id":3861002,"name":"Clodomira","timezone":{"dstOffset":-3,"gmtOffset":-3,"timeZoneId":"America/Argentina/Cordoba"},"lat":-27.5744,"lng":-64.13108,"population":9043},{"id":3835921,"name":"Santa Sylvina","timezone":{"dstOffset":-3,"gmtOffset":-3,"timeZoneId":"America/Argentina/Cordoba"},"lat":-27.83261,"lng":-61.13747,"population":9040},{"id":3430760,"name":"Mburucuyá","timezone":{"dstOffset":-3,"gmtOffset":-3,"timeZoneId":"America/Argentina/Cordoba"},"lat":-28.04532,"lng":-58.22835,"population":9012},{"id":3832917,"name":"Vicuña Mackenna","timezone":{"dstOffset":-3,"gmtOffset":-3,"timeZoneId":"America/Argentina/Cordoba"},"lat":-33.91965,"lng":-64.39215,"population":8994},{"id":3832959,"name":"Viale","timezone":{"dstOffset":-3,"gmtOffset":-3,"timeZoneId":"America/Argentina/Cordoba"},"lat":-31.86782,"lng":-60.00722,"population":8939},{"id":3433513,"name":"Ibarreta","timezone":{"dstOffset":-3,"gmtOffset":-3,"timeZoneId":"America/Argentina/Cordoba"},"lat":-25.21438,"lng":-59.85851,"population":8687},{"id":3853974,"name":"Huinca Renancó","timezone":{"dstOffset":-3,"gmtOffset":-3,"timeZoneId":"America/Argentina/Cordoba"},"lat":-34.84038,"lng":-64.3758,"population":8637},{"id":3845073,"name":"Malvinas Argentinas","timezone":{"dstOffset":-3,"gmtOffset":-3,"timeZoneId":"America/Argentina/Cordoba"},"lat":-31.38333,"lng":-64.06667,"population":8628},{"id":3855067,"name":"General Ramírez","timezone":{"dstOffset":-3,"gmtOffset":-3,"timeZoneId":"America/Argentina/Cordoba"},"lat":-32.17601,"lng":-60.20079,"population":8614},{"id":3865605,"name":"Apolinario Saravia","timezone":{"dstOffset":-3,"gmtOffset":-3,"timeZoneId":"America/Argentina/Salta"},"lat":-24.43276,"lng":-63.99535,"population":8595},{"id":3432760,"name":"La Cruz","timezone":{"dstOffset":-3,"gmtOffset":-3,"timeZoneId":"America/Argentina/Cordoba"},"lat":-29.17443,"lng":-56.64326,"population":8591},{"id":3429738,"name":"Puerto Piray","timezone":{"dstOffset":-3,"gmtOffset":-3,"timeZoneId":"America/Argentina/Cordoba"},"lat":-26.46779,"lng":-54.71476,"population":8557},{"id":3834843,"name":"Taco Pozo","timezone":{"dstOffset":-3,"gmtOffset":-3,"timeZoneId":"America/Argentina/Cordoba"},"lat":-25.61667,"lng":-63.28333,"population":8470},{"id":3861494,"name":"Chicoana","timezone":{"dstOffset":-3,"gmtOffset":-3,"timeZoneId":"America/Argentina/Salta"},"lat":-25.10088,"lng":-65.5331,"population":8468},{"id":3429713,"name":"Puerto Vilelas","timezone":{"dstOffset":-3,"gmtOffset":-3,"timeZoneId":"America/Argentina/Cordoba"},"lat":-27.51414,"lng":-58.93906,"population":8455},{"id":3435344,"name":"Colonia Aurora","timezone":{"dstOffset":-3,"gmtOffset":-3,"timeZoneId":"America/Argentina/Cordoba"},"lat":-27.47428,"lng":-54.52498,"population":8407},{"id":3857974,"name":"El Galpón","timezone":{"dstOffset":-3,"gmtOffset":-3,"timeZoneId":"America/Argentina/Salta"},"lat":-25.38069,"lng":-64.65259,"population":8357},{"id":3862883,"name":"Canals","timezone":{"dstOffset":-3,"gmtOffset":-3,"timeZoneId":"America/Argentina/Cordoba"},"lat":-33.56542,"lng":-62.88927,"population":8343},{"id":3428182,"name":"Santa Rosa","timezone":{"dstOffset":-3,"gmtOffset":-3,"timeZoneId":"America/Argentina/Cordoba"},"lat":-28.26318,"lng":-58.11891,"population":8330},{"id":3835710,"name":"Sarmiento","timezone":{"dstOffset":-3,"gmtOffset":-3,"timeZoneId":"America/Argentina/Catamarca"},"lat":-45.58815,"lng":-69.06996,"population":8292},{"id":3433839,"name":"Garuhapé","timezone":{"dstOffset":-3,"gmtOffset":-3,"timeZoneId":"America/Argentina/Cordoba"},"lat":-26.81768,"lng":-54.95664,"population":8259},{"id":3863833,"name":"Brinkmann","timezone":{"dstOffset":-3,"gmtOffset":-3,"timeZoneId":"America/Argentina/Cordoba"},"lat":-30.8659,"lng":-62.03742,"population":8237},{"id":3863362,"name":"Calingasta","timezone":{"dstOffset":-3,"gmtOffset":-3,"timeZoneId":"America/Argentina/San_Juan"},"lat":-31.33084,"lng":-69.40783,"population":8176},{"id":3842142,"name":"Pampa del Infierno","timezone":{"dstOffset":-3,"gmtOffset":-3,"timeZoneId":"America/Argentina/Cordoba"},"lat":-26.50517,"lng":-61.17436,"population":8176},{"id":3860178,"name":"Coronel Moldes","timezone":{"dstOffset":-3,"gmtOffset":-3,"timeZoneId":"America/Argentina/Cordoba"},"lat":-33.6227,"lng":-64.59711,"population":8104},{"id":3855588,"name":"Fiambalá","timezone":{"dstOffset":-3,"gmtOffset":-3,"timeZoneId":"America/Argentina/Catamarca"},"lat":-27.68705,"lng":-67.6149,"population":8061},{"id":3858677,"name":"El Calafate","timezone":{"dstOffset":-3,"gmtOffset":-3,"timeZoneId":"America/Argentina/Rio_Gallegos"},"lat":-50.34075,"lng":-72.27682,"population":8000},{"id":3427582,"name":"Urdinarrain","timezone":{"dstOffset":-3,"gmtOffset":-3,"timeZoneId":"America/Argentina/Cordoba"},"lat":-32.68573,"lng":-58.89324,"population":7992},{"id":3435966,"name":"Bovril","timezone":{"dstOffset":-3,"gmtOffset":-3,"timeZoneId":"America/Argentina/Cordoba"},"lat":-31.34311,"lng":-59.44512,"population":7977},{"id":3835238,"name":"Simoca","timezone":{"dstOffset":-3,"gmtOffset":-3,"timeZoneId":"America/Argentina/Tucuman"},"lat":-27.26272,"lng":-65.35647,"population":7939},{"id":3436370,"name":"Alvear","timezone":{"dstOffset":-3,"gmtOffset":-3,"timeZoneId":"America/Argentina/Cordoba"},"lat":-29.09683,"lng":-56.55043,"population":7917},{"id":3433363,"name":"Itatí","timezone":{"dstOffset":-3,"gmtOffset":-3,"timeZoneId":"America/Argentina/Cordoba"},"lat":-27.27043,"lng":-58.24458,"population":7902},{"id":3850005,"name":"Lamarque","timezone":{"dstOffset":-3,"gmtOffset":-3,"timeZoneId":"America/Argentina/Salta"},"lat":-39.42304,"lng":-65.70208,"population":7819},{"id":3853981,"name":"Huillapima","timezone":{"dstOffset":-3,"gmtOffset":-3,"timeZoneId":"America/Argentina/Catamarca"},"lat":-28.72533,"lng":-65.9787,"population":7779},{"id":3832189,"name":"Yuto","timezone":{"dstOffset":-3,"gmtOffset":-3,"timeZoneId":"America/Argentina/Jujuy"},"lat":-23.64342,"lng":-64.47194,"population":7732},{"id":3842882,"name":"Nueve de Julio","timezone":{"dstOffset":-3,"gmtOffset":-3,"timeZoneId":"America/Argentina/San_Juan"},"lat":-31.66914,"lng":-68.39023,"population":7652},{"id":3430402,"name":"Nuestra Señora del Rosario de Caa Catí","timezone":{"dstOffset":-3,"gmtOffset":-3,"timeZoneId":"America/Argentina/Cordoba"},"lat":-27.75072,"lng":-57.62073,"population":7573},{"id":3832711,"name":"Villa La Angostura","timezone":{"dstOffset":-3,"gmtOffset":-3,"timeZoneId":"America/Argentina/Salta"},"lat":-40.76173,"lng":-71.64631,"population":7526},{"id":3854336,"name":"Hermoso Campo","timezone":{"dstOffset":-3,"gmtOffset":-3,"timeZoneId":"America/Argentina/Cordoba"},"lat":-27.60816,"lng":-61.34441,"population":7435},{"id":3853331,"name":"Justiniano Posse","timezone":{"dstOffset":-3,"gmtOffset":-3,"timeZoneId":"America/Argentina/Cordoba"},"lat":-32.88411,"lng":-62.67788,"population":7406},{"id":3435266,"name":"Concepción de la Sierra","timezone":{"dstOffset":-3,"gmtOffset":-3,"timeZoneId":"America/Argentina/Cordoba"},"lat":-27.98311,"lng":-55.52031,"population":7398},{"id":3428644,"name":"San Miguel","timezone":{"dstOffset":-3,"gmtOffset":-3,"timeZoneId":"America/Argentina/Cordoba"},"lat":-27.99585,"lng":-57.58964,"population":7396},{"id":3832759,"name":"Villa de Soto","timezone":{"dstOffset":-3,"gmtOffset":-3,"timeZoneId":"America/Argentina/Cordoba"},"lat":-30.85523,"lng":-64.99947,"population":7303},{"id":3838201,"name":"Sampacho","timezone":{"dstOffset":-3,"gmtOffset":-3,"timeZoneId":"America/Argentina/Cordoba"},"lat":-33.3839,"lng":-64.72211,"population":7238},{"id":3851798,"name":"La Cumbre","timezone":{"dstOffset":-3,"gmtOffset":-3,"timeZoneId":"America/Argentina/Cordoba"},"lat":-30.98201,"lng":-64.49139,"population":7235},{"id":3839282,"name":"Realicó","timezone":{"dstOffset":-3,"gmtOffset":-3,"timeZoneId":"America/Argentina/Salta"},"lat":-35.03658,"lng":-64.2447,"population":7151},{"id":3850929,"name":"Laguna Larga","timezone":{"dstOffset":-3,"gmtOffset":-3,"timeZoneId":"America/Argentina/Cordoba"},"lat":-31.77652,"lng":-63.80104,"population":7137},{"id":3832763,"name":"Villa del Totoral","timezone":{"dstOffset":-3,"gmtOffset":-3,"timeZoneId":"America/Argentina/Cordoba"},"lat":-30.81667,"lng":-63.71667,"population":7110},{"id":3427399,"name":"Villa María Grande","timezone":{"dstOffset":-3,"gmtOffset":-3,"timeZoneId":"America/Argentina/Cordoba"},"lat":-31.66565,"lng":-59.90182,"population":7101},{"id":3851985,"name":"La Cocha","timezone":{"dstOffset":-3,"gmtOffset":-3,"timeZoneId":"America/Argentina/Tucuman"},"lat":-27.77729,"lng":-65.57035,"population":7066},{"id":3430940,"name":"Malabrigo","timezone":{"dstOffset":-3,"gmtOffset":-3,"timeZoneId":"America/Argentina/Cordoba"},"lat":-29.34636,"lng":-59.96957,"population":7026},{"id":3853745,"name":"Intendente Alvear","timezone":{"dstOffset":-3,"gmtOffset":-3,"timeZoneId":"America/Argentina/Salta"},"lat":-35.23383,"lng":-63.59205,"population":6990},{"id":3835297,"name":"Sierra Grande","timezone":{"dstOffset":-3,"gmtOffset":-3,"timeZoneId":"America/Argentina/Salta"},"lat":-41.60602,"lng":-65.35574,"population":6978},{"id":3833111,"name":"Veinticinco de Mayo","timezone":{"dstOffset":-3,"gmtOffset":-3,"timeZoneId":"America/Argentina/Salta"},"lat":-37.7741,"lng":-67.71638,"population":6962},{"id":3865474,"name":"Arias","timezone":{"dstOffset":-3,"gmtOffset":-3,"timeZoneId":"America/Argentina/Cordoba"},"lat":-33.64411,"lng":-62.40272,"population":6928},{"id":3843830,"name":"Monte Maíz","timezone":{"dstOffset":-3,"gmtOffset":-3,"timeZoneId":"America/Argentina/Cordoba"},"lat":-33.20462,"lng":-62.60085,"population":6920},{"id":3843871,"name":"Monte Cristo","timezone":{"dstOffset":-3,"gmtOffset":-3,"timeZoneId":"America/Argentina/Cordoba"},"lat":-31.34312,"lng":-63.94437,"population":6914},{"id":3838158,"name":"San Agustín de Valle Fértil","timezone":{"dstOffset":-3,"gmtOffset":-3,"timeZoneId":"America/Argentina/San_Juan"},"lat":-30.63353,"lng":-67.46821,"population":6864},{"id":3859839,"name":"Cruz Alta","timezone":{"dstOffset":-3,"gmtOffset":-3,"timeZoneId":"America/Argentina/Cordoba"},"lat":-33.00887,"lng":-61.80746,"population":6862},{"id":3853935,"name":"Icaño","timezone":{"dstOffset":-3,"gmtOffset":-3,"timeZoneId":"America/Argentina/Catamarca"},"lat":-28.91934,"lng":-65.32817,"population":6857},{"id":3844229,"name":"Mina Clavero","timezone":{"dstOffset":-3,"gmtOffset":-3,"timeZoneId":"America/Argentina/Cordoba"},"lat":-31.721,"lng":-65.00619,"population":6855},{"id":3865186,"name":"Aviá Terai","timezone":{"dstOffset":-3,"gmtOffset":-3,"timeZoneId":"America/Argentina/Cordoba"},"lat":-26.68532,"lng":-60.7292,"population":6821},{"id":3855114,"name":"General Fernández Oro","timezone":{"dstOffset":-3,"gmtOffset":-3,"timeZoneId":"America/Argentina/Salta"},"lat":-38.95297,"lng":-67.92489,"population":6813},{"id":3835938,"name":"Santa Rosa de Río Primero","timezone":{"dstOffset":-3,"gmtOffset":-3,"timeZoneId":"America/Argentina/Cordoba"},"lat":-31.15231,"lng":-63.40191,"population":6788},{"id":3837956,"name":"San Benito","timezone":{"dstOffset":-3,"gmtOffset":-3,"timeZoneId":"America/Argentina/Cordoba"},"lat":-31.78371,"lng":-60.44156,"population":6771},{"id":3847482,"name":"La Toma","timezone":{"dstOffset":-3,"gmtOffset":-3,"timeZoneId":"America/Argentina/San_Luis"},"lat":-33.05258,"lng":-65.62385,"population":6663},{"id":3833947,"name":"Trancas","timezone":{"dstOffset":-3,"gmtOffset":-3,"timeZoneId":"America/Argentina/Tucuman"},"lat":-26.21575,"lng":-65.28492,"population":6658},{"id":3436448,"name":"Alba Posse","timezone":{"dstOffset":-3,"gmtOffset":-3,"timeZoneId":"America/Argentina/Cordoba"},"lat":-27.56978,"lng":-54.68262,"population":6652},{"id":3832376,"name":"Yacimiento Río Turbio","timezone":{"dstOffset":-3,"gmtOffset":-3,"timeZoneId":"America/Argentina/Rio_Gallegos"},"lat":-51.57321,"lng":-72.3508,"population":6650},{"id":8521759,"name":"Río Turbio","timezone":{"dstOffset":-3,"gmtOffset":-3,"timeZoneId":"America/Argentina/Rio_Gallegos"},"lat":-51.53587,"lng":-72.33673,"population":6650},{"id":3846175,"name":"Los Frentones","timezone":{"dstOffset":-3,"gmtOffset":-3,"timeZoneId":"America/Argentina/Cordoba"},"lat":-26.4077,"lng":-61.41368,"population":6610},{"id":3832923,"name":"Victorica","timezone":{"dstOffset":-3,"gmtOffset":-3,"timeZoneId":"America/Argentina/Salta"},"lat":-36.21505,"lng":-65.43586,"population":6565},{"id":3853782,"name":"Ingeniero Luis A. Huergo","timezone":{"dstOffset":-3,"gmtOffset":-3,"timeZoneId":"America/Argentina/Salta"},"lat":-39.08333,"lng":-67.23333,"population":6483},{"id":3428928,"name":"San José","timezone":{"dstOffset":-3,"gmtOffset":-3,"timeZoneId":"America/Argentina/Cordoba"},"lat":-27.76979,"lng":-55.7826,"population":6452},{"id":3864274,"name":"Berrotarán","timezone":{"dstOffset":-3,"gmtOffset":-3,"timeZoneId":"America/Argentina/Cordoba"},"lat":-32.451,"lng":-64.38867,"population":6446},{"id":3866935,"name":"Adelia María","timezone":{"dstOffset":-3,"gmtOffset":-3,"timeZoneId":"America/Argentina/Cordoba"},"lat":-33.63152,"lng":-64.02097,"population":6434},{"id":3846514,"name":"Los Altos","timezone":{"dstOffset":-3,"gmtOffset":-3,"timeZoneId":"America/Argentina/Catamarca"},"lat":-28.04845,"lng":-65.49946,"population":6421},{"id":3838235,"name":"Salsipuedes","timezone":{"dstOffset":-3,"gmtOffset":-3,"timeZoneId":"America/Argentina/Cordoba"},"lat":-31.13724,"lng":-64.29589,"population":6411},{"id":3855368,"name":"Fray Luis Beltrán","timezone":{"dstOffset":-3,"gmtOffset":-3,"timeZoneId":"America/Argentina/Salta"},"lat":-39.31667,"lng":-65.76667,"population":6401},{"id":3833675,"name":"Trevelin","timezone":{"dstOffset":-3,"gmtOffset":-3,"timeZoneId":"America/Argentina/Catamarca"},"lat":-43.0858,"lng":-71.46386,"population":6395},{"id":3835372,"name":"Senillosa","timezone":{"dstOffset":-3,"gmtOffset":-3,"timeZoneId":"America/Argentina/Salta"},"lat":-39,"lng":-68.41667,"population":6394},{"id":3862772,"name":"Capayán","timezone":{"dstOffset":-3,"gmtOffset":-3,"timeZoneId":"America/Argentina/Catamarca"},"lat":-28.76105,"lng":-66.05024,"population":6358},{"id":3433743,"name":"Gobernador Roca","timezone":{"dstOffset":-3,"gmtOffset":-3,"timeZoneId":"America/Argentina/Cordoba"},"lat":-27.18636,"lng":-55.46433,"population":6315},{"id":3839482,"name":"Rada Tilly","timezone":{"dstOffset":-3,"gmtOffset":-3,"timeZoneId":"America/Argentina/Catamarca"},"lat":-45.93333,"lng":-67.53333,"population":6208},{"id":3431916,"name":"Larroque","timezone":{"dstOffset":-3,"gmtOffset":-3,"timeZoneId":"America/Argentina/Cordoba"},"lat":-33.03595,"lng":-59.00125,"population":6200},{"id":3429764,"name":"Puerto Libertad","timezone":{"dstOffset":-3,"gmtOffset":-3,"timeZoneId":"America/Argentina/Cordoba"},"lat":-25.91641,"lng":-54.62089,"population":6143},{"id":3840082,"name":"San Julián","timezone":{"dstOffset":-3,"gmtOffset":-3,"timeZoneId":"America/Argentina/Rio_Gallegos"},"lat":-49.30554,"lng":-67.72743,"population":6143},{"id":3430648,"name":"Mocoretá","timezone":{"dstOffset":-3,"gmtOffset":-3,"timeZoneId":"America/Argentina/Cordoba"},"lat":-30.61891,"lng":-57.96344,"population":6088},{"id":3834961,"name":"Suncho Corral","timezone":{"dstOffset":-3,"gmtOffset":-3,"timeZoneId":"America/Argentina/Cordoba"},"lat":-27.93357,"lng":-63.42938,"population":6087},{"id":3430178,"name":"Panambí","timezone":{"dstOffset":-3,"gmtOffset":-3,"timeZoneId":"America/Argentina/Cordoba"},"lat":-27.7237,"lng":-54.91514,"population":5970},{"id":3832734,"name":"Villa General Belgrano","timezone":{"dstOffset":-3,"gmtOffset":-3,"timeZoneId":"America/Argentina/Cordoba"},"lat":-31.97542,"lng":-64.5559,"population":5888},{"id":3435701,"name":"Capioví","timezone":{"dstOffset":-3,"gmtOffset":-3,"timeZoneId":"America/Argentina/Cordoba"},"lat":-26.92998,"lng":-55.06084,"population":5860},{"id":3832658,"name":"Villa Ojo de Agua","timezone":{"dstOffset":-3,"gmtOffset":-3,"timeZoneId":"America/Argentina/Cordoba"},"lat":-29.50003,"lng":-63.69377,"population":5832},{"id":3860419,"name":"Concepción del Bermejo","timezone":{"dstOffset":-3,"gmtOffset":-3,"timeZoneId":"America/Argentina/Cordoba"},"lat":-26.59926,"lng":-60.94617,"population":5830},{"id":3430105,"name":"Paso de la Patria","timezone":{"dstOffset":-3,"gmtOffset":-3,"timeZoneId":"America/Argentina/Cordoba"},"lat":-27.31676,"lng":-58.57197,"population":5818},{"id":3430968,"name":"Maciá","timezone":{"dstOffset":-3,"gmtOffset":-3,"timeZoneId":"America/Argentina/Cordoba"},"lat":-32.1722,"lng":-59.39947,"population":5806},{"id":3853786,"name":"Ingeniero Jacobacci","timezone":{"dstOffset":-3,"gmtOffset":-3,"timeZoneId":"America/Argentina/Salta"},"lat":-41.3292,"lng":-69.55015,"population":5785},{"id":3855284,"name":"Gaimán","timezone":{"dstOffset":-3,"gmtOffset":-3,"timeZoneId":"America/Argentina/Catamarca"},"lat":-43.2897,"lng":-65.4929,"population":5753},{"id":3430029,"name":"Perugorría","timezone":{"dstOffset":-3,"gmtOffset":-3,"timeZoneId":"America/Argentina/Cordoba"},"lat":-29.34132,"lng":-58.61059,"population":5685},{"id":3435283,"name":"Comandante Fontana","timezone":{"dstOffset":-3,"gmtOffset":-3,"timeZoneId":"America/Argentina/Cordoba"},"lat":-25.33453,"lng":-59.68212,"population":5655},{"id":3859429,"name":"Despeñaderos","timezone":{"dstOffset":-3,"gmtOffset":-3,"timeZoneId":"America/Argentina/Cordoba"},"lat":-31.81626,"lng":-64.28989,"population":5645},{"id":3834403,"name":"Tilcara","timezone":{"dstOffset":-3,"gmtOffset":-3,"timeZoneId":"America/Argentina/Jujuy"},"lat":-23.57757,"lng":-65.3509,"population":5640},{"id":3832783,"name":"Chañar Ladeado","timezone":{"dstOffset":-3,"gmtOffset":-3,"timeZoneId":"America/Argentina/Cordoba"},"lat":-33.32524,"lng":-62.03831,"population":5639},{"id":3854008,"name":"Huerta Grande","timezone":{"dstOffset":-3,"gmtOffset":-3,"timeZoneId":"America/Argentina/Cordoba"},"lat":-31.07524,"lng":-64.49063,"population":5630},{"id":3859409,"name":"Devoto","timezone":{"dstOffset":-3,"gmtOffset":-3,"timeZoneId":"America/Argentina/Cordoba"},"lat":-31.40431,"lng":-62.30634,"population":5597},{"id":3855121,"name":"General Conesa","timezone":{"dstOffset":-3,"gmtOffset":-3,"timeZoneId":"America/Argentina/Salta"},"lat":-40.1,"lng":-64.43333,"population":5595},{"id":3864888,"name":"Balnearia","timezone":{"dstOffset":-3,"gmtOffset":-3,"timeZoneId":"America/Argentina/Cordoba"},"lat":-31.0088,"lng":-62.66733,"population":5585},{"id":3430857,"name":"Margarita Belén","timezone":{"dstOffset":-3,"gmtOffset":-3,"timeZoneId":"America/Argentina/Cordoba"},"lat":-27.2616,"lng":-58.97219,"population":5547},{"id":3835695,"name":"Sastre","timezone":{"dstOffset":-3,"gmtOffset":-3,"timeZoneId":"America/Argentina/Cordoba"},"lat":-31.76762,"lng":-61.82886,"population":5521},{"id":3843881,"name":"Monte Buey","timezone":{"dstOffset":-3,"gmtOffset":-3,"timeZoneId":"America/Argentina/Cordoba"},"lat":-32.91642,"lng":-62.45668,"population":5497},{"id":3852480,"name":"Laborde","timezone":{"dstOffset":-3,"gmtOffset":-3,"timeZoneId":"America/Argentina/Cordoba"},"lat":-33.15319,"lng":-62.85661,"population":5492},{"id":3855098,"name":"General Levalle","timezone":{"dstOffset":-3,"gmtOffset":-3,"timeZoneId":"America/Argentina/Cordoba"},"lat":-34.01472,"lng":-63.92413,"population":5492},{"id":3833211,"name":"Valle Hermoso","timezone":{"dstOffset":-3,"gmtOffset":-3,"timeZoneId":"America/Argentina/Cordoba"},"lat":-31.11732,"lng":-64.48084,"population":5486},{"id":3834397,"name":"Tilisarao","timezone":{"dstOffset":-3,"gmtOffset":-3,"timeZoneId":"America/Argentina/San_Luis"},"lat":-32.73292,"lng":-65.29109,"population":5478},{"id":3863136,"name":"Campo Gallo","timezone":{"dstOffset":-3,"gmtOffset":-3,"timeZoneId":"America/Argentina/Cordoba"},"lat":-26.58333,"lng":-62.85,"population":5455},{"id":3428079,"name":"Santo Pipó","timezone":{"dstOffset":-3,"gmtOffset":-3,"timeZoneId":"America/Argentina/Cordoba"},"lat":-27.14132,"lng":-55.40867,"population":5447},{"id":3840470,"name":"Pozo del Molle","timezone":{"dstOffset":-3,"gmtOffset":-3,"timeZoneId":"America/Argentina/Cordoba"},"lat":-32.0186,"lng":-62.91984,"population":5429},{"id":3863491,"name":"Caimancito","timezone":{"dstOffset":-3,"gmtOffset":-3,"timeZoneId":"America/Argentina/Jujuy"},"lat":-23.7407,"lng":-64.5937,"population":5403},{"id":3427420,"name":"Villa Hernandarias","timezone":{"dstOffset":-3,"gmtOffset":-3,"timeZoneId":"America/Argentina/Cordoba"},"lat":-31.23101,"lng":-59.985,"population":5375},{"id":3430186,"name":"Palo Santo","timezone":{"dstOffset":-3,"gmtOffset":-3,"timeZoneId":"America/Argentina/Cordoba"},"lat":-25.56332,"lng":-59.33781,"population":5324},{"id":3435532,"name":"Cerro Azul","timezone":{"dstOffset":-3,"gmtOffset":-3,"timeZoneId":"America/Argentina/Cordoba"},"lat":-27.6331,"lng":-55.4962,"population":5323},{"id":3864328,"name":"Beltrán","timezone":{"dstOffset":-3,"gmtOffset":-3,"timeZoneId":"America/Argentina/Cordoba"},"lat":-27.82913,"lng":-64.06098,"population":5321},{"id":3842268,"name":"Palma Sola","timezone":{"dstOffset":-3,"gmtOffset":-3,"timeZoneId":"America/Argentina/Jujuy"},"lat":-23.96336,"lng":-64.29872,"population":5318},{"id":3848343,"name":"Las Higueras","timezone":{"dstOffset":-3,"gmtOffset":-3,"timeZoneId":"America/Argentina/Cordoba"},"lat":-33.09231,"lng":-64.289,"population":5282},{"id":3854493,"name":"Guatraché","timezone":{"dstOffset":-3,"gmtOffset":-3,"timeZoneId":"America/Argentina/Salta"},"lat":-37.66776,"lng":-63.53022,"population":5271},{"id":3854724,"name":"Graneros","timezone":{"dstOffset":-3,"gmtOffset":-3,"timeZoneId":"America/Argentina/Tucuman"},"lat":-27.64934,"lng":-65.4383,"population":5263},{"id":3834665,"name":"Tancacha","timezone":{"dstOffset":-3,"gmtOffset":-3,"timeZoneId":"America/Argentina/Cordoba"},"lat":-32.24309,"lng":-63.9807,"population":5184},{"id":3863366,"name":"Calilegua","timezone":{"dstOffset":-3,"gmtOffset":-3,"timeZoneId":"America/Argentina/Jujuy"},"lat":-23.77368,"lng":-64.77002,"population":5174},{"id":3861966,"name":"Cervantes","timezone":{"dstOffset":-3,"gmtOffset":-3,"timeZoneId":"America/Argentina/Salta"},"lat":-39.05,"lng":-67.38333,"population":5173},{"id":3832719,"name":"Villa Huidobro","timezone":{"dstOffset":-3,"gmtOffset":-3,"timeZoneId":"America/Argentina/Cordoba"},"lat":-34.83826,"lng":-64.58686,"population":5155},{"id":3434932,"name":"El Alcázar","timezone":{"dstOffset":-3,"gmtOffset":-3,"timeZoneId":"America/Argentina/Cordoba"},"lat":-26.71459,"lng":-54.81523,"population":5127},{"id":3853767,"name":"Ingenio La Esperanza","timezone":{"dstOffset":-3,"gmtOffset":-3,"timeZoneId":"America/Argentina/Jujuy"},"lat":-24.22554,"lng":-64.83896,"population":5002},{"id":3863050,"name":"Campo Quijano","timezone":{"dstOffset":-3,"gmtOffset":-3,"timeZoneId":"America/Argentina/Salta"},"lat":-24.90982,"lng":-65.63656,"population":5000},{"id":7304381,"name":"Villa Berna","timezone":{"dstOffset":-3,"gmtOffset":-3,"timeZoneId":"America/Argentina/Cordoba"},"lat":-31.90321,"lng":-64.75651,"population":5000},{"id":3430943,"name":"Makallé","timezone":{"dstOffset":-3,"gmtOffset":-3,"timeZoneId":"America/Argentina/Cordoba"},"lat":-27.20687,"lng":-59.28696,"population":4994},{"id":3429864,"name":"Presidencia Roca","timezone":{"dstOffset":-3,"gmtOffset":-3,"timeZoneId":"America/Argentina/Cordoba"},"lat":-26.1409,"lng":-59.59541,"population":4987},{"id":3863314,"name":"Camilo Aldao","timezone":{"dstOffset":-3,"gmtOffset":-3,"timeZoneId":"America/Argentina/Cordoba"},"lat":-33.12745,"lng":-62.09453,"population":4895},{"id":3836407,"name":"Santa Clara","timezone":{"dstOffset":-3,"gmtOffset":-3,"timeZoneId":"America/Argentina/Jujuy"},"lat":-24.30921,"lng":-64.66253,"population":4883},{"id":3834985,"name":"Sumampa","timezone":{"dstOffset":-3,"gmtOffset":-3,"timeZoneId":"America/Argentina/Cordoba"},"lat":-29.3847,"lng":-63.46906,"population":4812},{"id":3435273,"name":"Concepción","timezone":{"dstOffset":-3,"gmtOffset":-3,"timeZoneId":"America/Argentina/Cordoba"},"lat":-28.39175,"lng":-57.88777,"population":4800},{"id":3845344,"name":"Macachín","timezone":{"dstOffset":-3,"gmtOffset":-3,"timeZoneId":"America/Argentina/Salta"},"lat":-37.13598,"lng":-63.6665,"population":4768},{"id":3833463,"name":"Ucacha","timezone":{"dstOffset":-3,"gmtOffset":-3,"timeZoneId":"America/Argentina/Cordoba"},"lat":-33.03203,"lng":-63.50666,"population":4747},{"id":3866356,"name":"Alejandro Roca","timezone":{"dstOffset":-3,"gmtOffset":-3,"timeZoneId":"America/Argentina/Cordoba"},"lat":-33.35369,"lng":-63.71849,"population":4724},{"id":3832773,"name":"Villa Cura Brochero","timezone":{"dstOffset":-3,"gmtOffset":-3,"timeZoneId":"America/Argentina/Cordoba"},"lat":-31.70578,"lng":-65.01796,"population":4707},{"id":3833094,"name":"28 de Noviembre","timezone":{"dstOffset":-3,"gmtOffset":-3,"timeZoneId":"America/Argentina/Rio_Gallegos"},"lat":-51.5839,"lng":-72.21382,"population":4686},{"id":3832729,"name":"Villa Giardino","timezone":{"dstOffset":-3,"gmtOffset":-3,"timeZoneId":"America/Argentina/Cordoba"},"lat":-31.03333,"lng":-64.48333,"population":4679},{"id":3848216,"name":"Las Lajas","timezone":{"dstOffset":-3,"gmtOffset":-3,"timeZoneId":"America/Argentina/Salta"},"lat":-38.52322,"lng":-70.36744,"population":4673},{"id":3853783,"name":"Ingeniero Luiggi","timezone":{"dstOffset":-3,"gmtOffset":-3,"timeZoneId":"America/Argentina/Salta"},"lat":-35.38585,"lng":-64.46519,"population":4671},{"id":3840762,"name":"Porteña","timezone":{"dstOffset":-3,"gmtOffset":-3,"timeZoneId":"America/Argentina/Cordoba"},"lat":-31.01391,"lng":-62.0665,"population":4624},{"id":3847911,"name":"Las Perdices","timezone":{"dstOffset":-3,"gmtOffset":-3,"timeZoneId":"America/Argentina/Cordoba"},"lat":-32.69794,"lng":-63.70634,"population":4615},{"id":3435330,"name":"Colonia Elisa","timezone":{"dstOffset":-3,"gmtOffset":-3,"timeZoneId":"America/Argentina/Cordoba"},"lat":-26.93041,"lng":-59.51861,"population":4570},{"id":3853562,"name":"James Craik","timezone":{"dstOffset":-3,"gmtOffset":-3,"timeZoneId":"America/Argentina/Cordoba"},"lat":-32.1612,"lng":-63.46688,"population":4560},{"id":3839588,"name":"Quilino","timezone":{"dstOffset":-3,"gmtOffset":-3,"timeZoneId":"America/Argentina/Cordoba"},"lat":-30.21397,"lng":-64.50063,"population":4534},{"id":3433648,"name":"Guaraní","timezone":{"dstOffset":-3,"gmtOffset":-3,"timeZoneId":"America/Argentina/Cordoba"},"lat":-27.51667,"lng":-55.16667,"population":4530},{"id":3860431,"name":"Concarán","timezone":{"dstOffset":-3,"gmtOffset":-3,"timeZoneId":"America/Argentina/San_Luis"},"lat":-32.56009,"lng":-65.2427,"population":4530},{"id":3843026,"name":"Noetinger","timezone":{"dstOffset":-3,"gmtOffset":-3,"timeZoneId":"America/Argentina/Cordoba"},"lat":-32.36597,"lng":-62.31126,"population":4508},{"id":3847516,"name":"La Tigra","timezone":{"dstOffset":-3,"gmtOffset":-3,"timeZoneId":"America/Argentina/Cordoba"},"lat":-27.10996,"lng":-60.58719,"population":4505},{"id":3835941,"name":"Santa Rosa del Conlara","timezone":{"dstOffset":-3,"gmtOffset":-3,"timeZoneId":"America/Argentina/San_Luis"},"lat":-32.34286,"lng":-65.20323,"population":4489},{"id":3429778,"name":"Puerto Ibicuy","timezone":{"dstOffset":-3,"gmtOffset":-3,"timeZoneId":"America/Argentina/Cordoba"},"lat":-33.73333,"lng":-59.18333,"population":4477},{"id":3431005,"name":"Lucas González","timezone":{"dstOffset":-3,"gmtOffset":-3,"timeZoneId":"America/Argentina/Cordoba"},"lat":-32.3843,"lng":-59.53013,"population":4466},{"id":3429157,"name":"San Cosme","timezone":{"dstOffset":-3,"gmtOffset":-3,"timeZoneId":"America/Argentina/Cordoba"},"lat":-27.37123,"lng":-58.51214,"population":4429},{"id":3433580,"name":"Hasenkamp","timezone":{"dstOffset":-3,"gmtOffset":-3,"timeZoneId":"America/Argentina/Cordoba"},"lat":-31.51226,"lng":-59.83545,"population":4413},{"id":3842140,"name":"Pampa de los Guanacos","timezone":{"dstOffset":-3,"gmtOffset":-3,"timeZoneId":"America/Argentina/Cordoba"},"lat":-26.23333,"lng":-61.85,"population":4393},{"id":3429054,"name":"San Francisco de Laishí","timezone":{"dstOffset":-3,"gmtOffset":-3,"timeZoneId":"America/Argentina/Cordoba"},"lat":-26.24262,"lng":-58.63039,"population":4384},{"id":3846634,"name":"Loncopué","timezone":{"dstOffset":-3,"gmtOffset":-3,"timeZoneId":"America/Argentina/Salta"},"lat":-38.07284,"lng":-70.61609,"population":4323},{"id":3862293,"name":"Castro Barros","timezone":{"dstOffset":-3,"gmtOffset":-3,"timeZoneId":"America/Argentina/La_Rioja"},"lat":-30.57952,"lng":-65.72696,"population":4322},{"id":3838057,"name":"San Antonio","timezone":{"dstOffset":-3,"gmtOffset":-3,"timeZoneId":"America/Argentina/Catamarca"},"lat":-28.00927,"lng":-65.71218,"population":4290},{"id":3853643,"name":"Isla Verde","timezone":{"dstOffset":-3,"gmtOffset":-3,"timeZoneId":"America/Argentina/Cordoba"},"lat":-33.24104,"lng":-62.40297,"population":4245},{"id":3431777,"name":"Las Garcitas","timezone":{"dstOffset":-3,"gmtOffset":-3,"timeZoneId":"America/Argentina/Cordoba"},"lat":-26.58333,"lng":-59.8,"population":4244},{"id":3844424,"name":"Mendiolaza","timezone":{"dstOffset":-3,"gmtOffset":-3,"timeZoneId":"America/Argentina/Cordoba"},"lat":-31.26738,"lng":-64.30087,"population":4204},{"id":3860466,"name":"Comandante Luis Piedra Buena","timezone":{"dstOffset":-3,"gmtOffset":-3,"timeZoneId":"America/Argentina/Rio_Gallegos"},"lat":-49.98513,"lng":-68.91467,"population":4176},{"id":3433809,"name":"General Galarza","timezone":{"dstOffset":-3,"gmtOffset":-3,"timeZoneId":"America/Argentina/Cordoba"},"lat":-32.72034,"lng":-59.39615,"population":4150},{"id":3433373,"name":"Itá Ibaté","timezone":{"dstOffset":-3,"gmtOffset":-3,"timeZoneId":"America/Argentina/Cordoba"},"lat":-27.42573,"lng":-57.33758,"population":4115},{"id":3435295,"name":"Colonias Unidas","timezone":{"dstOffset":-3,"gmtOffset":-3,"timeZoneId":"America/Argentina/Cordoba"},"lat":-26.69825,"lng":-59.63154,"population":4093},{"id":3861528,"name":"Chichinales","timezone":{"dstOffset":-3,"gmtOffset":-3,"timeZoneId":"America/Argentina/Salta"},"lat":-39.11505,"lng":-66.92714,"population":4060},{"id":3836170,"name":"Santa Magdalena","timezone":{"dstOffset":-3,"gmtOffset":-3,"timeZoneId":"America/Argentina/Cordoba"},"lat":-34.51776,"lng":-63.94409,"population":4059},{"id":3855763,"name":"Estanislao del Campo","timezone":{"dstOffset":-3,"gmtOffset":-3,"timeZoneId":"America/Argentina/Cordoba"},"lat":-25.05504,"lng":-60.09218,"population":4055},{"id":3851100,"name":"Lago Puelo","timezone":{"dstOffset":-3,"gmtOffset":-3,"timeZoneId":"America/Argentina/Catamarca"},"lat":-42.08095,"lng":-71.61405,"population":4046},{"id":3832080,"name":"Villa Basilio Nievas","timezone":{"dstOffset":-3,"gmtOffset":-3,"timeZoneId":"America/Argentina/San_Juan"},"lat":-31.55,"lng":-68.73333,"population":4038},{"id":3834814,"name":"Tafí del Valle","timezone":{"dstOffset":-3,"gmtOffset":-3,"timeZoneId":"America/Argentina/Tucuman"},"lat":-26.85275,"lng":-65.70983,"population":4028},{"id":3837985,"name":"San Antonio de los Cobres","timezone":{"dstOffset":-3,"gmtOffset":-3,"timeZoneId":"America/Argentina/Salta"},"lat":-24.21804,"lng":-66.31877,"population":4000},{"id":3427386,"name":"Villa Paranacito","timezone":{"dstOffset":-3,"gmtOffset":-3,"timeZoneId":"America/Argentina/Cordoba"},"lat":-33.72208,"lng":-58.65798,"population":3988},{"id":3429820,"name":"Pueblo Libertador","timezone":{"dstOffset":-3,"gmtOffset":-3,"timeZoneId":"America/Argentina/Cordoba"},"lat":-30.22087,"lng":-59.38981,"population":3973},{"id":3432653,"name":"La Escondida","timezone":{"dstOffset":-3,"gmtOffset":-3,"timeZoneId":"America/Argentina/Cordoba"},"lat":-27.10724,"lng":-59.44784,"population":3948},{"id":3840432,"name":"Pozo del Tigre","timezone":{"dstOffset":-3,"gmtOffset":-3,"timeZoneId":"America/Argentina/Cordoba"},"lat":-24.89682,"lng":-60.32359,"population":3948},{"id":3861405,"name":"Chimpay","timezone":{"dstOffset":-3,"gmtOffset":-3,"timeZoneId":"America/Argentina/Salta"},"lat":-39.16482,"lng":-66.14236,"population":3905},{"id":3834352,"name":"Tintina","timezone":{"dstOffset":-3,"gmtOffset":-3,"timeZoneId":"America/Argentina/Cordoba"},"lat":-27.03333,"lng":-62.71667,"population":3868},{"id":3839668,"name":"Quemú Quemú","timezone":{"dstOffset":-3,"gmtOffset":-3,"timeZoneId":"America/Argentina/Salta"},"lat":-36.05463,"lng":-63.56428,"population":3851},{"id":3855117,"name":"General Enrique Godoy","timezone":{"dstOffset":-3,"gmtOffset":-3,"timeZoneId":"America/Argentina/Salta"},"lat":-39.08333,"lng":-67.15,"population":3823},{"id":3432707,"name":"La Eduvigis","timezone":{"dstOffset":-3,"gmtOffset":-3,"timeZoneId":"America/Argentina/Cordoba"},"lat":-26.85545,"lng":-59.06842,"population":3816},{"id":3849924,"name":"La Mendieta","timezone":{"dstOffset":-3,"gmtOffset":-3,"timeZoneId":"America/Argentina/Jujuy"},"lat":-24.31187,"lng":-64.96377,"population":3812},{"id":3855719,"name":"Etruria","timezone":{"dstOffset":-3,"gmtOffset":-3,"timeZoneId":"America/Argentina/Cordoba"},"lat":-32.94008,"lng":-63.2466,"population":3788},{"id":3857756,"name":"El Maitén","timezone":{"dstOffset":-3,"gmtOffset":-3,"timeZoneId":"America/Argentina/Catamarca"},"lat":-42.04924,"lng":-71.16693,"population":3782},{"id":3853748,"name":"Inriville","timezone":{"dstOffset":-3,"gmtOffset":-3,"timeZoneId":"America/Argentina/Cordoba"},"lat":-32.94424,"lng":-62.23028,"population":3778},{"id":3862251,"name":"Catriló","timezone":{"dstOffset":-3,"gmtOffset":-3,"timeZoneId":"America/Argentina/Salta"},"lat":-36.40598,"lng":-63.42168,"population":3743},{"id":3855237,"name":"Gancedo","timezone":{"dstOffset":-3,"gmtOffset":-3,"timeZoneId":"America/Argentina/Cordoba"},"lat":-27.49038,"lng":-61.67571,"population":3737},{"id":3866000,"name":"Aluminé","timezone":{"dstOffset":-3,"gmtOffset":-3,"timeZoneId":"America/Argentina/Salta"},"lat":-39.23686,"lng":-70.9197,"population":3720},{"id":3839381,"name":"Rancul","timezone":{"dstOffset":-3,"gmtOffset":-3,"timeZoneId":"America/Argentina/Salta"},"lat":-35.06862,"lng":-64.68107,"population":3699},{"id":3429560,"name":"Riachuelo","timezone":{"dstOffset":-3,"gmtOffset":-3,"timeZoneId":"America/Argentina/Cordoba"},"lat":-27.57754,"lng":-58.73945,"population":3668},{"id":3859000,"name":"El Aguilar","timezone":{"dstOffset":-3,"gmtOffset":-3,"timeZoneId":"America/Argentina/Jujuy"},"lat":-23.22582,"lng":-65.69213,"population":3655},{"id":3436100,"name":"Basail","timezone":{"dstOffset":-3,"gmtOffset":-3,"timeZoneId":"America/Argentina/Cordoba"},"lat":-27.86667,"lng":-59.3,"population":3652},{"id":3835402,"name":"Seguí","timezone":{"dstOffset":-3,"gmtOffset":-3,"timeZoneId":"America/Argentina/Cordoba"},"lat":-31.95642,"lng":-60.12488,"population":3646},{"id":3851993,"name":"La Clotilde","timezone":{"dstOffset":-3,"gmtOffset":-3,"timeZoneId":"America/Argentina/Cordoba"},"lat":-27.13333,"lng":-60.66667,"population":3625},{"id":3431161,"name":"Los Helechos","timezone":{"dstOffset":-3,"gmtOffset":-3,"timeZoneId":"America/Argentina/Cordoba"},"lat":-27.5576,"lng":-55.07683,"population":3616},{"id":3832733,"name":"Villa General Mitre","timezone":{"dstOffset":-3,"gmtOffset":-3,"timeZoneId":"America/Argentina/Cordoba"},"lat":-29.1431,"lng":-62.65248,"population":3605},{"id":3833283,"name":"Valcheta","timezone":{"dstOffset":-3,"gmtOffset":-3,"timeZoneId":"America/Argentina/Salta"},"lat":-40.7,"lng":-66.15,"population":3596},{"id":3841475,"name":"Perito Moreno","timezone":{"dstOffset":-3,"gmtOffset":-3,"timeZoneId":"America/Argentina/Rio_Gallegos"},"lat":-46.58994,"lng":-70.92975,"population":3588},{"id":3435340,"name":"Colonia Benítez","timezone":{"dstOffset":-3,"gmtOffset":-3,"timeZoneId":"America/Argentina/Cordoba"},"lat":-27.33099,"lng":-58.94622,"population":3584},{"id":3429567,"name":"Riacho Eh-Eh","timezone":{"dstOffset":-3,"gmtOffset":-3,"timeZoneId":"America/Argentina/Cordoba"},"lat":-25.36209,"lng":-58.2775,"population":3566},{"id":3433751,"name":"Gobernador Juan E. Martínez","timezone":{"dstOffset":-3,"gmtOffset":-3,"timeZoneId":"America/Argentina/Cordoba"},"lat":-28.91705,"lng":-58.93292,"population":3529},{"id":3433773,"name":"General Vedia","timezone":{"dstOffset":-3,"gmtOffset":-3,"timeZoneId":"America/Argentina/Cordoba"},"lat":-26.93382,"lng":-58.6604,"population":3513},{"id":3851181,"name":"La Francia","timezone":{"dstOffset":-3,"gmtOffset":-3,"timeZoneId":"America/Argentina/Cordoba"},"lat":-31.40675,"lng":-62.63396,"population":3503},{"id":3427454,"name":"Villa del Rosario","timezone":{"dstOffset":-3,"gmtOffset":-3,"timeZoneId":"America/Argentina/Cordoba"},"lat":-30.79567,"lng":-57.91257,"population":3488},{"id":3436205,"name":"Azara","timezone":{"dstOffset":-3,"gmtOffset":-3,"timeZoneId":"America/Argentina/Cordoba"},"lat":-28.0616,"lng":-55.67797,"population":3484},{"id":3833880,"name":"Trenel","timezone":{"dstOffset":-3,"gmtOffset":-3,"timeZoneId":"America/Argentina/Salta"},"lat":-35.69837,"lng":-64.13218,"population":3426},{"id":3431188,"name":"Los Charrúas","timezone":{"dstOffset":-3,"gmtOffset":-3,"timeZoneId":"America/Argentina/Cordoba"},"lat":-31.17548,"lng":-58.18774,"population":3414},{"id":3840076,"name":"Puerto Santa Cruz","timezone":{"dstOffset":-3,"gmtOffset":-3,"timeZoneId":"America/Argentina/Rio_Gallegos"},"lat":-50.0191,"lng":-68.52321,"population":3397},{"id":3840809,"name":"Pomán","timezone":{"dstOffset":-3,"gmtOffset":-3,"timeZoneId":"America/Argentina/Catamarca"},"lat":-28.39455,"lng":-66.22052,"population":3387},{"id":3429426,"name":"Ruiz de Montoya","timezone":{"dstOffset":-3,"gmtOffset":-3,"timeZoneId":"America/Argentina/Cordoba"},"lat":-26.98333,"lng":-55.05,"population":3374},{"id":3841232,"name":"Piedra del Águila","timezone":{"dstOffset":-3,"gmtOffset":-3,"timeZoneId":"America/Argentina/Salta"},"lat":-40.04811,"lng":-70.0741,"population":3372},{"id":3429210,"name":"San Carlos","timezone":{"dstOffset":-3,"gmtOffset":-3,"timeZoneId":"America/Argentina/Cordoba"},"lat":-27.74586,"lng":-55.8973,"population":3350},{"id":3860811,"name":"Colonia Barón","timezone":{"dstOffset":-3,"gmtOffset":-3,"timeZoneId":"America/Argentina/Salta"},"lat":-36.15152,"lng":-63.85404,"population":3317},{"id":3866353,"name":"Alejo Ledesma","timezone":{"dstOffset":-3,"gmtOffset":-3,"timeZoneId":"America/Argentina/Cordoba"},"lat":-33.60643,"lng":-62.62304,"population":3310},{"id":3837624,"name":"San Francisco del Monte de Oro","timezone":{"dstOffset":-3,"gmtOffset":-3,"timeZoneId":"America/Argentina/San_Luis"},"lat":-32.59825,"lng":-66.12539,"population":3295},{"id":3435679,"name":"Caraguatay","timezone":{"dstOffset":-3,"gmtOffset":-3,"timeZoneId":"America/Argentina/Cordoba"},"lat":-26.60587,"lng":-54.78093,"population":3287},{"id":3837239,"name":"San José de la Dormida","timezone":{"dstOffset":-3,"gmtOffset":-3,"timeZoneId":"America/Argentina/Cordoba"},"lat":-30.3544,"lng":-63.94872,"population":3272},{"id":3843647,"name":"Morrison","timezone":{"dstOffset":-3,"gmtOffset":-3,"timeZoneId":"America/Argentina/Cordoba"},"lat":-32.5948,"lng":-62.83455,"population":3245},{"id":3841301,"name":"Picún Leufú","timezone":{"dstOffset":-3,"gmtOffset":-3,"timeZoneId":"America/Argentina/Salta"},"lat":-39.52351,"lng":-69.27966,"population":3222},{"id":3846080,"name":"Los Juríes","timezone":{"dstOffset":-3,"gmtOffset":-3,"timeZoneId":"America/Argentina/Cordoba"},"lat":-28.46539,"lng":-62.10862,"population":3212},{"id":7304383,"name":"Cuesta Blanca","timezone":{"dstOffset":-3,"gmtOffset":-3,"timeZoneId":"America/Argentina/Cordoba"},"lat":-31.48658,"lng":-64.5715,"population":3200},{"id":3843407,"name":"Naschel","timezone":{"dstOffset":-3,"gmtOffset":-3,"timeZoneId":"America/Argentina/San_Luis"},"lat":-32.91656,"lng":-65.37535,"population":3157},{"id":3859500,"name":"Del Campillo","timezone":{"dstOffset":-3,"gmtOffset":-3,"timeZoneId":"America/Argentina/Cordoba"},"lat":-34.37659,"lng":-64.49504,"population":3155},{"id":3865830,"name":"Ancasti","timezone":{"dstOffset":-3,"gmtOffset":-3,"timeZoneId":"America/Argentina/Catamarca"},"lat":-28.81247,"lng":-65.50145,"population":3082},{"id":3434997,"name":"Dos Arroyos","timezone":{"dstOffset":-3,"gmtOffset":-3,"timeZoneId":"America/Argentina/Cordoba"},"lat":-27.70784,"lng":-55.23364,"population":3079},{"id":3843436,"name":"Napenay","timezone":{"dstOffset":-3,"gmtOffset":-3,"timeZoneId":"America/Argentina/Cordoba"},"lat":-26.73333,"lng":-60.61667,"population":3056},{"id":3834251,"name":"Toledo","timezone":{"dstOffset":-3,"gmtOffset":-3,"timeZoneId":"America/Argentina/Cordoba"},"lat":-31.55574,"lng":-64.00947,"population":3046},{"id":3849557,"name":"La Para","timezone":{"dstOffset":-3,"gmtOffset":-3,"timeZoneId":"America/Argentina/Cordoba"},"lat":-30.89416,"lng":-63.00107,"population":3021},{"id":3854318,"name":"Hersilia","timezone":{"dstOffset":-3,"gmtOffset":-3,"timeZoneId":"America/Argentina/Cordoba"},"lat":-30.00447,"lng":-61.8408,"population":3000},{"id":3431460,"name":"La Verde","timezone":{"dstOffset":-3,"gmtOffset":-3,"timeZoneId":"America/Argentina/Cordoba"},"lat":-27.12634,"lng":-59.37352,"population":2995},{"id":3433815,"name":"General Campos","timezone":{"dstOffset":-3,"gmtOffset":-3,"timeZoneId":"America/Argentina/Cordoba"},"lat":-31.52311,"lng":-58.4049,"population":2982},{"id":3832608,"name":"Villa Trinidad","timezone":{"dstOffset":-3,"gmtOffset":-3,"timeZoneId":"America/Argentina/Cordoba"},"lat":-30.21329,"lng":-61.87597,"population":2945},{"id":3838840,"name":"Río Mayo","timezone":{"dstOffset":-3,"gmtOffset":-3,"timeZoneId":"America/Argentina/Catamarca"},"lat":-45.68573,"lng":-70.25797,"population":2939},{"id":3859278,"name":"Dolavón","timezone":{"dstOffset":-3,"gmtOffset":-3,"timeZoneId":"America/Argentina/Catamarca"},"lat":-43.3,"lng":-65.7,"population":2929},{"id":3832388,"name":"Winifreda","timezone":{"dstOffset":-3,"gmtOffset":-3,"timeZoneId":"America/Argentina/Salta"},"lat":-36.22643,"lng":-64.23388,"population":2902},{"id":3427994,"name":"Sauce de Luna","timezone":{"dstOffset":-3,"gmtOffset":-3,"timeZoneId":"America/Argentina/Cordoba"},"lat":-31.23794,"lng":-59.21872,"population":2901},{"id":3837960,"name":"San Basilio","timezone":{"dstOffset":-3,"gmtOffset":-3,"timeZoneId":"America/Argentina/Cordoba"},"lat":-33.49763,"lng":-64.31495,"population":2882},{"id":3838174,"name":"San Agustín","timezone":{"dstOffset":-3,"gmtOffset":-3,"timeZoneId":"America/Argentina/Cordoba"},"lat":-31.97681,"lng":-64.374,"population":2870},{"id":3832518,"name":"Vista Alegre","timezone":{"dstOffset":-3,"gmtOffset":-3,"timeZoneId":"America/Argentina/Salta"},"lat":-38.75,"lng":-68.18333,"population":2857},{"id":3431244,"name":"Loreto","timezone":{"dstOffset":-3,"gmtOffset":-3,"timeZoneId":"America/Argentina/Cordoba"},"lat":-27.76834,"lng":-57.27531,"population":2856},{"id":3855056,"name":"General San Martín","timezone":{"dstOffset":-3,"gmtOffset":-3,"timeZoneId":"America/Argentina/Salta"},"lat":-37.97904,"lng":-63.60449,"population":2846},{"id":3832560,"name":"Vinchina","timezone":{"dstOffset":-3,"gmtOffset":-3,"timeZoneId":"America/Argentina/La_Rioja"},"lat":-28.75964,"lng":-68.20692,"population":2834},{"id":3832769,"name":"Villa del Dique","timezone":{"dstOffset":-3,"gmtOffset":-3,"timeZoneId":"America/Argentina/Cordoba"},"lat":-32.17667,"lng":-64.45543,"population":2829},{"id":3858088,"name":"Elena","timezone":{"dstOffset":-3,"gmtOffset":-3,"timeZoneId":"America/Argentina/Cordoba"},"lat":-32.57205,"lng":-64.39481,"population":2815},{"id":3845575,"name":"Los Surgentes","timezone":{"dstOffset":-3,"gmtOffset":-3,"timeZoneId":"America/Argentina/Cordoba"},"lat":-32.98454,"lng":-62.02191,"population":2804},{"id":3838460,"name":"Sacanta","timezone":{"dstOffset":-3,"gmtOffset":-3,"timeZoneId":"America/Argentina/Cordoba"},"lat":-31.663,"lng":-63.04505,"population":2791},{"id":3860319,"name":"Contraalmirante Cordero","timezone":{"dstOffset":-3,"gmtOffset":-3,"timeZoneId":"America/Argentina/Salta"},"lat":-38.72423,"lng":-68.15284,"population":2782},{"id":3853592,"name":"Jacinto Arauz","timezone":{"dstOffset":-3,"gmtOffset":-3,"timeZoneId":"America/Argentina/Salta"},"lat":-38.08606,"lng":-63.43169,"population":2773},{"id":3850888,"name":"Laguna Yema","timezone":{"dstOffset":-3,"gmtOffset":-3,"timeZoneId":"America/Argentina/Cordoba"},"lat":-24.25391,"lng":-61.24466,"population":2744},{"id":3865413,"name":"Arroyo Cabral","timezone":{"dstOffset":-3,"gmtOffset":-3,"timeZoneId":"America/Argentina/Cordoba"},"lat":-32.49119,"lng":-63.40126,"population":2727},{"id":3846236,"name":"Los Cóndores","timezone":{"dstOffset":-3,"gmtOffset":-3,"timeZoneId":"America/Argentina/Cordoba"},"lat":-32.31984,"lng":-64.27752,"population":2720},{"id":3845977,"name":"Los Menucos","timezone":{"dstOffset":-3,"gmtOffset":-3,"timeZoneId":"America/Argentina/Salta"},"lat":-40.84402,"lng":-68.08718,"population":2689},{"id":3832805,"name":"Villa Atamisqui","timezone":{"dstOffset":-3,"gmtOffset":-3,"timeZoneId":"America/Argentina/Cordoba"},"lat":-28.49609,"lng":-63.81609,"population":2683},{"id":3430383,"name":"Nueve de Julio","timezone":{"dstOffset":-3,"gmtOffset":-3,"timeZoneId":"America/Argentina/Cordoba"},"lat":-28.84051,"lng":-58.8265,"population":2671},{"id":3835351,"name":"Serrano","timezone":{"dstOffset":-3,"gmtOffset":-3,"timeZoneId":"America/Argentina/Cordoba"},"lat":-34.46971,"lng":-63.53842,"population":2670},{"id":3845251,"name":"Mainque","timezone":{"dstOffset":-3,"gmtOffset":-3,"timeZoneId":"America/Argentina/Salta"},"lat":-39.06667,"lng":-67.3,"population":2658},{"id":3846616,"name":"Londres","timezone":{"dstOffset":-3,"gmtOffset":-3,"timeZoneId":"America/Argentina/Catamarca"},"lat":-27.71439,"lng":-67.13349,"population":2627},{"id":3865803,"name":"Andacollo","timezone":{"dstOffset":-3,"gmtOffset":-3,"timeZoneId":"America/Argentina/Salta"},"lat":-37.17945,"lng":-70.66912,"population":2627},{"id":3855066,"name":"General Roca","timezone":{"dstOffset":-3,"gmtOffset":-3,"timeZoneId":"America/Argentina/Cordoba"},"lat":-32.73196,"lng":-61.91599,"population":2597},{"id":3841912,"name":"Pascanas","timezone":{"dstOffset":-3,"gmtOffset":-3,"timeZoneId":"America/Argentina/Cordoba"},"lat":-33.1255,"lng":-63.04084,"population":2567},{"id":3842559,"name":"Oro Verde","timezone":{"dstOffset":-3,"gmtOffset":-3,"timeZoneId":"America/Argentina/Cordoba"},"lat":-31.82508,"lng":-60.51749,"population":2548},{"id":3435453,"name":"Charadai","timezone":{"dstOffset":-3,"gmtOffset":-3,"timeZoneId":"America/Argentina/Cordoba"},"lat":-27.63333,"lng":-59.9,"population":2538},{"id":3832705,"name":"Villa Las Rosas","timezone":{"dstOffset":-3,"gmtOffset":-3,"timeZoneId":"America/Argentina/Cordoba"},"lat":-31.95021,"lng":-65.05354,"population":2535},{"id":3863814,"name":"Buena Esperanza","timezone":{"dstOffset":-3,"gmtOffset":-3,"timeZoneId":"America/Argentina/San_Luis"},"lat":-34.75647,"lng":-65.2538,"population":2531},{"id":3832602,"name":"Villa Valeria","timezone":{"dstOffset":-3,"gmtOffset":-3,"timeZoneId":"America/Argentina/Cordoba"},"lat":-34.34093,"lng":-64.9203,"population":2525},{"id":3854494,"name":"Guatimozín","timezone":{"dstOffset":-3,"gmtOffset":-3,"timeZoneId":"America/Argentina/Cordoba"},"lat":-33.4615,"lng":-62.43844,"population":2524},{"id":3854153,"name":"Hoyo de Epuyén","timezone":{"dstOffset":-3,"gmtOffset":-3,"timeZoneId":"America/Argentina/Catamarca"},"lat":-42.07189,"lng":-71.50811,"population":2498},{"id":3836238,"name":"Santa Isabel","timezone":{"dstOffset":-3,"gmtOffset":-3,"timeZoneId":"America/Argentina/Salta"},"lat":-36.22724,"lng":-66.9424,"population":2493},{"id":3845254,"name":"Maimará","timezone":{"dstOffset":-3,"gmtOffset":-3,"timeZoneId":"America/Argentina/Jujuy"},"lat":-23.62392,"lng":-65.40797,"population":2470},{"id":3860791,"name":"Colonia Dora","timezone":{"dstOffset":-3,"gmtOffset":-3,"timeZoneId":"America/Argentina/Cordoba"},"lat":-28.6,"lng":-62.95,"population":2406},{"id":3851072,"name":"La Granja","timezone":{"dstOffset":-3,"gmtOffset":-3,"timeZoneId":"America/Argentina/Cordoba"},"lat":-31.00919,"lng":-64.26869,"population":2406},{"id":3863377,"name":"Caleufú","timezone":{"dstOffset":-3,"gmtOffset":-3,"timeZoneId":"America/Argentina/Salta"},"lat":-35.59559,"lng":-64.55778,"population":2396},{"id":3844267,"name":"Miguel Riglos","timezone":{"dstOffset":-3,"gmtOffset":-3,"timeZoneId":"America/Argentina/Salta"},"lat":-36.85398,"lng":-63.68842,"population":2385},{"id":3834339,"name":"Tío Pujio","timezone":{"dstOffset":-3,"gmtOffset":-3,"timeZoneId":"America/Argentina/Cordoba"},"lat":-32.2879,"lng":-63.35598,"population":2383},{"id":3849388,"name":"La Playosa","timezone":{"dstOffset":-3,"gmtOffset":-3,"timeZoneId":"America/Argentina/Cordoba"},"lat":-32.10002,"lng":-63.03088,"population":2376},{"id":3835866,"name":"Santiago Temple","timezone":{"dstOffset":-3,"gmtOffset":-3,"timeZoneId":"America/Argentina/Cordoba"},"lat":-31.38731,"lng":-63.41821,"population":2358},{"id":3833424,"name":"Unión","timezone":{"dstOffset":-3,"gmtOffset":-3,"timeZoneId":"America/Argentina/San_Luis"},"lat":-35.15282,"lng":-65.94602,"population":2341},{"id":3435444,"name":"Chavarría","timezone":{"dstOffset":-3,"gmtOffset":-3,"timeZoneId":"America/Argentina/Cordoba"},"lat":-28.95488,"lng":-58.57277,"population":2337},{"id":3427593,"name":"Ubajay","timezone":{"dstOffset":-3,"gmtOffset":-3,"timeZoneId":"America/Argentina/Cordoba"},"lat":-31.79358,"lng":-58.3135,"population":2334},{"id":3433567,"name":"Herradura","timezone":{"dstOffset":-3,"gmtOffset":-3,"timeZoneId":"America/Argentina/Cordoba"},"lat":-26.48705,"lng":-58.31198,"population":2333},{"id":3429765,"name":"Puerto Leoni","timezone":{"dstOffset":-3,"gmtOffset":-3,"timeZoneId":"America/Argentina/Cordoba"},"lat":-26.96069,"lng":-55.1657,"population":2329},{"id":3842593,"name":"Ordóñez","timezone":{"dstOffset":-3,"gmtOffset":-3,"timeZoneId":"America/Argentina/Cordoba"},"lat":-32.84057,"lng":-62.86552,"population":2328},{"id":3835691,"name":"Saturnino M. Laspiur","timezone":{"dstOffset":-3,"gmtOffset":-3,"timeZoneId":"America/Argentina/Cordoba"},"lat":-31.70287,"lng":-62.48202,"population":2316},{"id":3854102,"name":"Hualfín","timezone":{"dstOffset":-3,"gmtOffset":-3,"timeZoneId":"America/Argentina/Catamarca"},"lat":-27.22896,"lng":-66.83131,"population":2304},{"id":3835348,"name":"Serrezuela","timezone":{"dstOffset":-3,"gmtOffset":-3,"timeZoneId":"America/Argentina/Cordoba"},"lat":-30.63761,"lng":-65.38692,"population":2291},{"id":3862832,"name":"Candelaria","timezone":{"dstOffset":-3,"gmtOffset":-3,"timeZoneId":"America/Argentina/San_Luis"},"lat":-32.06036,"lng":-65.82477,"population":2269},{"id":3433747,"name":"Gobernador Mansilla","timezone":{"dstOffset":-3,"gmtOffset":-3,"timeZoneId":"America/Argentina/Cordoba"},"lat":-32.54453,"lng":-59.3548,"population":2264},