[{"id":2357048,"name":"Ouagadougou","timezone":{"dstOffset":0,"gmtOffset":0,"timeZoneId":"Africa/Ouagadougou"},"lat":12.36566,"lng":-1.53388,"population":1086505},{"id":2362344,"name":"Bobo-Dioulasso","timezone":{"dstOffset":0,"gmtOffset":0,"timeZoneId":"Africa/Ouagadougou"},"lat":11.17715,"lng":-4.2979,"population":360106},{"id":2358946,"name":"Koudougou","timezone":{"dstOffset":0,"gmtOffset":0,"timeZoneId":"Africa/Ouagadougou"},"lat":12.25263,"lng":-2.36272,"population":87347},{"id":2357043,"name":"Ouahigouya","timezone":{"dstOffset":0,"gmtOffset":0,"timeZoneId":"Africa/Ouagadougou"},"lat":13.58278,"lng":-2.42158,"population":61096},{"id":2362909,"name":"Banfora","timezone":{"dstOffset":0,"gmtOffset":0,"timeZoneId":"Africa/Ouagadougou"},"lat":10.63333,"lng":-4.76667,"population":60288},{"id":2361477,"name":"Dédougou","timezone":{"dstOffset":0,"gmtOffset":0,"timeZoneId":"Africa/Ouagadougou"},"lat":12.46338,"lng":-3.46075,"population":45341},{"id":2359608,"name":"Kaya","timezone":{"dstOffset":0,"gmtOffset":0,"timeZoneId":"Africa/Ouagadougou"},"lat":13.09167,"lng":-1.08444,"population":39229},{"id":2361082,"name":"Dori","timezone":{"dstOffset":0,"gmtOffset":0,"timeZoneId":"Africa/Ouagadougou"},"lat":14.0354,"lng":-0.0345,"population":37806},{"id":2354675,"name":"Tenkodogo","timezone":{"dstOffset":0,"gmtOffset":0,"timeZoneId":"Africa/Ouagadougou"},"lat":11.78,"lng":-0.36972,"population":37658},{"id":2356228,"name":"Réo","timezone":{"dstOffset":0,"gmtOffset":0,"timeZoneId":"Africa/Ouagadougou"},"lat":12.31963,"lng":-2.47094,"population":37535},{"id":2360073,"name":"Houndé","timezone":{"dstOffset":0,"gmtOffset":0,"timeZoneId":"Africa/Ouagadougou"},"lat":11.5,"lng":-3.51667,"population":36593},{"id":2360886,"name":"Fada N'gourma","timezone":{"dstOffset":0,"gmtOffset":0,"timeZoneId":"Africa/Ouagadougou"},"lat":12.06157,"lng":0.35843,"population":33910},{"id":2358738,"name":"Koupéla","timezone":{"dstOffset":0,"gmtOffset":0,"timeZoneId":"Africa/Ouagadougou"},"lat":12.17864,"lng":-0.35103,"population":32052},{"id":2359227,"name":"Kombissiri","timezone":{"dstOffset":0,"gmtOffset":0,"timeZoneId":"Africa/Ouagadougou"},"lat":12.06095,"lng":-1.33355,"population":30137},{"id":2360615,"name":"Garango","timezone":{"dstOffset":0,"gmtOffset":0,"timeZoneId":"Africa/Ouagadougou"},"lat":11.8,"lng":-0.55056,"population":29076},{"id":2357163,"name":"Nouna","timezone":{"dstOffset":0,"gmtOffset":0,"timeZoneId":"Africa/Ouagadougou"},"lat":12.72938,"lng":-3.86305,"population":29048},{"id":2358382,"name":"Léo","timezone":{"dstOffset":0,"gmtOffset":0,"timeZoneId":"Africa/Ouagadougou"},"lat":11.10033,"lng":-2.10654,"population":26884},{"id":2359142,"name":"Kongoussi","timezone":{"dstOffset":0,"gmtOffset":0,"timeZoneId":"Africa/Ouagadougou"},"lat":13.32583,"lng":-1.53472,"population":26338},{"id":2361373,"name":"Diapaga","timezone":{"dstOffset":0,"gmtOffset":0,"timeZoneId":"Africa/Ouagadougou"},"lat":12.07305,"lng":1.78838,"population":26013},{"id":2359317,"name":"Kokologo","timezone":{"dstOffset":0,"gmtOffset":0,"timeZoneId":"Africa/Ouagadougou"},"lat":12.18972,"lng":-1.88556,"population":25958},{"id":2577162,"name":"Gaoua","timezone":{"dstOffset":0,"gmtOffset":0,"timeZoneId":"Africa/Ouagadougou"},"lat":10.29917,"lng":-3.25083,"population":25104},{"id":2353197,"name":"Zorgo","timezone":{"dstOffset":0,"gmtOffset":0,"timeZoneId":"Africa/Ouagadougou"},"lat":12.24922,"lng":-0.61527,"population":23892},{"id":2353688,"name":"Yako","timezone":{"dstOffset":0,"gmtOffset":0,"timeZoneId":"Africa/Ouagadougou"},"lat":12.9591,"lng":-2.26075,"population":22904},{"id":2361177,"name":"Djibo","timezone":{"dstOffset":0,"gmtOffset":0,"timeZoneId":"Africa/Ouagadougou"},"lat":14.0994,"lng":-1.62554,"population":22223},{"id":2354349,"name":"Titao","timezone":{"dstOffset":0,"gmtOffset":0,"timeZoneId":"Africa/Ouagadougou"},"lat":13.76667,"lng":-2.06667,"population":19131},{"id":2577164,"name":"Orodara","timezone":{"dstOffset":0,"gmtOffset":0,"timeZoneId":"Africa/Ouagadougou"},"lat":10.94917,"lng":-4.93417,"population":18632},{"id":2356454,"name":"Pô","timezone":{"dstOffset":0,"gmtOffset":0,"timeZoneId":"Africa/Ouagadougou"},"lat":11.16972,"lng":-1.145,"population":17924},{"id":2354176,"name":"Tougan","timezone":{"dstOffset":0,"gmtOffset":0,"timeZoneId":"Africa/Ouagadougou"},"lat":13.0725,"lng":-3.0694,"population":17590},{"id":2361946,"name":"Boulsa","timezone":{"dstOffset":0,"gmtOffset":0,"timeZoneId":"Africa/Ouagadougou"},"lat":12.66664,"lng":-0.57468,"population":17489},{"id":2360238,"name":"Gourcy","timezone":{"dstOffset":0,"gmtOffset":0,"timeZoneId":"Africa/Ouagadougou"},"lat":13.20776,"lng":-2.35893,"population":16765},{"id":2361845,"name":"Boussé","timezone":{"dstOffset":0,"gmtOffset":0,"timeZoneId":"Africa/Ouagadougou"},"lat":12.6576,"lng":-1.89288,"population":15868},{"id":2358100,"name":"Manga","timezone":{"dstOffset":0,"gmtOffset":0,"timeZoneId":"Africa/Ouagadougou"},"lat":11.66361,"lng":-1.07306,"population":15173},{"id":2362150,"name":"Boromo","timezone":{"dstOffset":0,"gmtOffset":0,"timeZoneId":"Africa/Ouagadougou"},"lat":11.74542,"lng":-2.93006,"population":13157},{"id":2361342,"name":"Diébougou","timezone":{"dstOffset":0,"gmtOffset":0,"timeZoneId":"Africa/Ouagadougou"},"lat":10.96209,"lng":-3.24967,"population":12732},{"id":2353257,"name":"Ziniaré","timezone":{"dstOffset":0,"gmtOffset":0,"timeZoneId":"Africa/Ouagadougou"},"lat":12.58186,"lng":-1.2971,"population":12703},{"id":2354265,"name":"Toma","timezone":{"dstOffset":0,"gmtOffset":0,"timeZoneId":"Africa/Ouagadougou"},"lat":12.75844,"lng":-2.89879,"population":12401},{"id":2361586,"name":"Dano","timezone":{"dstOffset":0,"gmtOffset":0,"timeZoneId":"Africa/Ouagadougou"},"lat":11.1464,"lng":-3.05784,"population":11153},{"id":2355404,"name":"Solenzo","timezone":{"dstOffset":0,"gmtOffset":0,"timeZoneId":"Africa/Ouagadougou"},"lat":12.17423,"lng":-4.08477,"population":10385},{"id":2357012,"name":"Ouargaye","timezone":{"dstOffset":0,"gmtOffset":0,"timeZoneId":"Africa/Ouagadougou"},"lat":11.50202,"lng":0.05886,"population":10103},{"id":2362323,"name":"Bogandé","timezone":{"dstOffset":0,"gmtOffset":0,"timeZoneId":"Africa/Ouagadougou"},"lat":12.9704,"lng":-0.14953,"population":9854},{"id":2356738,"name":"Pama","timezone":{"dstOffset":0,"gmtOffset":0,"timeZoneId":"Africa/Ouagadougou"},"lat":11.24972,"lng":0.7075,"population":8902},{"id":2356459,"name":"Pitmoaga","timezone":{"dstOffset":0,"gmtOffset":0,"timeZoneId":"Africa/Ouagadougou"},"lat":12.23972,"lng":-1.87667,"population":7991},{"id":2360372,"name":"Gorom-Gorom","timezone":{"dstOffset":0,"gmtOffset":0,"timeZoneId":"Africa/Ouagadougou"},"lat":14.4429,"lng":-0.23468,"population":6691},{"id":2360286,"name":"Goulouré","timezone":{"dstOffset":0,"gmtOffset":0,"timeZoneId":"Africa/Ouagadougou"},"lat":12.2276,"lng":-1.92922,"population":6677},{"id":2362669,"name":"Batié","timezone":{"dstOffset":0,"gmtOffset":0,"timeZoneId":"Africa/Ouagadougou"},"lat":9.88333,"lng":-2.91667,"population":6483},{"id":2355548,"name":"Sindou","timezone":{"dstOffset":0,"gmtOffset":0,"timeZoneId":"Africa/Ouagadougou"},"lat":10.66667,"lng":-5.16667,"population":3917},{"id":2355869,"name":"Sapouy","timezone":{"dstOffset":0,"gmtOffset":0,"timeZoneId":"Africa/Ouagadougou"},"lat":11.55444,"lng":-1.77361,"population":3837},{"id":2360541,"name":"Gayéri","timezone":{"dstOffset":0,"gmtOffset":0,"timeZoneId":"Africa/Ouagadougou"},"lat":12.64824,"lng":0.49314,"population":1958},{"id":2355803,"name":"Sebba","timezone":{"dstOffset":0,"gmtOffset":0,"timeZoneId":"Africa/Ouagadougou"},"lat":13.43641,"lng":0.53044,"population":0},{"id":2356784,"name":"Oursi","timezone":{"dstOffset":0,"gmtOffset":0,"timeZoneId":"Africa/Ouagadougou"},"lat":14.67553,"lng":-0.46034,"population":0},{"id":2361444,"name":"Déou","timezone":{"dstOffset":0,"gmtOffset":0,"timeZoneId":"Africa/Ouagadougou"},"lat":14.60084,"lng":-0.71901,"population":0},{"id":2596769,"name":"Tin-Akoff","timezone":{"dstOffset":0,"gmtOffset":0,"timeZoneId":"Africa/Ouagadougou"},"lat":14.96549,"lng":-0.16335,"population":0}]