[{"id":3448439,"name":"São Paulo","timezone":{"dstOffset":-3,"gmtOffset":-2,"timeZoneId":"America/Sao_Paulo"},"lat":-23.5475,"lng":-46.63611,"population":10021295},{"id":3451190,"name":"Rio de Janeiro","timezone":{"dstOffset":-3,"gmtOffset":-2,"timeZoneId":"America/Sao_Paulo"},"lat":-22.90278,"lng":-43.2075,"population":6023699},{"id":3450554,"name":"Salvador","timezone":{"dstOffset":-3,"gmtOffset":-3,"timeZoneId":"America/Bahia"},"lat":-12.97111,"lng":-38.51083,"population":2711840},{"id":3399415,"name":"Fortaleza","timezone":{"dstOffset":-3,"gmtOffset":-3,"timeZoneId":"America/Fortaleza"},"lat":-3.71722,"lng":-38.54306,"population":2400000},{"id":3470127,"name":"Belo Horizonte","timezone":{"dstOffset":-3,"gmtOffset":-2,"timeZoneId":"America/Sao_Paulo"},"lat":-19.92083,"lng":-43.93778,"population":2373224},{"id":3469058,"name":"Brasília","timezone":{"dstOffset":-3,"gmtOffset":-2,"timeZoneId":"America/Sao_Paulo"},"lat":-15.77972,"lng":-47.92972,"population":2207718},{"id":3464975,"name":"Curitiba","timezone":{"dstOffset":-3,"gmtOffset":-2,"timeZoneId":"America/Sao_Paulo"},"lat":-25.42778,"lng":-49.27306,"population":1718421},{"id":3663517,"name":"Manaus","timezone":{"dstOffset":-4,"gmtOffset":-4,"timeZoneId":"America/Manaus"},"lat":-3.10194,"lng":-60.025,"population":1598210},{"id":3390760,"name":"Recife","timezone":{"dstOffset":-3,"gmtOffset":-3,"timeZoneId":"America/Recife"},"lat":-8.05389,"lng":-34.88111,"population":1478098},{"id":3405870,"name":"Belém","timezone":{"dstOffset":-3,"gmtOffset":-3,"timeZoneId":"America/Belem"},"lat":-1.45583,"lng":-48.50444,"population":1407737},{"id":3452925,"name":"Porto Alegre","timezone":{"dstOffset":-3,"gmtOffset":-2,"timeZoneId":"America/Sao_Paulo"},"lat":-30.03306,"lng":-51.23,"population":1372741},{"id":3462377,"name":"Goiânia","timezone":{"dstOffset":-3,"gmtOffset":-2,"timeZoneId":"America/Sao_Paulo"},"lat":-16.67861,"lng":-49.25389,"population":1171195},{"id":3461786,"name":"Guarulhos","timezone":{"dstOffset":-3,"gmtOffset":-2,"timeZoneId":"America/Sao_Paulo"},"lat":-23.46278,"lng":-46.53333,"population":1169577},{"id":3467865,"name":"Campinas","timezone":{"dstOffset":-3,"gmtOffset":-2,"timeZoneId":"America/Sao_Paulo"},"lat":-22.90556,"lng":-47.06083,"population":1031554},{"id":3456160,"name":"Nova Iguaçu","timezone":{"dstOffset":-3,"gmtOffset":-2,"timeZoneId":"America/Sao_Paulo"},"lat":-22.75917,"lng":-43.45111,"population":1002118},{"id":3395981,"name":"Maceió","timezone":{"dstOffset":-3,"gmtOffset":-3,"timeZoneId":"America/Maceio"},"lat":-9.66583,"lng":-35.73528,"population":954991},{"id":3388368,"name":"São Luís","timezone":{"dstOffset":-3,"gmtOffset":-3,"timeZoneId":"America/Fortaleza"},"lat":-2.52972,"lng":-44.30278,"population":917237},{"id":3464374,"name":"Duque de Caxias","timezone":{"dstOffset":-3,"gmtOffset":-2,"timeZoneId":"America/Sao_Paulo"},"lat":-22.78556,"lng":-43.31167,"population":818329},{"id":3394023,"name":"Natal","timezone":{"dstOffset":-3,"gmtOffset":-3,"timeZoneId":"America/Fortaleza"},"lat":-5.795,"lng":-35.20944,"population":763043},{"id":3386496,"name":"Teresina","timezone":{"dstOffset":-3,"gmtOffset":-3,"timeZoneId":"America/Fortaleza"},"lat":-5.08917,"lng":-42.80194,"population":744512},{"id":3449344,"name":"São Bernardo do Campo","timezone":{"dstOffset":-3,"gmtOffset":-2,"timeZoneId":"America/Sao_Paulo"},"lat":-23.69389,"lng":-46.565,"population":743372},{"id":3467747,"name":"Campo Grande","timezone":{"dstOffset":-4,"gmtOffset":-3,"timeZoneId":"America/Campo_Grande"},"lat":-20.44278,"lng":-54.64639,"population":729151},{"id":3397838,"name":"Jaboatão","timezone":{"dstOffset":-3,"gmtOffset":-3,"timeZoneId":"America/Recife"},"lat":-8.18028,"lng":-35.00139,"population":702621},{"id":3455775,"name":"Osasco","timezone":{"dstOffset":-3,"gmtOffset":-2,"timeZoneId":"America/Sao_Paulo"},"lat":-23.5325,"lng":-46.79167,"population":677856},{"id":3449701,"name":"Santo André","timezone":{"dstOffset":-3,"gmtOffset":-2,"timeZoneId":"America/Sao_Paulo"},"lat":-23.66389,"lng":-46.53833,"population":662373},{"id":3397277,"name":"João Pessoa","timezone":{"dstOffset":-3,"gmtOffset":-3,"timeZoneId":"America/Fortaleza"},"lat":-7.115,"lng":-34.86306,"population":650883},{"id":6317344,"name":"Jaboatão dos Guararapes","timezone":{"dstOffset":-3,"gmtOffset":-3,"timeZoneId":"America/Recife"},"lat":-8.11278,"lng":-35.01472,"population":630008},{"id":3465624,"name":"Contagem","timezone":{"dstOffset":-3,"gmtOffset":-2,"timeZoneId":"America/Sao_Paulo"},"lat":-19.93167,"lng":-44.05361,"population":627123},{"id":3451328,"name":"Ribeirão Preto","timezone":{"dstOffset":-3,"gmtOffset":-2,"timeZoneId":"America/Sao_Paulo"},"lat":-21.1775,"lng":-47.81028,"population":619746},{"id":3448636,"name":"São José dos Campos","timezone":{"dstOffset":-3,"gmtOffset":-2,"timeZoneId":"America/Sao_Paulo"},"lat":-23.17944,"lng":-45.88694,"population":613764},{"id":3445831,"name":"Uberlândia","timezone":{"dstOffset":-3,"gmtOffset":-2,"timeZoneId":"America/Sao_Paulo"},"lat":-18.91861,"lng":-48.27722,"population":563536},{"id":3447399,"name":"Sorocaba","timezone":{"dstOffset":-3,"gmtOffset":-2,"timeZoneId":"America/Sao_Paulo"},"lat":-23.50167,"lng":-47.45806,"population":558862},{"id":3465038,"name":"Cuiabá","timezone":{"dstOffset":-4,"gmtOffset":-3,"timeZoneId":"America/Cuiaba"},"lat":-15.59611,"lng":-56.09667,"population":521934},{"id":6316406,"name":"Aparecida de Goiânia","timezone":{"dstOffset":-3,"gmtOffset":-2,"timeZoneId":"America/Sao_Paulo"},"lat":-16.82333,"lng":-49.24389,"population":510770},{"id":3471872,"name":"Aracaju","timezone":{"dstOffset":-3,"gmtOffset":-3,"timeZoneId":"America/Maceio"},"lat":-10.91111,"lng":-37.07167,"population":490175},{"id":3463478,"name":"Feira de Santana","timezone":{"dstOffset":-3,"gmtOffset":-3,"timeZoneId":"America/Bahia"},"lat":-12.26667,"lng":-38.96667,"population":481911},{"id":3458449,"name":"Londrina","timezone":{"dstOffset":-3,"gmtOffset":-2,"timeZoneId":"America/Sao_Paulo"},"lat":-23.31028,"lng":-51.16278,"population":471832},{"id":3459505,"name":"Juiz de Fora","timezone":{"dstOffset":-3,"gmtOffset":-2,"timeZoneId":"America/Sao_Paulo"},"lat":-21.76417,"lng":-43.35028,"population":470193},{"id":3470142,"name":"Belford Roxo","timezone":{"dstOffset":-3,"gmtOffset":-2,"timeZoneId":"America/Sao_Paulo"},"lat":-22.76417,"lng":-43.39944,"population":466096},{"id":3459712,"name":"Joinville","timezone":{"dstOffset":-3,"gmtOffset":-2,"timeZoneId":"America/Sao_Paulo"},"lat":-26.30444,"lng":-48.84556,"population":461304},{"id":3456283,"name":"Niterói","timezone":{"dstOffset":-3,"gmtOffset":-2,"timeZoneId":"America/Sao_Paulo"},"lat":-22.88333,"lng":-43.10361,"population":456456},{"id":3448877,"name":"São João de Meriti","timezone":{"dstOffset":-3,"gmtOffset":-2,"timeZoneId":"America/Sao_Paulo"},"lat":-22.80389,"lng":-43.37222,"population":454849},{"id":3407669,"name":"Ananindeua","timezone":{"dstOffset":-3,"gmtOffset":-3,"timeZoneId":"America/Belem"},"lat":-1.36556,"lng":-48.37222,"population":433956},{"id":3463237,"name":"Florianópolis","timezone":{"dstOffset":-3,"gmtOffset":-2,"timeZoneId":"America/Sao_Paulo"},"lat":-27.59667,"lng":-48.54917,"population":412724},{"id":3449433,"name":"Santos","timezone":{"dstOffset":-3,"gmtOffset":-2,"timeZoneId":"America/Sao_Paulo"},"lat":-23.96083,"lng":-46.33361,"population":411403},{"id":3451353,"name":"Ribeirão das Neves","timezone":{"dstOffset":-3,"gmtOffset":-2,"timeZoneId":"America/Sao_Paulo"},"lat":-19.76694,"lng":-44.08667,"population":406802},{"id":3445026,"name":"Vila Velha","timezone":{"dstOffset":-3,"gmtOffset":-2,"timeZoneId":"America/Sao_Paulo"},"lat":-20.32972,"lng":-40.2925,"population":394930},{"id":3447779,"name":"Serra","timezone":{"dstOffset":-3,"gmtOffset":-2,"timeZoneId":"America/Sao_Paulo"},"lat":-20.12861,"lng":-40.30778,"population":394153},{"id":3464739,"name":"Diadema","timezone":{"dstOffset":-3,"gmtOffset":-2,"timeZoneId":"America/Sao_Paulo"},"lat":-23.68611,"lng":-46.62278,"population":390633},{"id":3467693,"name":"Campos","timezone":{"dstOffset":-3,"gmtOffset":-2,"timeZoneId":"America/Sao_Paulo"},"lat":-21.75227,"lng":-41.33044,"population":387417},{"id":3457381,"name":"Mauá","timezone":{"dstOffset":-3,"gmtOffset":-2,"timeZoneId":"America/Sao_Paulo"},"lat":-23.66778,"lng":-46.46139,"population":386069},{"id":3470044,"name":"Betim","timezone":{"dstOffset":-3,"gmtOffset":-2,"timeZoneId":"America/Sao_Paulo"},"lat":-19.96778,"lng":-44.19833,"population":384000},{"id":3466537,"name":"Caxias do Sul","timezone":{"dstOffset":-3,"gmtOffset":-2,"timeZoneId":"America/Sao_Paulo"},"lat":-29.16806,"lng":-51.17944,"population":381270},{"id":3448639,"name":"São José do Rio Preto","timezone":{"dstOffset":-3,"gmtOffset":-2,"timeZoneId":"America/Sao_Paulo"},"lat":-20.81972,"lng":-49.37944,"population":374699},{"id":3393536,"name":"Olinda","timezone":{"dstOffset":-3,"gmtOffset":-3,"timeZoneId":"America/Recife"},"lat":-8.00889,"lng":-34.85528,"population":366754},{"id":3466998,"name":"Carapicuíba","timezone":{"dstOffset":-3,"gmtOffset":-2,"timeZoneId":"America/Sao_Paulo"},"lat":-23.52272,"lng":-46.835,"population":361112},{"id":3403642,"name":"Campina Grande","timezone":{"dstOffset":-3,"gmtOffset":-3,"timeZoneId":"America/Fortaleza"},"lat":-7.23056,"lng":-35.88111,"population":348936},{"id":3453643,"name":"Piracicaba","timezone":{"dstOffset":-3,"gmtOffset":-2,"timeZoneId":"America/Sao_Paulo"},"lat":-22.72528,"lng":-47.64917,"population":342209},{"id":3396016,"name":"Macapá","timezone":{"dstOffset":-3,"gmtOffset":-3,"timeZoneId":"America/Belem"},"lat":0.03889,"lng":-51.06639,"population":338936},{"id":3460644,"name":"Itaquaquecetuba","timezone":{"dstOffset":-3,"gmtOffset":-2,"timeZoneId":"America/Sao_Paulo"},"lat":-23.48611,"lng":-46.34833,"population":336679},{"id":3470279,"name":"Bauru","timezone":{"dstOffset":-3,"gmtOffset":-2,"timeZoneId":"America/Sao_Paulo"},"lat":-22.31472,"lng":-49.06056,"population":335024},{"id":3456814,"name":"Montes Claros","timezone":{"dstOffset":-3,"gmtOffset":-2,"timeZoneId":"America/Sao_Paulo"},"lat":-16.735,"lng":-43.86167,"population":332379},{"id":3467467,"name":"Canoas","timezone":{"dstOffset":-3,"gmtOffset":-2,"timeZoneId":"America/Sao_Paulo"},"lat":-29.91778,"lng":-51.18361,"population":328291},{"id":3457001,"name":"Mogi das Cruzes","timezone":{"dstOffset":-3,"gmtOffset":-2,"timeZoneId":"America/Sao_Paulo"},"lat":-23.52278,"lng":-46.18833,"population":325746},{"id":3448136,"name":"São Vicente","timezone":{"dstOffset":-3,"gmtOffset":-2,"timeZoneId":"America/Sao_Paulo"},"lat":-23.96306,"lng":-46.39194,"population":324457},{"id":3459462,"name":"Jundiaí","timezone":{"dstOffset":-3,"gmtOffset":-2,"timeZoneId":"America/Sao_Paulo"},"lat":-23.18639,"lng":-46.88417,"population":321589},{"id":3454244,"name":"Pelotas","timezone":{"dstOffset":-3,"gmtOffset":-2,"timeZoneId":"America/Sao_Paulo"},"lat":-31.77194,"lng":-52.3425,"population":320674},{"id":3472287,"name":"Anápolis","timezone":{"dstOffset":-3,"gmtOffset":-2,"timeZoneId":"America/Sao_Paulo"},"lat":-16.32667,"lng":-48.95278,"population":319587},{"id":3444924,"name":"Vitória","timezone":{"dstOffset":-3,"gmtOffset":-2,"timeZoneId":"America/Sao_Paulo"},"lat":-20.31944,"lng":-40.33778,"population":312656},{"id":3457671,"name":"Maringá","timezone":{"dstOffset":-3,"gmtOffset":-2,"timeZoneId":"America/Sao_Paulo"},"lat":-23.42528,"lng":-51.93861,"population":311724},{"id":3461789,"name":"Guarujá","timezone":{"dstOffset":-3,"gmtOffset":-2,"timeZoneId":"America/Sao_Paulo"},"lat":-23.99306,"lng":-46.25639,"population":310424},{"id":3662762,"name":"Porto Velho","timezone":{"dstOffset":-4,"gmtOffset":-4,"timeZoneId":"America/Porto_Velho"},"lat":-8.76194,"lng":-63.90389,"population":306180},{"id":3463011,"name":"Franca","timezone":{"dstOffset":-3,"gmtOffset":-2,"timeZoneId":"America/Sao_Paulo"},"lat":-20.53861,"lng":-47.40083,"population":305041},{"id":3469968,"name":"Blumenau","timezone":{"dstOffset":-3,"gmtOffset":-2,"timeZoneId":"America/Sao_Paulo"},"lat":-26.91944,"lng":-49.06611,"population":293949},{"id":3463030,"name":"Foz do Iguaçu","timezone":{"dstOffset":-3,"gmtOffset":-2,"timeZoneId":"America/Sao_Paulo"},"lat":-25.54778,"lng":-54.58806,"population":293523},{"id":3453186,"name":"Ponta Grossa","timezone":{"dstOffset":-3,"gmtOffset":-2,"timeZoneId":"America/Sao_Paulo"},"lat":-25.095,"lng":-50.16194,"population":292177},{"id":3392740,"name":"Paulista","timezone":{"dstOffset":-3,"gmtOffset":-3,"timeZoneId":"America/Recife"},"lat":-7.94083,"lng":-34.87306,"population":289971},{"id":3458575,"name":"Limeira","timezone":{"dstOffset":-3,"gmtOffset":-2,"timeZoneId":"America/Sao_Paulo"},"lat":-22.56472,"lng":-47.40167,"population":289665},{"id":3445156,"name":"Viamão","timezone":{"dstOffset":-3,"gmtOffset":-2,"timeZoneId":"America/Sao_Paulo"},"lat":-30.08111,"lng":-51.02333,"population":285269},{"id":3447212,"name":"Suzano","timezone":{"dstOffset":-3,"gmtOffset":-2,"timeZoneId":"America/Sao_Paulo"},"lat":-23.5425,"lng":-46.31083,"population":283314},{"id":3402429,"name":"Caucaia","timezone":{"dstOffset":-3,"gmtOffset":-3,"timeZoneId":"America/Fortaleza"},"lat":-3.73611,"lng":-38.65306,"population":275019},{"id":3454031,"name":"Petrópolis","timezone":{"dstOffset":-3,"gmtOffset":-2,"timeZoneId":"America/Sao_Paulo"},"lat":-22.505,"lng":-43.17861,"population":272691},{"id":3445839,"name":"Uberaba","timezone":{"dstOffset":-3,"gmtOffset":-2,"timeZoneId":"America/Sao_Paulo"},"lat":-19.74833,"lng":-47.93194,"population":260843},{"id":3662574,"name":"Rio Branco","timezone":{"dstOffset":-5,"gmtOffset":-5,"timeZoneId":"America/Rio_Branco"},"lat":-9.97472,"lng":-67.81,"population":257642},{"id":3466779,"name":"Cascavel","timezone":{"dstOffset":-3,"gmtOffset":-2,"timeZoneId":"America/Sao_Paulo"},"lat":-24.95583,"lng":-53.45528,"population":257172},{"id":3456068,"name":"Novo Hamburgo","timezone":{"dstOffset":-3,"gmtOffset":-2,"timeZoneId":"America/Sao_Paulo"},"lat":-29.67833,"lng":-51.13056,"population":253841},{"id":3444914,"name":"Vitória da Conquista","timezone":{"dstOffset":-3,"gmtOffset":-3,"timeZoneId":"America/Bahia"},"lat":-14.86611,"lng":-40.83944,"population":253137},{"id":3470353,"name":"Barueri","timezone":{"dstOffset":-3,"gmtOffset":-2,"timeZoneId":"America/Sao_Paulo"},"lat":-23.51056,"lng":-46.87611,"population":251994},{"id":3446682,"name":"Taubaté","timezone":{"dstOffset":-3,"gmtOffset":-2,"timeZoneId":"America/Sao_Paulo"},"lat":-23.02639,"lng":-45.55528,"population":251641},{"id":3462315,"name":"Governador Valadares","timezone":{"dstOffset":-3,"gmtOffset":-2,"timeZoneId":"America/Sao_Paulo"},"lat":-18.85111,"lng":-41.94944,"population":250878},{"id":3452465,"name":"Praia Grande","timezone":{"dstOffset":-3,"gmtOffset":-2,"timeZoneId":"America/Sao_Paulo"},"lat":-24.00583,"lng":-46.40278,"population":250027},{"id":3445451,"name":"Várzea Grande","timezone":{"dstOffset":-4,"gmtOffset":-3,"timeZoneId":"America/Cuiaba"},"lat":-15.64667,"lng":-56.1325,"population":249752},{"id":3444876,"name":"Volta Redonda","timezone":{"dstOffset":-3,"gmtOffset":-2,"timeZoneId":"America/Sao_Paulo"},"lat":-22.52306,"lng":-44.10417,"population":249580},{"id":3450083,"name":"Santa Maria","timezone":{"dstOffset":-3,"gmtOffset":-2,"timeZoneId":"America/Sao_Paulo"},"lat":-29.68417,"lng":-53.80694,"population":249219},{"id":3450144,"name":"Santa Luzia","timezone":{"dstOffset":-3,"gmtOffset":-2,"timeZoneId":"America/Sao_Paulo"},"lat":-19.76972,"lng":-43.85139,"population":243503},{"id":3462089,"name":"Gravataí","timezone":{"dstOffset":-3,"gmtOffset":-2,"timeZoneId":"America/Sao_Paulo"},"lat":-29.94218,"lng":-50.99278,"population":238778},{"id":3402655,"name":"Caruaru","timezone":{"dstOffset":-3,"gmtOffset":-3,"timeZoneId":"America/Recife"},"lat":-8.28333,"lng":-35.97611,"population":235371},{"id":3664980,"name":"Boa Vista","timezone":{"dstOffset":-4,"gmtOffset":-4,"timeZoneId":"America/Boa_Vista"},"lat":2.81972,"lng":-60.67333,"population":235150},{"id":3461144,"name":"Ipatinga","timezone":{"dstOffset":-3,"gmtOffset":-2,"timeZoneId":"America/Sao_Paulo"},"lat":-19.46833,"lng":-42.53667,"population":228746},{"id":3447259,"name":"Sumaré","timezone":{"dstOffset":-3,"gmtOffset":-2,"timeZoneId":"America/Sao_Paulo"},"lat":-22.82194,"lng":-47.26694,"population":227977},{"id":3397147,"name":"Juazeiro do Norte","timezone":{"dstOffset":-3,"gmtOffset":-3,"timeZoneId":"America/Fortaleza"},"lat":-7.21306,"lng":-39.31528,"population":225230},{"id":3464305,"name":"Embu","timezone":{"dstOffset":-3,"gmtOffset":-2,"timeZoneId":"America/Sao_Paulo"},"lat":-23.64889,"lng":-46.85222,"population":221733},{"id":3398269,"name":"Imperatriz","timezone":{"dstOffset":-3,"gmtOffset":-3,"timeZoneId":"America/Fortaleza"},"lat":-5.52639,"lng":-47.49167,"population":218106},{"id":3465927,"name":"Colombo","timezone":{"dstOffset":-3,"gmtOffset":-2,"timeZoneId":"America/Sao_Paulo"},"lat":-25.29167,"lng":-49.22417,"population":217000},{"id":3447186,"name":"Taboão da Serra","timezone":{"dstOffset":-3,"gmtOffset":-2,"timeZoneId":"America/Sao_Paulo"},"lat":-23.62611,"lng":-46.79167,"population":214523},{"id":3460370,"name":"Jacareí","timezone":{"dstOffset":-3,"gmtOffset":-2,"timeZoneId":"America/Sao_Paulo"},"lat":-23.30528,"lng":-45.96583,"population":213110},{"id":3457692,"name":"Marília","timezone":{"dstOffset":-3,"gmtOffset":-2,"timeZoneId":"America/Sao_Paulo"},"lat":-22.21389,"lng":-49.94583,"population":212218},{"id":3452324,"name":"Presidente Prudente","timezone":{"dstOffset":-3,"gmtOffset":-2,"timeZoneId":"America/Sao_Paulo"},"lat":-22.12556,"lng":-51.38889,"population":209502},{"id":3448622,"name":"São Leopoldo","timezone":{"dstOffset":-3,"gmtOffset":-2,"timeZoneId":"America/Sao_Paulo"},"lat":-29.76028,"lng":-51.14722,"population":209229},{"id":3460949,"name":"Itabuna","timezone":{"dstOffset":-3,"gmtOffset":-3,"timeZoneId":"America/Bahia"},"lat":-14.78556,"lng":-39.28028,"population":205660},{"id":3449319,"name":"São Carlos","timezone":{"dstOffset":-3,"gmtOffset":-2,"timeZoneId":"America/Sao_Paulo"},"lat":-22.0175,"lng":-47.89083,"population":205035},{"id":3461655,"name":"Hortolândia","timezone":{"dstOffset":-3,"gmtOffset":-2,"timeZoneId":"America/Sao_Paulo"},"lat":-22.85833,"lng":-47.22,"population":203533},{"id":3394682,"name":"Mossoró","timezone":{"dstOffset":-3,"gmtOffset":-3,"timeZoneId":"America/Fortaleza"},"lat":-5.1875,"lng":-37.34417,"population":202005},{"id":3460718,"name":"Itapevi","timezone":{"dstOffset":-3,"gmtOffset":-2,"timeZoneId":"America/Sao_Paulo"},"lat":-23.54889,"lng":-46.93417,"population":201748},{"id":3447624,"name":"Sete Lagoas","timezone":{"dstOffset":-3,"gmtOffset":-2,"timeZoneId":"America/Sao_Paulo"},"lat":-19.46583,"lng":-44.24667,"population":201334},{"id":3448742,"name":"São José","timezone":{"dstOffset":-3,"gmtOffset":-2,"timeZoneId":"America/Sao_Paulo"},"lat":-28.21171,"lng":-49.1632,"population":200000},{"id":3474574,"name":"Palmas","timezone":{"dstOffset":-3,"gmtOffset":-3,"timeZoneId":"America/Araguaina"},"lat":-10.16745,"lng":-48.32766,"population":196272},{"id":3472343,"name":"Americana","timezone":{"dstOffset":-3,"gmtOffset":-2,"timeZoneId":"America/Sao_Paulo"},"lat":-22.73917,"lng":-47.33139,"population":196022},{"id":3392242,"name":"Petrolina","timezone":{"dstOffset":-3,"gmtOffset":-3,"timeZoneId":"America/Recife"},"lat":-9.39861,"lng":-40.50083,"population":194650},{"id":3464688,"name":"Divinópolis","timezone":{"dstOffset":-3,"gmtOffset":-2,"timeZoneId":"America/Sao_Paulo"},"lat":-20.13889,"lng":-44.88389,"population":193832},{"id":3395473,"name":"Maracanaú","timezone":{"dstOffset":-3,"gmtOffset":-3,"timeZoneId":"America/Fortaleza"},"lat":-3.87667,"lng":-38.62556,"population":193529},{"id":3389353,"name":"Santarém","timezone":{"dstOffset":-3,"gmtOffset":-3,"timeZoneId":"America/Santarem"},"lat":-2.44306,"lng":-54.70833,"population":189047},{"id":3468031,"name":"Camaçari","timezone":{"dstOffset":-3,"gmtOffset":-3,"timeZoneId":"America/Bahia"},"lat":-12.6975,"lng":-38.32417,"population":188758},{"id":3450404,"name":"Santa Bárbara d'Oeste","timezone":{"dstOffset":-3,"gmtOffset":-2,"timeZoneId":"America/Sao_Paulo"},"lat":-22.75361,"lng":-47.41361,"population":188000},{"id":3451138,"name":"Rio Grande","timezone":{"dstOffset":-3,"gmtOffset":-2,"timeZoneId":"America/Sao_Paulo"},"lat":-32.035,"lng":-52.09861,"population":187838},{"id":3468376,"name":"Cachoeiro de Itapemirim","timezone":{"dstOffset":-3,"gmtOffset":-2,"timeZoneId":"America/Sao_Paulo"},"lat":-20.84889,"lng":-41.11278,"population":187019},{"id":3460950,"name":"Itaboraí","timezone":{"dstOffset":-3,"gmtOffset":-2,"timeZoneId":"America/Sao_Paulo"},"lat":-22.74444,"lng":-42.85944,"population":182498},{"id":3451234,"name":"Rio Claro","timezone":{"dstOffset":-3,"gmtOffset":-2,"timeZoneId":"America/Sao_Paulo"},"lat":-22.41139,"lng":-47.56139,"population":180147},{"id":3461311,"name":"Indaiatuba","timezone":{"dstOffset":-3,"gmtOffset":-2,"timeZoneId":"America/Sao_Paulo"},"lat":-23.08842,"lng":-47.2119,"population":179911},{"id":3454857,"name":"Passo Fundo","timezone":{"dstOffset":-3,"gmtOffset":-2,"timeZoneId":"America/Sao_Paulo"},"lat":-28.26278,"lng":-52.40667,"population":179529},{"id":3465284,"name":"Cotia","timezone":{"dstOffset":-3,"gmtOffset":-2,"timeZoneId":"America/Sao_Paulo"},"lat":-23.60389,"lng":-46.91917,"population":174828},{"id":3462980,"name":"Francisco Morato","timezone":{"dstOffset":-3,"gmtOffset":-2,"timeZoneId":"America/Sao_Paulo"},"lat":-23.28167,"lng":-46.74528,"population":171790},{"id":3471859,"name":"Araçatuba","timezone":{"dstOffset":-3,"gmtOffset":-2,"timeZoneId":"America/Sao_Paulo"},"lat":-21.20889,"lng":-50.43278,"population":170024},{"id":3471766,"name":"Araraquara","timezone":{"dstOffset":-3,"gmtOffset":-2,"timeZoneId":"America/Sao_Paulo"},"lat":-21.79444,"lng":-48.17556,"population":168468},{"id":3463422,"name":"Ferraz de Vasconcelos","timezone":{"dstOffset":-3,"gmtOffset":-2,"timeZoneId":"America/Sao_Paulo"},"lat":-23.54083,"lng":-46.36861,"population":167900},{"id":3407327,"name":"Arapiraca","timezone":{"dstOffset":-3,"gmtOffset":-3,"timeZoneId":"America/Maceio"},"lat":-9.7525,"lng":-36.66111,"population":166562},{"id":3458930,"name":"Lages","timezone":{"dstOffset":-3,"gmtOffset":-2,"timeZoneId":"America/Sao_Paulo"},"lat":-27.81611,"lng":-50.32611,"population":164676},{"id":3470636,"name":"Barra Mansa","timezone":{"dstOffset":-3,"gmtOffset":-2,"timeZoneId":"America/Sao_Paulo"},"lat":-22.54417,"lng":-44.17139,"population":164052},{"id":3456223,"name":"Nossa Senhora do Socorro","timezone":{"dstOffset":-3,"gmtOffset":-3,"timeZoneId":"America/Maceio"},"lat":-10.855,"lng":-37.12611,"population":163993},{"id":3464460,"name":"Dourados","timezone":{"dstOffset":-4,"gmtOffset":-3,"timeZoneId":"America/Campo_Grande"},"lat":-22.22111,"lng":-54.80556,"population":162202},{"id":3465196,"name":"Criciúma","timezone":{"dstOffset":-3,"gmtOffset":-2,"timeZoneId":"America/Sao_Paulo"},"lat":-28.6775,"lng":-49.36972,"population":161954},{"id":3466296,"name":"Chapecó","timezone":{"dstOffset":-3,"gmtOffset":-2,"timeZoneId":"America/Sao_Paulo"},"lat":-27.09639,"lng":-52.61833,"population":160157},{"id":3470583,"name":"Barreiras","timezone":{"dstOffset":-3,"gmtOffset":-3,"timeZoneId":"America/Bahia"},"lat":-12.15278,"lng":-44.99,"population":158292},{"id":3387296,"name":"Sobral","timezone":{"dstOffset":-3,"gmtOffset":-3,"timeZoneId":"America/Fortaleza"},"lat":-3.68611,"lng":-40.34972,"population":157996},{"id":3460845,"name":"Itajaí","timezone":{"dstOffset":-3,"gmtOffset":-2,"timeZoneId":"America/Sao_Paulo"},"lat":-26.90778,"lng":-48.66194,"population":155716},{"id":3461408,"name":"Ilhéus","timezone":{"dstOffset":-3,"gmtOffset":-3,"timeZoneId":"America/Bahia"},"lat":-14.79364,"lng":-39.03949,"population":155499},{"id":3472177,"name":"Angra dos Reis","timezone":{"dstOffset":-3,"gmtOffset":-2,"timeZoneId":"America/Sao_Paulo"},"lat":-23.00667,"lng":-44.31806,"population":153635},{"id":3456166,"name":"Nova Friburgo","timezone":{"dstOffset":-3,"gmtOffset":-2,"timeZoneId":"America/Sao_Paulo"},"lat":-22.28194,"lng":-42.53111,"population":153361},{"id":3450909,"name":"Rondonópolis","timezone":{"dstOffset":-4,"gmtOffset":-3,"timeZoneId":"America/Cuiaba"},"lat":-16.47083,"lng":-54.63556,"population":152912},{"id":3460748,"name":"Itapecerica da Serra","timezone":{"dstOffset":-3,"gmtOffset":-2,"timeZoneId":"America/Sao_Paulo"},"lat":-23.71694,"lng":-46.84917,"population":151605},{"id":3461879,"name":"Guarapuava","timezone":{"dstOffset":-3,"gmtOffset":-2,"timeZoneId":"America/Sao_Paulo"},"lat":-25.39048,"lng":-51.46541,"population":150850},{"id":3392998,"name":"Parnamirim","timezone":{"dstOffset":-3,"gmtOffset":-3,"timeZoneId":"America/Fortaleza"},"lat":-5.91556,"lng":-35.26278,"population":150343},{"id":3402383,"name":"Caxias","timezone":{"dstOffset":-3,"gmtOffset":-3,"timeZoneId":"America/Fortaleza"},"lat":-4.85889,"lng":-43.35611,"population":148072},{"id":3456290,"name":"Nilópolis","timezone":{"dstOffset":-3,"gmtOffset":-2,"timeZoneId":"America/Sao_Paulo"},"lat":-22.8075,"lng":-43.41389,"population":147281},{"id":3453303,"name":"Poços de Caldas","timezone":{"dstOffset":-3,"gmtOffset":-2,"timeZoneId":"America/Sao_Paulo"},"lat":-21.78778,"lng":-46.56139,"population":146588},{"id":3395503,"name":"Marabá","timezone":{"dstOffset":-3,"gmtOffset":-3,"timeZoneId":"America/Belem"},"lat":-5.36861,"lng":-49.11778,"population":145860},{"id":3458329,"name":"Luziânia","timezone":{"dstOffset":-3,"gmtOffset":-2,"timeZoneId":"America/Sao_Paulo"},"lat":-16.2525,"lng":-47.95028,"population":143601},{"id":3404545,"name":"Cabo","timezone":{"dstOffset":-3,"gmtOffset":-3,"timeZoneId":"America/Recife"},"lat":-8.28333,"lng":-35.03333,"population":143105},{"id":3458266,"name":"Macaé","timezone":{"dstOffset":-3,"gmtOffset":-2,"timeZoneId":"America/Sao_Paulo"},"lat":-22.37083,"lng":-41.78694,"population":143029},{"id":3461563,"name":"Ibirité","timezone":{"dstOffset":-3,"gmtOffset":-2,"timeZoneId":"America/Sao_Paulo"},"lat":-20.02194,"lng":-44.05889,"population":141374},{"id":6317464,"name":"Lauro de Freitas","timezone":{"dstOffset":-3,"gmtOffset":-3,"timeZoneId":"America/Bahia"},"lat":-12.89444,"lng":-38.32722,"population":141280},{"id":3455070,"name":"Paranaguá","timezone":{"dstOffset":-3,"gmtOffset":-2,"timeZoneId":"America/Sao_Paulo"},"lat":-25.51626,"lng":-48.52537,"population":141013},{"id":3393001,"name":"Parnaíba","timezone":{"dstOffset":-3,"gmtOffset":-3,"timeZoneId":"America/Fortaleza"},"lat":-2.90472,"lng":-41.77667,"population":138008},{"id":3460535,"name":"Itu","timezone":{"dstOffset":-3,"gmtOffset":-2,"timeZoneId":"America/Sao_Paulo"},"lat":-23.26417,"lng":-47.29917,"population":137586},{"id":3402591,"name":"Castanhal","timezone":{"dstOffset":-3,"gmtOffset":-3,"timeZoneId":"America/Belem"},"lat":-1.29389,"lng":-47.92639,"population":137406},{"id":3449324,"name":"São Caetano do Sul","timezone":{"dstOffset":-3,"gmtOffset":-2,"timeZoneId":"America/Sao_Paulo"},"lat":-23.62306,"lng":-46.55111,"population":136453},{"id":3452073,"name":"Queimados","timezone":{"dstOffset":-3,"gmtOffset":-2,"timeZoneId":"America/Sao_Paulo"},"lat":-22.71611,"lng":-43.55528,"population":135741},{"id":3453837,"name":"Pindamonhangaba","timezone":{"dstOffset":-3,"gmtOffset":-2,"timeZoneId":"America/Sao_Paulo"},"lat":-22.92389,"lng":-45.46167,"population":132218},{"id":3448031,"name":"Sapucaia","timezone":{"dstOffset":-3,"gmtOffset":-2,"timeZoneId":"America/Sao_Paulo"},"lat":-29.83333,"lng":-51.15,"population":130937},{"id":3460102,"name":"Jaraguá do Sul","timezone":{"dstOffset":-3,"gmtOffset":-2,"timeZoneId":"America/Sao_Paulo"},"lat":-26.48611,"lng":-49.06667,"population":130130},{"id":3457000,"name":"Mogi-Gaucu","timezone":{"dstOffset":-3,"gmtOffset":-2,"timeZoneId":"America/Sao_Paulo"},"lat":-22.3677,"lng":-46.94552,"population":128865},{"id":3459943,"name":"Jequié","timezone":{"dstOffset":-3,"gmtOffset":-3,"timeZoneId":"America/Bahia"},"lat":-13.85875,"lng":-40.08512,"population":127475},{"id":3460728,"name":"Itapetininga","timezone":{"dstOffset":-3,"gmtOffset":-2,"timeZoneId":"America/Sao_Paulo"},"lat":-23.59167,"lng":-48.05306,"population":126243},{"id":3454783,"name":"Patos de Minas","timezone":{"dstOffset":-3,"gmtOffset":-2,"timeZoneId":"America/Sao_Paulo"},"lat":-18.57889,"lng":-46.51806,"population":126234},{"id":3469092,"name":"Bragança Paulista","timezone":{"dstOffset":-3,"gmtOffset":-2,"timeZoneId":"America/Sao_Paulo"},"lat":-22.95194,"lng":-46.54194,"population":125096},{"id":3386361,"name":"Timon","timezone":{"dstOffset":-3,"gmtOffset":-3,"timeZoneId":"America/Fortaleza"},"lat":-5.09417,"lng":-42.83667,"population":124427},{"id":3448632,"name":"São José dos Pinhais","timezone":{"dstOffset":-3,"gmtOffset":-2,"timeZoneId":"America/Sao_Paulo"},"lat":-25.5302,"lng":-49.20836,"population":124224},{"id":3446606,"name":"Teresópolis","timezone":{"dstOffset":-3,"gmtOffset":-2,"timeZoneId":"America/Sao_Paulo"},"lat":-22.4167,"lng":-42.97822,"population":123979},{"id":3445679,"name":"Uruguaiana","timezone":{"dstOffset":-3,"gmtOffset":-2,"timeZoneId":"America/Sao_Paulo"},"lat":-29.75472,"lng":-57.08833,"population":123480},{"id":3452640,"name":"Porto Seguro","timezone":{"dstOffset":-3,"gmtOffset":-3,"timeZoneId":"America/Bahia"},"lat":-16.44972,"lng":-39.06472,"population":123173},{"id":3472766,"name":"Alagoinhas","timezone":{"dstOffset":-3,"gmtOffset":-3,"timeZoneId":"America/Bahia"},"lat":-12.13556,"lng":-38.41917,"population":122688},{"id":3455478,"name":"Palhoça","timezone":{"dstOffset":-3,"gmtOffset":-2,"timeZoneId":"America/Sao_Paulo"},"lat":-27.64528,"lng":-48.66778,"population":122423},{"id":3470858,"name":"Barbacena","timezone":{"dstOffset":-3,"gmtOffset":-2,"timeZoneId":"America/Sao_Paulo"},"lat":-21.22583,"lng":-43.77361,"population":122211},{"id":3468403,"name":"Cachoeirinha","timezone":{"dstOffset":-3,"gmtOffset":-2,"timeZoneId":"America/Sao_Paulo"},"lat":-29.95111,"lng":-51.09389,"population":121084},{"id":3389321,"name":"Santa Rita","timezone":{"dstOffset":-3,"gmtOffset":-3,"timeZoneId":"America/Fortaleza"},"lat":-7.11389,"lng":-34.97806,"population":119893},{"id":3446370,"name":"Toledo","timezone":{"dstOffset":-3,"gmtOffset":-2,"timeZoneId":"America/Sao_Paulo"},"lat":-24.71361,"lng":-53.74306,"population":119313},{"id":3460005,"name":"Jaú","timezone":{"dstOffset":-3,"gmtOffset":-2,"timeZoneId":"America/Sao_Paulo"},"lat":-22.29639,"lng":-48.55778,"population":119206},{"id":3465059,"name":"Cubatão","timezone":{"dstOffset":-3,"gmtOffset":-2,"timeZoneId":"America/Sao_Paulo"},"lat":-23.895,"lng":-46.42528,"population":118410},{"id":6317953,"name":"Pinhais","timezone":{"dstOffset":-3,"gmtOffset":-2,"timeZoneId":"America/Sao_Paulo"},"lat":-25.44472,"lng":-49.1925,"population":117000},{"id":6318694,"name":"Simões Filho","timezone":{"dstOffset":-3,"gmtOffset":-3,"timeZoneId":"America/Bahia"},"lat":-12.78444,"lng":-38.40389,"population":116662},{"id":3445487,"name":"Varginha","timezone":{"dstOffset":-3,"gmtOffset":-2,"timeZoneId":"America/Sao_Paulo"},"lat":-21.55139,"lng":-45.43028,"population":116571},{"id":6318696,"name":"Sinop","timezone":{"dstOffset":-4,"gmtOffset":-3,"timeZoneId":"America/Cuiaba"},"lat":-11.86417,"lng":-55.5025,"population":116013},{"id":3452525,"name":"Pouso Alegre","timezone":{"dstOffset":-3,"gmtOffset":-2,"timeZoneId":"America/Sao_Paulo"},"lat":-22.23,"lng":-45.93639,"population":115201},{"id":3469136,"name":"Botucatu","timezone":{"dstOffset":-3,"gmtOffset":-2,"timeZoneId":"America/Sao_Paulo"},"lat":-22.88583,"lng":-48.445,"population":113862},{"id":3460170,"name":"Jandira","timezone":{"dstOffset":-3,"gmtOffset":-2,"timeZoneId":"America/Sao_Paulo"},"lat":-23.5275,"lng":-46.9025,"population":113605},{"id":3451329,"name":"Ribeirão Pires","timezone":{"dstOffset":-3,"gmtOffset":-2,"timeZoneId":"America/Sao_Paulo"},"lat":-23.71056,"lng":-46.41333,"population":111888},{"id":3465644,"name":"Conselheiro Lafaiete","timezone":{"dstOffset":-3,"gmtOffset":-2,"timeZoneId":"America/Sao_Paulo"},"lat":-20.66028,"lng":-43.78611,"population":111596},{"id":3451668,"name":"Resende","timezone":{"dstOffset":-3,"gmtOffset":-2,"timeZoneId":"America/Sao_Paulo"},"lat":-22.46889,"lng":-44.44667,"population":111514},{"id":3471697,"name":"Araucária","timezone":{"dstOffset":-3,"gmtOffset":-2,"timeZoneId":"America/Sao_Paulo"},"lat":-25.59306,"lng":-49.41028,"population":111302},{"id":3471335,"name":"Atibaia","timezone":{"dstOffset":-3,"gmtOffset":-2,"timeZoneId":"America/Sao_Paulo"},"lat":-23.11694,"lng":-46.55028,"population":110968},{"id":3445446,"name":"Várzea Paulista","timezone":{"dstOffset":-3,"gmtOffset":-2,"timeZoneId":"America/Sao_Paulo"},"lat":-23.21139,"lng":-46.82833,"population":110936},{"id":3399058,"name":"Garanhuns","timezone":{"dstOffset":-3,"gmtOffset":-3,"timeZoneId":"America/Recife"},"lat":-8.88202,"lng":-36.50216,"population":110085},{"id":3471715,"name":"Araruama","timezone":{"dstOffset":-3,"gmtOffset":-2,"timeZoneId":"America/Sao_Paulo"},"lat":-22.87278,"lng":-42.34306,"population":109637},{"id":3466692,"name":"Catanduva","timezone":{"dstOffset":-3,"gmtOffset":-2,"timeZoneId":"America/Sao_Paulo"},"lat":-21.13778,"lng":-48.97278,"population":109612},{"id":3462964,"name":"Franco da Rocha","timezone":{"dstOffset":-3,"gmtOffset":-2,"timeZoneId":"America/Sao_Paulo"},"lat":-23.32167,"lng":-46.72694,"population":108858},{"id":3468615,"name":"Cabo Frio","timezone":{"dstOffset":-3,"gmtOffset":-2,"timeZoneId":"America/Sao_Paulo"},"lat":-22.88717,"lng":-42.02622,"population":108239},{"id":3925033,"name":"Ji Paraná","timezone":{"dstOffset":-4,"gmtOffset":-4,"timeZoneId":"America/Porto_Velho"},"lat":-10.88528,"lng":-61.95167,"population":107697},{"id":3471758,"name":"Araras","timezone":{"dstOffset":-3,"gmtOffset":-2,"timeZoneId":"America/Sao_Paulo"},"lat":-22.35694,"lng":-47.38417,"population":107463},{"id":3453406,"name":"Poá","timezone":{"dstOffset":-3,"gmtOffset":-2,"timeZoneId":"America/Sao_Paulo"},"lat":-23.52806,"lng":-46.34472,"population":107432},{"id":3384987,"name":"Vitória de Santo Antão","timezone":{"dstOffset":-3,"gmtOffset":-3,"timeZoneId":"America/Recife"},"lat":-8.11806,"lng":-35.29139,"population":107383},{"id":3471910,"name":"Apucarana","timezone":{"dstOffset":-3,"gmtOffset":-2,"timeZoneId":"America/Sao_Paulo"},"lat":-23.55083,"lng":-51.46083,"population":107085},{"id":3450269,"name":"Santa Cruz do Sul","timezone":{"dstOffset":-3,"gmtOffset":-2,"timeZoneId":"America/Sao_Paulo"},"lat":-29.7175,"lng":-52.42583,"population":106113},{"id":3461859,"name":"Guaratinguetá","timezone":{"dstOffset":-3,"gmtOffset":-2,"timeZoneId":"America/Sao_Paulo"},"lat":-22.81639,"lng":-45.1925,"population":105880},{"id":3458498,"name":"Linhares","timezone":{"dstOffset":-3,"gmtOffset":-2,"timeZoneId":"America/Sao_Paulo"},"lat":-19.39111,"lng":-40.07222,"population":105075},{"id":3407357,"name":"Araguaína","timezone":{"dstOffset":-3,"gmtOffset":-3,"timeZoneId":"America/Araguaina"},"lat":-7.19111,"lng":-48.20722,"population":105019},{"id":3464008,"name":"Esmeraldas","timezone":{"dstOffset":-3,"gmtOffset":-2,"timeZoneId":"America/Sao_Paulo"},"lat":-19.7625,"lng":-44.31389,"population":103206},{"id":3469989,"name":"Birigui","timezone":{"dstOffset":-3,"gmtOffset":-2,"timeZoneId":"America/Sao_Paulo"},"lat":-21.28861,"lng":-50.34,"population":102277},{"id":3470451,"name":"Barretos","timezone":{"dstOffset":-3,"gmtOffset":-2,"timeZoneId":"America/Sao_Paulo"},"lat":-20.55722,"lng":-48.56778,"population":101220},{"id":3465944,"name":"Colatina","timezone":{"dstOffset":-3,"gmtOffset":-2,"timeZoneId":"America/Sao_Paulo"},"lat":-19.53944,"lng":-40.63056,"population":101190},{"id":3446621,"name":"Teófilo Otoni","timezone":{"dstOffset":-3,"gmtOffset":-2,"timeZoneId":"America/Sao_Paulo"},"lat":-17.8575,"lng":-41.50528,"population":101170},{"id":3473964,"name":"Guaíba","timezone":{"dstOffset":-3,"gmtOffset":-2,"timeZoneId":"America/Sao_Paulo"},"lat":-30.11389,"lng":-51.325,"population":101024},{"id":3461888,"name":"Guarapari","timezone":{"dstOffset":-3,"gmtOffset":-2,"timeZoneId":"America/Sao_Paulo"},"lat":-20.65367,"lng":-40.50204,"population":100925},{"id":3465476,"name":"Coronel Fabriciano","timezone":{"dstOffset":-3,"gmtOffset":-2,"timeZoneId":"America/Sao_Paulo"},"lat":-19.51861,"lng":-42.62889,"population":100916},{"id":3471374,"name":"Assis","timezone":{"dstOffset":-3,"gmtOffset":-2,"timeZoneId":"America/Sao_Paulo"},"lat":-22.66167,"lng":-50.41222,"population":100911},{"id":3460899,"name":"Itaguaí","timezone":{"dstOffset":-3,"gmtOffset":-2,"timeZoneId":"America/Sao_Paulo"},"lat":-22.85222,"lng":-43.77528,"population":100752},{"id":3451205,"name":"Rio das Ostras","timezone":{"dstOffset":-3,"gmtOffset":-2,"timeZoneId":"America/Sao_Paulo"},"lat":-22.52694,"lng":-41.945,"population":100000},{"id":3460960,"name":"Itabira","timezone":{"dstOffset":-3,"gmtOffset":-2,"timeZoneId":"America/Sao_Paulo"},"lat":-19.61917,"lng":-43.22694,"population":99496},{"id":3444866,"name":"Votorantim","timezone":{"dstOffset":-3,"gmtOffset":-2,"timeZoneId":"America/Sao_Paulo"},"lat":-23.54667,"lng":-47.43778,"population":99390},{"id":3447651,"name":"Sertãozinho","timezone":{"dstOffset":-3,"gmtOffset":-2,"timeZoneId":"America/Sao_Paulo"},"lat":-21.13778,"lng":-47.99028,"population":99211},{"id":3449948,"name":"Santana de Parnaíba","timezone":{"dstOffset":-3,"gmtOffset":-2,"timeZoneId":"America/Sao_Paulo"},"lat":-23.44417,"lng":-46.91778,"population":98989},{"id":3471196,"name":"Bagé","timezone":{"dstOffset":-3,"gmtOffset":-2,"timeZoneId":"America/Sao_Paulo"},"lat":-31.33139,"lng":-54.10694,"population":98940},{"id":3454847,"name":"Passos","timezone":{"dstOffset":-3,"gmtOffset":-2,"timeZoneId":"America/Sao_Paulo"},"lat":-20.71889,"lng":-46.60972,"population":98752},{"id":3450594,"name":"Salto","timezone":{"dstOffset":-3,"gmtOffset":-2,"timeZoneId":"America/Sao_Paulo"},"lat":-23.20083,"lng":-47.28694,"population":98387},{"id":3445859,"name":"Ubá","timezone":{"dstOffset":-3,"gmtOffset":-2,"timeZoneId":"America/Sao_Paulo"},"lat":-21.12,"lng":-42.94278,"population":97828},{"id":3455729,"name":"Ourinhos","timezone":{"dstOffset":-3,"gmtOffset":-2,"timeZoneId":"America/Sao_Paulo"},"lat":-22.97889,"lng":-49.87056,"population":97799},{"id":3446038,"name":"Trindade","timezone":{"dstOffset":-3,"gmtOffset":-2,"timeZoneId":"America/Sao_Paulo"},"lat":-16.64944,"lng":-49.48889,"population":97521},{"id":3471798,"name":"Arapongas","timezone":{"dstOffset":-3,"gmtOffset":-2,"timeZoneId":"America/Sao_Paulo"},"lat":-23.41944,"lng":-51.42444,"population":97512},{"id":3471830,"name":"Araguari","timezone":{"dstOffset":-3,"gmtOffset":-2,"timeZoneId":"America/Sao_Paulo"},"lat":-18.64722,"lng":-48.18722,"population":96565},{"id":3465342,"name":"Corumbá","timezone":{"dstOffset":-4,"gmtOffset":-3,"timeZoneId":"America/Campo_Grande"},"lat":-19.00917,"lng":-57.65333,"population":96520},{"id":3464073,"name":"Erechim","timezone":{"dstOffset":-3,"gmtOffset":-2,"timeZoneId":"America/Sao_Paulo"},"lat":-27.63461,"lng":-52.2754,"population":96087},{"id":3460132,"name":"Japeri","timezone":{"dstOffset":-3,"gmtOffset":-2,"timeZoneId":"America/Sao_Paulo"},"lat":-22.64306,"lng":-43.65333,"population":95101},{"id":3445162,"name":"Vespasiano","timezone":{"dstOffset":-3,"gmtOffset":-2,"timeZoneId":"America/Sao_Paulo"},"lat":-19.69194,"lng":-43.92333,"population":94749},{"id":3467736,"name":"Campo Largo","timezone":{"dstOffset":-3,"gmtOffset":-2,"timeZoneId":"America/Sao_Paulo"},"lat":-25.45955,"lng":-49.53014,"population":94668},{"id":3446692,"name":"Tatuí","timezone":{"dstOffset":-3,"gmtOffset":-2,"timeZoneId":"America/Sao_Paulo"},"lat":-23.35556,"lng":-47.85694,"population":93580},{"id":3392887,"name":"Patos","timezone":{"dstOffset":-3,"gmtOffset":-3,"timeZoneId":"America/Fortaleza"},"lat":-7.02444,"lng":-37.28,"population":92575},{"id":3446445,"name":"Timóteo","timezone":{"dstOffset":-3,"gmtOffset":-2,"timeZoneId":"America/Sao_Paulo"},"lat":-19.58106,"lng":-42.64953,"population":91722},{"id":3456500,"name":"Muriaé","timezone":{"dstOffset":-3,"gmtOffset":-2,"timeZoneId":"America/Sao_Paulo"},"lat":-21.13056,"lng":-42.36639,"population":91173},{"id":3467978,"name":"Cambé","timezone":{"dstOffset":-3,"gmtOffset":-2,"timeZoneId":"America/Sao_Paulo"},"lat":-23.27583,"lng":-51.27833,"population":91080},{"id":3405940,"name":"Bayeux","timezone":{"dstOffset":-3,"gmtOffset":-3,"timeZoneId":"America/Fortaleza"},"lat":-7.125,"lng":-34.93222,"population":91056},{"id":3470073,"name":"Bento Gonçalves","timezone":{"dstOffset":-3,"gmtOffset":-2,"timeZoneId":"America/Sao_Paulo"},"lat":-29.17139,"lng":-51.51917,"population":90852},{"id":3467081,"name":"Caraguatatuba","timezone":{"dstOffset":-3,"gmtOffset":-2,"timeZoneId":"America/Sao_Paulo"},"lat":-23.62028,"lng":-45.41306,"population":90843},{"id":3460791,"name":"Itanhaém","timezone":{"dstOffset":-3,"gmtOffset":-2,"timeZoneId":"America/Sao_Paulo"},"lat":-24.18306,"lng":-46.78889,"population":90385},{"id":3449936,"name":"Santana do Livramento","timezone":{"dstOffset":-3,"gmtOffset":-2,"timeZoneId":"America/Sao_Paulo"},"lat":-30.89083,"lng":-55.53278,"population":89694},{"id":3445782,"name":"Umuarama","timezone":{"dstOffset":-3,"gmtOffset":-2,"timeZoneId":"America/Sao_Paulo"},"lat":-23.76639,"lng":-53.325,"population":89687},{"id":3472518,"name":"Almirante Tamandaré","timezone":{"dstOffset":-3,"gmtOffset":-2,"timeZoneId":"America/Sao_Paulo"},"lat":-25.32472,"lng":-49.31,"population":89499},{"id":3453420,"name":"Planaltina","timezone":{"dstOffset":-3,"gmtOffset":-2,"timeZoneId":"America/Sao_Paulo"},"lat":-15.45278,"lng":-47.61417,"population":88853},{"id":3401545,"name":"Crato","timezone":{"dstOffset":-3,"gmtOffset":-3,"timeZoneId":"America/Fortaleza"},"lat":-7.23417,"lng":-39.40944,"population":88786},{"id":3445578,"name":"Valinhos","timezone":{"dstOffset":-3,"gmtOffset":-2,"timeZoneId":"America/Sao_Paulo"},"lat":-22.97056,"lng":-46.99583,"population":88630},{"id":3388376,"name":"São Lourenço da Mata","timezone":{"dstOffset":-3,"gmtOffset":-3,"timeZoneId":"America/Recife"},"lat":-8.00222,"lng":-35.01833,"population":88416},{"id":3456147,"name":"Nova Lima","timezone":{"dstOffset":-3,"gmtOffset":-2,"timeZoneId":"America/Sao_Paulo"},"lat":-19.98556,"lng":-43.84667,"population":88399},{"id":3468879,"name":"Brusque","timezone":{"dstOffset":-3,"gmtOffset":-2,"timeZoneId":"America/Sao_Paulo"},"lat":-27.09806,"lng":-48.9175,"population":88284},{"id":3470691,"name":"Barra do Piraí","timezone":{"dstOffset":-3,"gmtOffset":-2,"timeZoneId":"America/Sao_Paulo"},"lat":-22.47,"lng":-43.82556,"population":87668},{"id":3472638,"name":"Alegrete","timezone":{"dstOffset":-3,"gmtOffset":-2,"timeZoneId":"America/Sao_Paulo"},"lat":-29.78306,"lng":-55.79194,"population":87236},{"id":3468215,"name":"Caieiras","timezone":{"dstOffset":-3,"gmtOffset":-2,"timeZoneId":"America/Sao_Paulo"},"lat":-23.36417,"lng":-46.74056,"population":87188},{"id":3398352,"name":"Igarassu","timezone":{"dstOffset":-3,"gmtOffset":-3,"timeZoneId":"America/Recife"},"lat":-7.83417,"lng":-34.90639,"population":86457},{"id":3392734,"name":"Paulo Afonso","timezone":{"dstOffset":-3,"gmtOffset":-3,"timeZoneId":"America/Bahia"},"lat":-9.40611,"lng":-38.21472,"population":85350},{"id":3460523,"name":"Ituiutaba","timezone":{"dstOffset":-3,"gmtOffset":-2,"timeZoneId":"America/Sao_Paulo"},"lat":-18.97428,"lng":-49.46212,"population":85345},{"id":3463859,"name":"Esteio","timezone":{"dstOffset":-3,"gmtOffset":-2,"timeZoneId":"America/Sao_Paulo"},"lat":-29.86139,"lng":-51.17917,"population":84902},{"id":3447998,"name":"Sarandi","timezone":{"dstOffset":-3,"gmtOffset":-2,"timeZoneId":"America/Sao_Paulo"},"lat":-23.44361,"lng":-51.87389,"population":84697},{"id":3460733,"name":"Itaperuna","timezone":{"dstOffset":-3,"gmtOffset":-2,"timeZoneId":"America/Sao_Paulo"},"lat":-21.205,"lng":-41.88778,"population":84435},{"id":3391360,"name":"Santana","timezone":{"dstOffset":-3,"gmtOffset":-3,"timeZoneId":"America/Belem"},"lat":-0.05833,"lng":-51.18167,"population":83927},{"id":3402000,"name":"Codó","timezone":{"dstOffset":-3,"gmtOffset":-3,"timeZoneId":"America/Fortaleza"},"lat":-4.45528,"lng":-43.88556,"population":83288},{"id":3471691,"name":"Araxá","timezone":{"dstOffset":-3,"gmtOffset":-2,"timeZoneId":"America/Sao_Paulo"},"lat":-19.59333,"lng":-46.94056,"population":82595},{"id":3408404,"name":"Abreu e Lima","timezone":{"dstOffset":-3,"gmtOffset":-3,"timeZoneId":"America/Recife"},"lat":-7.91167,"lng":-34.90278,"population":81959},{"id":3460834,"name":"Itajubá","timezone":{"dstOffset":-3,"gmtOffset":-2,"timeZoneId":"America/Sao_Paulo"},"lat":-22.42556,"lng":-45.45278,"population":81870},{"id":3458696,"name":"Lavras","timezone":{"dstOffset":-3,"gmtOffset":-2,"timeZoneId":"America/Sao_Paulo"},"lat":-21.24528,"lng":-44.99972,"population":81472},{"id":3471291,"name":"Avaré","timezone":{"dstOffset":-3,"gmtOffset":-2,"timeZoneId":"America/Sao_Paulo"},"lat":-23.09861,"lng":-48.92583,"population":81285},{"id":3463140,"name":"Formosa","timezone":{"dstOffset":-3,"gmtOffset":-2,"timeZoneId":"America/Sao_Paulo"},"lat":-15.53722,"lng":-47.33444,"population":81232},{"id":3458662,"name":"Leme","timezone":{"dstOffset":-3,"gmtOffset":-2,"timeZoneId":"America/Sao_Paulo"},"lat":-22.18556,"lng":-47.39028,"population":81209},{"id":3664464,"name":"Cruzeiro do Sul","timezone":{"dstOffset":-5,"gmtOffset":-5,"timeZoneId":"America/Rio_Branco"},"lat":-7.62759,"lng":-72.67756,"population":79819},{"id":3460522,"name":"Itumbiara","timezone":{"dstOffset":-3,"gmtOffset":-2,"timeZoneId":"America/Sao_Paulo"},"lat":-18.41917,"lng":-49.21528,"population":79582},{"id":3457708,"name":"Maricá","timezone":{"dstOffset":-3,"gmtOffset":-2,"timeZoneId":"America/Sao_Paulo"},"lat":-22.91944,"lng":-42.81861,"population":79551},{"id":3445847,"name":"Ubatuba","timezone":{"dstOffset":-3,"gmtOffset":-2,"timeZoneId":"America/Sao_Paulo"},"lat":-23.43389,"lng":-45.07111,"population":79007},{"id":3446098,"name":"Três Lagoas","timezone":{"dstOffset":-4,"gmtOffset":-3,"timeZoneId":"America/Campo_Grande"},"lat":-20.78741,"lng":-51.70406,"population":78712},{"id":3448879,"name":"São João del Rei","timezone":{"dstOffset":-3,"gmtOffset":-2,"timeZoneId":"America/Sao_Paulo"},"lat":-21.13556,"lng":-44.26167,"population":78592},{"id":3456998,"name":"Mogi Mirim","timezone":{"dstOffset":-3,"gmtOffset":-2,"timeZoneId":"America/Sao_Paulo"},"lat":-22.43194,"lng":-46.95778,"population":78244},{"id":3408424,"name":"Abaetetuba","timezone":{"dstOffset":-3,"gmtOffset":-3,"timeZoneId":"America/Belem"},"lat":-1.71806,"lng":-48.8825,"population":78050},{"id":3449350,"name":"São Bento do Sul","timezone":{"dstOffset":-3,"gmtOffset":-2,"timeZoneId":"America/Sao_Paulo"},"lat":-26.25028,"lng":-49.37861,"population":77597},{"id":3460584,"name":"Itaúna","timezone":{"dstOffset":-3,"gmtOffset":-2,"timeZoneId":"America/Sao_Paulo"},"lat":-20.07528,"lng":-44.57639,"population":77400},{"id":3448519,"name":"São Mateus","timezone":{"dstOffset":-3,"gmtOffset":-2,"timeZoneId":"America/Sao_Paulo"},"lat":-18.72011,"lng":-39.85891,"population":77117},{"id":3460064,"name":"Jataí","timezone":{"dstOffset":-3,"gmtOffset":-2,"timeZoneId":"America/Sao_Paulo"},"lat":-17.87939,"lng":-51.72166,"population":76547},{"id":3448902,"name":"São João da Boa Vista","timezone":{"dstOffset":-3,"gmtOffset":-2,"timeZoneId":"America/Sao_Paulo"},"lat":-21.96917,"lng":-46.79806,"population":76540},{"id":3458425,"name":"Lorena","timezone":{"dstOffset":-3,"gmtOffset":-2,"timeZoneId":"America/Sao_Paulo"},"lat":-22.73083,"lng":-45.12472,"population":76506},{"id":3389652,"name":"Santa Cruz do Capibaribe","timezone":{"dstOffset":-3,"gmtOffset":-3,"timeZoneId":"America/Recife"},"lat":-7.9575,"lng":-36.20472,"population":76450},{"id":3448257,"name":"São Sebastião","timezone":{"dstOffset":-3,"gmtOffset":-2,"timeZoneId":"America/Sao_Paulo"},"lat":-23.76,"lng":-45.40972,"population":76367},{"id":3385935,"name":"Tucuruí","timezone":{"dstOffset":-3,"gmtOffset":-3,"timeZoneId":"America/Belem"},"lat":-3.76585,"lng":-49.67923,"population":76337},{"id":3464304,"name":"Embu Guaçu","timezone":{"dstOffset":-3,"gmtOffset":-2,"timeZoneId":"America/Sao_Paulo"},"lat":-23.83222,"lng":-46.81139,"population":76310},{"id":3448063,"name":"Sapiranga","timezone":{"dstOffset":-3,"gmtOffset":-2,"timeZoneId":"America/Sao_Paulo"},"lat":-29.63806,"lng":-51.00694,"population":76051},{"id":3455161,"name":"Pará de Minas","timezone":{"dstOffset":-3,"gmtOffset":-2,"timeZoneId":"America/Sao_Paulo"},"lat":-19.86028,"lng":-44.60833,"population":75786},{"id":3467717,"name":"Campo Mourão","timezone":{"dstOffset":-3,"gmtOffset":-2,"timeZoneId":"America/Sao_Paulo"},"lat":-24.04309,"lng":-52.37929,"population":75401},{"id":3468436,"name":"Cachoeira do Sul","timezone":{"dstOffset":-3,"gmtOffset":-2,"timeZoneId":"America/Sao_Paulo"},"lat":-30.03917,"lng":-52.89389,"population":74694},{"id":3449521,"name":"Santo Antônio de Jesus","timezone":{"dstOffset":-3,"gmtOffset":-3,"timeZoneId":"America/Bahia"},"lat":-12.96889,"lng":-39.26139,"population":73957},{"id":3455051,"name":"Paranavaí","timezone":{"dstOffset":-3,"gmtOffset":-2,"timeZoneId":"America/Sao_Paulo"},"lat":-23.07306,"lng":-52.46528,"population":72848},{"id":3459796,"name":"João Monlevade","timezone":{"dstOffset":-3,"gmtOffset":-2,"timeZoneId":"America/Sao_Paulo"},"lat":-19.81,"lng":-43.17361,"population":72762},{"id":3457509,"name":"Matão","timezone":{"dstOffset":-3,"gmtOffset":-2,"timeZoneId":"America/Sao_Paulo"},"lat":-21.60333,"lng":-48.36583,"population":72468},{"id":3406910,"name":"Bacabal","timezone":{"dstOffset":-3,"gmtOffset":-3,"timeZoneId":"America/Fortaleza"},"lat":-4.29167,"lng":-44.79167,"population":72372},{"id":3468562,"name":"Caçapava","timezone":{"dstOffset":-3,"gmtOffset":-2,"timeZoneId":"America/Sao_Paulo"},"lat":-23.10083,"lng":-45.70694,"population":72340},{"id":3471393,"name":"Arujá","timezone":{"dstOffset":-3,"gmtOffset":-2,"timeZoneId":"America/Sao_Paulo"},"lat":-23.39611,"lng":-46.32083,"population":72077},{"id":3465090,"name":"Cruzeiro","timezone":{"dstOffset":-3,"gmtOffset":-2,"timeZoneId":"America/Sao_Paulo"},"lat":-22.57316,"lng":-44.97108,"population":72022},{"id":3454763,"name":"Patrocínio","timezone":{"dstOffset":-3,"gmtOffset":-2,"timeZoneId":"America/Sao_Paulo"},"lat":-18.94389,"lng":-46.9925,"population":71963},{"id":3446065,"name":"Três Rios","timezone":{"dstOffset":-3,"gmtOffset":-2,"timeZoneId":"America/Sao_Paulo"},"lat":-22.11667,"lng":-43.20917,"population":71944},{"id":3470264,"name":"Bebedouro","timezone":{"dstOffset":-3,"gmtOffset":-2,"timeZoneId":"America/Sao_Paulo"},"lat":-20.94944,"lng":-48.47917,"population":71862},{"id":3449310,"name":"São Cristóvão","timezone":{"dstOffset":-3,"gmtOffset":-3,"timeZoneId":"America/Maceio"},"lat":-11.01472,"lng":-37.20639,"population":71539},{"id":3472603,"name":"Alfenas","timezone":{"dstOffset":-3,"gmtOffset":-2,"timeZoneId":"America/Sao_Paulo"},"lat":-21.42917,"lng":-45.94722,"population":71406},{"id":3461444,"name":"Ijuí","timezone":{"dstOffset":-3,"gmtOffset":-2,"timeZoneId":"America/Sao_Paulo"},"lat":-28.38778,"lng":-53.91472,"population":71202},{"id":3407882,"name":"Altamira","timezone":{"dstOffset":-3,"gmtOffset":-3,"timeZoneId":"America/Santarem"},"lat":-3.20333,"lng":-52.20639,"population":70888},{"id":3455168,"name":"Paracatu","timezone":{"dstOffset":-3,"gmtOffset":-2,"timeZoneId":"America/Sao_Paulo"},"lat":-17.22222,"lng":-46.87472,"population":70753},{"id":3402721,"name":"Carpina","timezone":{"dstOffset":-3,"gmtOffset":-3,"timeZoneId":"America/Recife"},"lat":-7.85083,"lng":-35.25472,"population":70689},{"id":3398331,"name":"Iguatu","timezone":{"dstOffset":-3,"gmtOffset":-3,"timeZoneId":"America/Fortaleza"},"lat":-6.35944,"lng":-39.29861,"population":70380},{"id":3444864,"name":"Votuporanga","timezone":{"dstOffset":-3,"gmtOffset":-2,"timeZoneId":"America/Sao_Paulo"},"lat":-20.42278,"lng":-49.97278,"population":69863},{"id":3393106,"name":"Paragominas","timezone":{"dstOffset":-3,"gmtOffset":-3,"timeZoneId":"America/Belem"},"lat":-2.96667,"lng":-47.48333,"population":69613},{"id":3458494,"name":"Lins","timezone":{"dstOffset":-3,"gmtOffset":-2,"timeZoneId":"America/Sao_Paulo"},"lat":-21.67861,"lng":-49.7425,"population":69451},{"id":3460441,"name":"Jaboticabal","timezone":{"dstOffset":-3,"gmtOffset":-2,"timeZoneId":"America/Sao_Paulo"},"lat":-21.25472,"lng":-48.32222,"population":69394},{"id":3445133,"name":"Viçosa","timezone":{"dstOffset":-3,"gmtOffset":-2,"timeZoneId":"America/Sao_Paulo"},"lat":-20.75389,"lng":-42.88194,"population":68680},{"id":3448221,"name":"São Sebastião do Paraíso","timezone":{"dstOffset":-3,"gmtOffset":-2,"timeZoneId":"America/Sao_Paulo"},"lat":-20.91694,"lng":-46.99139,"population":68654},{"id":3406545,"name":"Balsas","timezone":{"dstOffset":-3,"gmtOffset":-3,"timeZoneId":"America/Fortaleza"},"lat":-7.5325,"lng":-46.03556,"population":68056},{"id":3460598,"name":"Itatiba","timezone":{"dstOffset":-3,"gmtOffset":-2,"timeZoneId":"America/Sao_Paulo"},"lat":-23.00583,"lng":-46.83889,"population":67934},{"id":3389609,"name":"Santa Inês","timezone":{"dstOffset":-3,"gmtOffset":-3,"timeZoneId":"America/Fortaleza"},"lat":-3.66667,"lng":-45.38,"population":67424},{"id":3445993,"name":"Tubarão","timezone":{"dstOffset":-3,"gmtOffset":-2,"timeZoneId":"America/Sao_Paulo"},"lat":-28.46667,"lng":-49.00694,"population":67245},{"id":3454818,"name":"Pato Branco","timezone":{"dstOffset":-3,"gmtOffset":-2,"timeZoneId":"America/Sao_Paulo"},"lat":-26.22861,"lng":-52.67056,"population":65754},{"id":3454690,"name":"Paulínia","timezone":{"dstOffset":-3,"gmtOffset":-2,"timeZoneId":"America/Sao_Paulo"},"lat":-22.76111,"lng":-47.15417,"population":65595},{"id":3459035,"name":"Lajeado","timezone":{"dstOffset":-3,"gmtOffset":-2,"timeZoneId":"America/Sao_Paulo"},"lat":-29.46694,"lng":-51.96139,"population":65407},{"id":3465108,"name":"Cruz Alta","timezone":{"dstOffset":-3,"gmtOffset":-2,"timeZoneId":"America/Sao_Paulo"},"lat":-28.63861,"lng":-53.60639,"population":65275},{"id":3407407,"name":"Aquiraz","timezone":{"dstOffset":-3,"gmtOffset":-3,"timeZoneId":"America/Fortaleza"},"lat":-3.90139,"lng":-38.39111,"population":65116},{"id":3397893,"name":"Itacoatiara","timezone":{"dstOffset":-4,"gmtOffset":-4,"timeZoneId":"America/Manaus"},"lat":-3.14306,"lng":-58.44417,"population":64937},{"id":3461724,"name":"Gurupi","timezone":{"dstOffset":-3,"gmtOffset":-3,"timeZoneId":"America/Araguaina"},"lat":-11.72917,"lng":-49.06861,"population":64789},{"id":3397967,"name":"Itaituba","timezone":{"dstOffset":-3,"gmtOffset":-3,"timeZoneId":"America/Santarem"},"lat":-4.27611,"lng":-55.98361,"population":64756},{"id":3449696,"name":"Santo Ângelo","timezone":{"dstOffset":-3,"gmtOffset":-2,"timeZoneId":"America/Sao_Paulo"},"lat":-28.29917,"lng":-54.26306,"population":64606},{"id":3393008,"name":"Parintins","timezone":{"dstOffset":-4,"gmtOffset":-4,"timeZoneId":"America/Manaus"},"lat":-2.62833,"lng":-56.73583,"population":64428},{"id":3464891,"name":"Curvelo","timezone":{"dstOffset":-3,"gmtOffset":-2,"timeZoneId":"America/Sao_Paulo"},"lat":-18.75639,"lng":-44.43083,"population":63954},{"id":3460974,"name":"Itabaiana","timezone":{"dstOffset":-3,"gmtOffset":-3,"timeZoneId":"America/Maceio"},"lat":-10.685,"lng":-37.42528,"population":63888},{"id":3468570,"name":"Caçador","timezone":{"dstOffset":-3,"gmtOffset":-2,"timeZoneId":"America/Sao_Paulo"},"lat":-26.77528,"lng":-51.015,"population":63726},{"id":3455671,"name":"Ouro Preto","timezone":{"dstOffset":-3,"gmtOffset":-2,"timeZoneId":"America/Sao_Paulo"},"lat":-20.39484,"lng":-43.50517,"population":63678},{"id":3468100,"name":"Caldas Novas","timezone":{"dstOffset":-3,"gmtOffset":-2,"timeZoneId":"America/Sao_Paulo"},"lat":-17.74431,"lng":-48.62789,"population":63675},{"id":3461013,"name":"Irecê","timezone":{"dstOffset":-3,"gmtOffset":-3,"timeZoneId":"America/Bahia"},"lat":-11.30417,"lng":-41.85583,"population":63626},{"id":3466696,"name":"Catalão","timezone":{"dstOffset":-3,"gmtOffset":-2,"timeZoneId":"America/Sao_Paulo"},"lat":-18.16583,"lng":-47.94639,"population":63544},{"id":3446138,"name":"Três Corações","timezone":{"dstOffset":-3,"gmtOffset":-2,"timeZoneId":"America/Sao_Paulo"},"lat":-21.69694,"lng":-45.25333,"population":63457},{"id":3390288,"name":"Rio Largo","timezone":{"dstOffset":-3,"gmtOffset":-3,"timeZoneId":"America/Maceio"},"lat":-9.47833,"lng":-35.85333,"population":63387},{"id":3445597,"name":"Valença","timezone":{"dstOffset":-3,"gmtOffset":-3,"timeZoneId":"America/Bahia"},"lat":-13.37028,"lng":-39.07306,"population":63231},{"id":3924679,"name":"Vilhena","timezone":{"dstOffset":-4,"gmtOffset":-4,"timeZoneId":"America/Porto_Velho"},"lat":-12.74056,"lng":-60.14583,"population":63231},{"id":3454061,"name":"Peruíbe","timezone":{"dstOffset":-3,"gmtOffset":-2,"timeZoneId":"America/Sao_Paulo"},"lat":-24.32,"lng":-46.99833,"population":63030},{"id":3460723,"name":"Itapeva","timezone":{"dstOffset":-3,"gmtOffset":-2,"timeZoneId":"America/Sao_Paulo"},"lat":-23.98222,"lng":-48.87556,"population":62957},{"id":3466698,"name":"Cataguases","timezone":{"dstOffset":-3,"gmtOffset":-2,"timeZoneId":"America/Sao_Paulo"},"lat":-21.38917,"lng":-42.69667,"population":62618},{"id":3448011,"name":"Saquarema","timezone":{"dstOffset":-3,"gmtOffset":-2,"timeZoneId":"America/Sao_Paulo"},"lat":-22.92,"lng":-42.51028,"population":62056},{"id":3445942,"name":"Tupã","timezone":{"dstOffset":-3,"gmtOffset":-2,"timeZoneId":"America/Sao_Paulo"},"lat":-21.93472,"lng":-50.51361,"population":62035},{"id":3463432,"name":"Fernandópolis","timezone":{"dstOffset":-3,"gmtOffset":-2,"timeZoneId":"America/Sao_Paulo"},"lat":-20.28389,"lng":-50.24639,"population":61931},{"id":3447854,"name":"Senador Canedo","timezone":{"dstOffset":-3,"gmtOffset":-2,"timeZoneId":"America/Sao_Paulo"},"lat":-16.70806,"lng":-49.09306,"population":61800},{"id":3460699,"name":"Itapira","timezone":{"dstOffset":-3,"gmtOffset":-2,"timeZoneId":"America/Sao_Paulo"},"lat":-22.43611,"lng":-46.82167,"population":61607},{"id":3398691,"name":"Gravatá","timezone":{"dstOffset":-3,"gmtOffset":-3,"timeZoneId":"America/Recife"},"lat":-8.20111,"lng":-35.56472,"population":61249},{"id":3445596,"name":"Valença","timezone":{"dstOffset":-3,"gmtOffset":-2,"timeZoneId":"America/Sao_Paulo"},"lat":-22.24556,"lng":-43.70028,"population":61144},{"id":3453639,"name":"Pirassununga","timezone":{"dstOffset":-3,"gmtOffset":-2,"timeZoneId":"America/Sao_Paulo"},"lat":-21.99611,"lng":-47.42583,"population":60413},{"id":3445764,"name":"Unaí","timezone":{"dstOffset":-3,"gmtOffset":-2,"timeZoneId":"America/Sao_Paulo"},"lat":-16.3575,"lng":-46.90611,"population":60202},{"id":3466988,"name":"Caratinga","timezone":{"dstOffset":-3,"gmtOffset":-2,"timeZoneId":"America/Sao_Paulo"},"lat":-19.78972,"lng":-42.13917,"population":60066},{"id":3460730,"name":"Itapetinga","timezone":{"dstOffset":-3,"gmtOffset":-3,"timeZoneId":"America/Bahia"},"lat":-15.24889,"lng":-40.24778,"population":59721},{"id":3457025,"name":"Mococa","timezone":{"dstOffset":-3,"gmtOffset":-2,"timeZoneId":"America/Sao_Paulo"},"lat":-21.46778,"lng":-47.00472,"population":59654},{"id":3449340,"name":"São Borja","timezone":{"dstOffset":-3,"gmtOffset":-2,"timeZoneId":"America/Sao_Paulo"},"lat":-28.66056,"lng":-56.00444,"population":59613},{"id":3466978,"name":"Carazinho","timezone":{"dstOffset":-3,"gmtOffset":-2,"timeZoneId":"America/Sao_Paulo"},"lat":-28.28389,"lng":-52.78639,"population":59417},{"id":3449822,"name":"Santa Rosa","timezone":{"dstOffset":-3,"gmtOffset":-2,"timeZoneId":"America/Sao_Paulo"},"lat":-27.87083,"lng":-54.48139,"population":58957},{"id":3446652,"name":"Telêmaco Borba","timezone":{"dstOffset":-3,"gmtOffset":-2,"timeZoneId":"America/Sao_Paulo"},"lat":-24.32389,"lng":-50.61556,"population":58880},{"id":3461973,"name":"Guanambi","timezone":{"dstOffset":-3,"gmtOffset":-3,"timeZoneId":"America/Bahia"},"lat":-14.22333,"lng":-42.78139,"population":58877},{"id":3471848,"name":"Aracruz","timezone":{"dstOffset":-3,"gmtOffset":-2,"timeZoneId":"America/Sao_Paulo"},"lat":-19.82028,"lng":-40.27333,"population":58271},{"id":3665199,"name":"Ariquemes","timezone":{"dstOffset":-4,"gmtOffset":-4,"timeZoneId":"America/Porto_Velho"},"lat":-9.91333,"lng":-63.04083,"population":58096},{"id":3463605,"name":"Farroupilha","timezone":{"dstOffset":-3,"gmtOffset":-2,"timeZoneId":"America/Sao_Paulo"},"lat":-29.225,"lng":-51.34778,"population":57650},{"id":3462996,"name":"Francisco Beltrão","timezone":{"dstOffset":-3,"gmtOffset":-2,"timeZoneId":"America/Sao_Paulo"},"lat":-26.08111,"lng":-53.055,"population":57618},{"id":3392167,"name":"Picos","timezone":{"dstOffset":-3,"gmtOffset":-3,"timeZoneId":"America/Fortaleza"},"lat":-7.07694,"lng":-41.46694,"population":57495},{"id":3458645,"name":"Lençóis Paulista","timezone":{"dstOffset":-3,"gmtOffset":-2,"timeZoneId":"America/Sao_Paulo"},"lat":-22.59861,"lng":-48.80028,"population":57375},{"id":3405006,"name":"Bragança","timezone":{"dstOffset":-3,"gmtOffset":-3,"timeZoneId":"America/Belem"},"lat":-1.05361,"lng":-46.76556,"population":57163},{"id":3407216,"name":"Arcoverde","timezone":{"dstOffset":-3,"gmtOffset":-3,"timeZoneId":"America/Recife"},"lat":-8.41889,"lng":-37.05389,"population":57163},{"id":3445630,"name":"Vacaria","timezone":{"dstOffset":-3,"gmtOffset":-2,"timeZoneId":"America/Sao_Paulo"},"lat":-28.51222,"lng":-50.93389,"population":56765},{"id":3468158,"name":"Cajamar","timezone":{"dstOffset":-3,"gmtOffset":-2,"timeZoneId":"America/Sao_Paulo"},"lat":-23.35611,"lng":-46.87694,"population":56682},{"id":3460174,"name":"Janaúba","timezone":{"dstOffset":-3,"gmtOffset":-2,"timeZoneId":"America/Sao_Paulo"},"lat":-15.8025,"lng":-43.30889,"population":56572},{"id":3445014,"name":"Vinhedo","timezone":{"dstOffset":-3,"gmtOffset":-2,"timeZoneId":"America/Sao_Paulo"},"lat":-23.02972,"lng":-46.97528,"population":56492},{"id":3463174,"name":"Formiga","timezone":{"dstOffset":-3,"gmtOffset":-2,"timeZoneId":"America/Sao_Paulo"},"lat":-20.46444,"lng":-45.42639,"population":56404},{"id":3466174,"name":"Cianorte","timezone":{"dstOffset":-3,"gmtOffset":-2,"timeZoneId":"America/Sao_Paulo"},"lat":-23.66333,"lng":-52.605,"population":55994},{"id":3456102,"name":"Nova Viçosa","timezone":{"dstOffset":-3,"gmtOffset":-3,"timeZoneId":"America/Bahia"},"lat":-17.89194,"lng":-39.37194,"population":55980},{"id":3397909,"name":"Itapipoca","timezone":{"dstOffset":-3,"gmtOffset":-3,"timeZoneId":"America/Fortaleza"},"lat":-3.49444,"lng":-39.57861,"population":55784},{"id":3453150,"name":"Ponta Porã","timezone":{"dstOffset":-4,"gmtOffset":-3,"timeZoneId":"America/Campo_Grande"},"lat":-22.53611,"lng":-55.72556,"population":55763},{"id":3463900,"name":"Estância","timezone":{"dstOffset":-3,"gmtOffset":-3,"timeZoneId":"America/Maceio"},"lat":-11.26833,"lng":-37.43833,"population":55654},{"id":3925212,"name":"Cacoal","timezone":{"dstOffset":-4,"gmtOffset":-4,"timeZoneId":"America/Porto_Velho"},"lat":-11.43861,"lng":-61.44722,"population":55560},{"id":3449099,"name":"São Gabriel","timezone":{"dstOffset":-3,"gmtOffset":-2,"timeZoneId":"America/Sao_Paulo"},"lat":-30.33639,"lng":-54.32,"population":55434},{"id":3465721,"name":"Concórdia","timezone":{"dstOffset":-3,"gmtOffset":-2,"timeZoneId":"America/Sao_Paulo"},"lat":-27.23417,"lng":-52.02778,"population":55367},{"id":3393400,"name":"Pacatuba","timezone":{"dstOffset":-3,"gmtOffset":-3,"timeZoneId":"America/Fortaleza"},"lat":-3.98417,"lng":-38.62028,"population":55291},{"id":3445153,"name":"Viana","timezone":{"dstOffset":-3,"gmtOffset":-2,"timeZoneId":"America/Sao_Paulo"},"lat":-20.39028,"lng":-40.49611,"population":55122},{"id":3448351,"name":"São Pedro da Aldeia","timezone":{"dstOffset":-3,"gmtOffset":-2,"timeZoneId":"America/Sao_Paulo"},"lat":-22.83917,"lng":-42.10278,"population":55014},{"id":3404117,"name":"Caicó","timezone":{"dstOffset":-3,"gmtOffset":-3,"timeZoneId":"America/Fortaleza"},"lat":-6.45833,"lng":-37.09778,"population":54934},{"id":3447785,"name":"Seropédica","timezone":{"dstOffset":-3,"gmtOffset":-2,"timeZoneId":"America/Sao_Paulo"},"lat":-22.74389,"lng":-43.7075,"population":54846},{"id":3404558,"name":"Cabedelo","timezone":{"dstOffset":-3,"gmtOffset":-3,"timeZoneId":"America/Fortaleza"},"lat":-6.98111,"lng":-34.83389,"population":54839},{"id":3457952,"name":"Manhuaçu","timezone":{"dstOffset":-3,"gmtOffset":-2,"timeZoneId":"America/Sao_Paulo"},"lat":-20.25806,"lng":-42.03361,"population":54607},{"id":3454235,"name":"Penápolis","timezone":{"dstOffset":-3,"gmtOffset":-2,"timeZoneId":"America/Sao_Paulo"},"lat":-21.41972,"lng":-50.0775,"population":54477},{"id":3458131,"name":"Mairiporã","timezone":{"dstOffset":-3,"gmtOffset":-2,"timeZoneId":"America/Sao_Paulo"},"lat":-23.31861,"lng":-46.58667,"population":54415},{"id":3456826,"name":"Montenegro","timezone":{"dstOffset":-3,"gmtOffset":-2,"timeZoneId":"America/Sao_Paulo"},"lat":-29.68861,"lng":-51.46111,"population":54057},{"id":3398115,"name":"Ipojuca","timezone":{"dstOffset":-3,"gmtOffset":-3,"timeZoneId":"America/Recife"},"lat":-8.39889,"lng":-35.06389,"population":53364},{"id":3467684,"name":"Campos do Jordão","timezone":{"dstOffset":-3,"gmtOffset":-2,"timeZoneId":"America/Sao_Paulo"},"lat":-22.73944,"lng":-45.59139,"population":53319},{"id":3468014,"name":"Camaquã","timezone":{"dstOffset":-3,"gmtOffset":-2,"timeZoneId":"America/Sao_Paulo"},"lat":-30.85111,"lng":-51.81222,"population":53169},{"id":3401548,"name":"Crateús","timezone":{"dstOffset":-3,"gmtOffset":-3,"timeZoneId":"America/Fortaleza"},"lat":-5.17833,"lng":-40.6775,"population":52933},{"id":3663529,"name":"Manacapuru","timezone":{"dstOffset":-4,"gmtOffset":-4,"timeZoneId":"America/Manaus"},"lat":-3.29972,"lng":-60.62056,"population":52459},{"id":3472248,"name":"Andradina","timezone":{"dstOffset":-3,"gmtOffset":-2,"timeZoneId":"America/Sao_Paulo"},"lat":-20.89611,"lng":-51.37944,"population":52406},{"id":3470709,"name":"Barra do Garças","timezone":{"dstOffset":-4,"gmtOffset":-3,"timeZoneId":"America/Cuiaba"},"lat":-15.89,"lng":-52.25667,"population":52398},{"id":3402613,"name":"Cascavel","timezone":{"dstOffset":-3,"gmtOffset":-3,"timeZoneId":"America/Fortaleza"},"lat":-4.13306,"lng":-38.24194,"population":52357},{"id":3470003,"name":"Biguaçu","timezone":{"dstOffset":-3,"gmtOffset":-2,"timeZoneId":"America/Sao_Paulo"},"lat":-27.49417,"lng":-48.65556,"population":51992},{"id":3470324,"name":"Batatais","timezone":{"dstOffset":-3,"gmtOffset":-2,"timeZoneId":"America/Sao_Paulo"},"lat":-20.89111,"lng":-47.585,"population":51976},{"id":3451152,"name":"Rio do Sul","timezone":{"dstOffset":-3,"gmtOffset":-2,"timeZoneId":"America/Sao_Paulo"},"lat":-27.21417,"lng":-49.64306,"population":51944},{"id":3453546,"name":"Pirapora","timezone":{"dstOffset":-3,"gmtOffset":-2,"timeZoneId":"America/Sao_Paulo"},"lat":-17.345,"lng":-44.94194,"population":51656},{"id":3461519,"name":"Içara","timezone":{"dstOffset":-3,"gmtOffset":-2,"timeZoneId":"America/Sao_Paulo"},"lat":-28.71333,"lng":-49.3,"population":51454},{"id":3405738,"name":"Bezerros","timezone":{"dstOffset":-3,"gmtOffset":-3,"timeZoneId":"America/Recife"},"lat":-8.23333,"lng":-35.79694,"population":51436},{"id":3387786,"name":"Serra Talhada","timezone":{"dstOffset":-3,"gmtOffset":-3,"timeZoneId":"America/Recife"},"lat":-7.99194,"lng":-38.29833,"population":51203},{"id":3398450,"name":"Horizonte","timezone":{"dstOffset":-3,"gmtOffset":-3,"timeZoneId":"America/Fortaleza"},"lat":-4.1,"lng":-38.48333,"population":51171},{"id":3450964,"name":"Rolândia","timezone":{"dstOffset":-3,"gmtOffset":-2,"timeZoneId":"America/Sao_Paulo"},"lat":-23.30972,"lng":-51.36917,"population":51004},{"id":3395395,"name":"Marechal Deodoro","timezone":{"dstOffset":-3,"gmtOffset":-3,"timeZoneId":"America/Maceio"},"lat":-9.71028,"lng":-35.895,"population":50571},{"id":3448300,"name":"São Roque","timezone":{"dstOffset":-3,"gmtOffset":-2,"timeZoneId":"America/Sao_Paulo"},"lat":-23.52917,"lng":-47.13528,"population":50540},{"id":3664539,"name":"Coari","timezone":{"dstOffset":-4,"gmtOffset":-4,"timeZoneId":"America/Manaus"},"lat":-4.085,"lng":-63.14139,"population":50490},{"id":3446753,"name":"Taquaritinga","timezone":{"dstOffset":-3,"gmtOffset":-2,"timeZoneId":"America/Sao_Paulo"},"lat":-21.40611,"lng":-48.50472,"population":50098},{"id":3405812,"name":"Belo Jardim","timezone":{"dstOffset":-3,"gmtOffset":-3,"timeZoneId":"America/Recife"},"lat":-8.33556,"lng":-36.42417,"population":49922},{"id":3405792,"name":"Benevides","timezone":{"dstOffset":-3,"gmtOffset":-3,"timeZoneId":"America/Belem"},"lat":-1.36139,"lng":-48.24472,"population":49794},{"id":3456138,"name":"Nova Odessa","timezone":{"dstOffset":-3,"gmtOffset":-2,"timeZoneId":"America/Sao_Paulo"},"lat":-22.7775,"lng":-47.29583,"population":49432},{"id":3390907,"name":"Quixadá","timezone":{"dstOffset":-3,"gmtOffset":-3,"timeZoneId":"America/Fortaleza"},"lat":-4.97139,"lng":-39.01528,"population":49328},{"id":3454358,"name":"Pedro Leopoldo","timezone":{"dstOffset":-3,"gmtOffset":-2,"timeZoneId":"America/Sao_Paulo"},"lat":-19.61806,"lng":-44.04306,"population":49261},{"id":3452775,"name":"Porto Ferreira","timezone":{"dstOffset":-3,"gmtOffset":-2,"timeZoneId":"America/Sao_Paulo"},"lat":-21.85389,"lng":-47.47917,"population":49127},{"id":3471039,"name":"Balneário Camboriú","timezone":{"dstOffset":-3,"gmtOffset":-2,"timeZoneId":"America/Sao_Paulo"},"lat":-26.99056,"lng":-48.63472,"population":49100},{"id":3447690,"name":"Serrinha","timezone":{"dstOffset":-3,"gmtOffset":-3,"timeZoneId":"America/Bahia"},"lat":-11.66417,"lng":-39.0075,"population":49078},{"id":3461550,"name":"Ibitinga","timezone":{"dstOffset":-3,"gmtOffset":-2,"timeZoneId":"America/Sao_Paulo"},"lat":-21.75778,"lng":-48.82889,"population":49074},{"id":3406318,"name":"Barra do Corda","timezone":{"dstOffset":-3,"gmtOffset":-3,"timeZoneId":"America/Fortaleza"},"lat":-5.50308,"lng":-45.23693,"population":48901},{"id":3465671,"name":"Congonhas","timezone":{"dstOffset":-3,"gmtOffset":-2,"timeZoneId":"America/Sao_Paulo"},"lat":-20.50525,"lng":-43.8588,"population":48819},{"id":3469540,"name":"Boituva","timezone":{"dstOffset":-3,"gmtOffset":-2,"timeZoneId":"America/Sao_Paulo"},"lat":-23.28333,"lng":-47.67222,"population":48750},{"id":3445746,"name":"União da Vitória","timezone":{"dstOffset":-3,"gmtOffset":-2,"timeZoneId":"America/Sao_Paulo"},"lat":-26.23,"lng":-51.08639,"population":48741},{"id":3399506,"name":"Floriano","timezone":{"dstOffset":-3,"gmtOffset":-3,"timeZoneId":"America/Fortaleza"},"lat":-6.76694,"lng":-43.0225,"population":48587},{"id":3454954,"name":"Parobé","timezone":{"dstOffset":-3,"gmtOffset":-2,"timeZoneId":"America/Sao_Paulo"},"lat":-29.62861,"lng":-50.83472,"population":48559},{"id":3447839,"name":"Senhor do Bonfim","timezone":{"dstOffset":-3,"gmtOffset":-3,"timeZoneId":"America/Bahia"},"lat":-10.46139,"lng":-40.18944,"population":48471},{"id":3453078,"name":"Ponte Nova","timezone":{"dstOffset":-3,"gmtOffset":-2,"timeZoneId":"America/Sao_Paulo"},"lat":-20.41639,"lng":-42.90861,"population":48187},{"id":3400804,"name":"Escada","timezone":{"dstOffset":-3,"gmtOffset":-3,"timeZoneId":"America/Recife"},"lat":-8.35917,"lng":-35.22361,"population":48083},{"id":3446847,"name":"Taquara","timezone":{"dstOffset":-3,"gmtOffset":-2,"timeZoneId":"America/Sao_Paulo"},"lat":-29.65056,"lng":-50.78056,"population":48051},{"id":3387202,"name":"Sousa","timezone":{"dstOffset":-3,"gmtOffset":-3,"timeZoneId":"America/Fortaleza"},"lat":-6.75917,"lng":-38.22806,"population":47927},{"id":3461763,"name":"Guaxupé","timezone":{"dstOffset":-3,"gmtOffset":-2,"timeZoneId":"America/Sao_Paulo"},"lat":-21.30528,"lng":-46.71278,"population":47889},{"id":3462378,"name":"Goianésia","timezone":{"dstOffset":-3,"gmtOffset":-2,"timeZoneId":"America/Sao_Paulo"},"lat":-15.3175,"lng":-49.1175,"population":47883},{"id":3465105,"name":"Cruz das Almas","timezone":{"dstOffset":-3,"gmtOffset":-3,"timeZoneId":"America/Bahia"},"lat":-12.67,"lng":-39.10194,"population":47844},{"id":3456370,"name":"Navegantes","timezone":{"dstOffset":-3,"gmtOffset":-2,"timeZoneId":"America/Sao_Paulo"},"lat":-26.89889,"lng":-48.65417,"population":47781},{"id":3465320,"name":"Cosmópolis","timezone":{"dstOffset":-3,"gmtOffset":-2,"timeZoneId":"America/Sao_Paulo"},"lat":-22.64583,"lng":-47.19611,"population":47772},{"id":3403208,"name":"Capanema","timezone":{"dstOffset":-3,"gmtOffset":-3,"timeZoneId":"America/Belem"},"lat":-1.19583,"lng":-47.18083,"population":47766},{"id":3460344,"name":"Jacobina","timezone":{"dstOffset":-3,"gmtOffset":-3,"timeZoneId":"America/Bahia"},"lat":-11.18143,"lng":-40.51372,"population":47637},{"id":3460826,"name":"Itamaraju","timezone":{"dstOffset":-3,"gmtOffset":-3,"timeZoneId":"America/Bahia"},"lat":-17.03917,"lng":-39.53111,"population":47628},{"id":3467796,"name":"Campo Belo","timezone":{"dstOffset":-3,"gmtOffset":-2,"timeZoneId":"America/Sao_Paulo"},"lat":-20.89722,"lng":-45.27722,"population":47491},{"id":3460966,"name":"Itaberaba","timezone":{"dstOffset":-3,"gmtOffset":-3,"timeZoneId":"America/Bahia"},"lat":-12.5275,"lng":-40.30694,"population":47301},{"id":3448640,"name":"São José do Rio Pardo","timezone":{"dstOffset":-3,"gmtOffset":-2,"timeZoneId":"America/Sao_Paulo"},"lat":-21.59556,"lng":-46.88861,"population":46989},{"id":3449720,"name":"Santo Amaro","timezone":{"dstOffset":-3,"gmtOffset":-3,"timeZoneId":"America/Bahia"},"lat":-12.54667,"lng":-38.71194,"population":46748},{"id":3458632,"name":"Leopoldina","timezone":{"dstOffset":-3,"gmtOffset":-2,"timeZoneId":"America/Sao_Paulo"},"lat":-21.53194,"lng":-42.64306,"population":46742},{"id":3449741,"name":"Santiago","timezone":{"dstOffset":-3,"gmtOffset":-2,"timeZoneId":"America/Sao_Paulo"},"lat":-29.19167,"lng":-54.86722,"population":46611},{"id":3404817,"name":"Breves","timezone":{"dstOffset":-3,"gmtOffset":-3,"timeZoneId":"America/Belem"},"lat":-1.68222,"lng":-50.48028,"population":46473},{"id":3468425,"name":"Cachoeiras de Macacu","timezone":{"dstOffset":-3,"gmtOffset":-2,"timeZoneId":"America/Sao_Paulo"},"lat":-22.4625,"lng":-42.65306,"population":46177},{"id":3456944,"name":"Mongaguá","timezone":{"dstOffset":-3,"gmtOffset":-2,"timeZoneId":"America/Sao_Paulo"},"lat":-24.09306,"lng":-46.62083,"population":45930},{"id":3461017,"name":"Irati","timezone":{"dstOffset":-3,"gmtOffset":-2,"timeZoneId":"America/Sao_Paulo"},"lat":-25.46722,"lng":-50.65111,"population":45830},{"id":3451704,"name":"Registro","timezone":{"dstOffset":-3,"gmtOffset":-2,"timeZoneId":"America/Sao_Paulo"},"lat":-24.4875,"lng":-47.84361,"population":45697},{"id":3386449,"name":"Tianguá","timezone":{"dstOffset":-3,"gmtOffset":-3,"timeZoneId":"America/Fortaleza"},"lat":-3.73222,"lng":-40.99167,"population":45696},{"id":3459342,"name":"Lagarto","timezone":{"dstOffset":-3,"gmtOffset":-3,"timeZoneId":"America/Maceio"},"lat":-10.91722,"lng":-37.65,"population":45445},{"id":3394453,"name":"Moreno","timezone":{"dstOffset":-3,"gmtOffset":-3,"timeZoneId":"America/Recife"},"lat":-8.11861,"lng":-35.09222,"population":45237},{"id":3457736,"name":"Mariana","timezone":{"dstOffset":-3,"gmtOffset":-2,"timeZoneId":"America/Sao_Paulo"},"lat":-20.37778,"lng":-43.41611,"population":45236},{"id":3403697,"name":"Cametá","timezone":{"dstOffset":-3,"gmtOffset":-3,"timeZoneId":"America/Belem"},"lat":-2.24444,"lng":-49.49583,"population":45200},{"id":3455923,"name":"Olímpia","timezone":{"dstOffset":-3,"gmtOffset":-2,"timeZoneId":"America/Sao_Paulo"},"lat":-20.73722,"lng":-48.91472,"population":45199},{"id":3386396,"name":"Timbaúba","timezone":{"dstOffset":-3,"gmtOffset":-3,"timeZoneId":"America/Recife"},"lat":-7.50528,"lng":-35.31833,"population":45121},{"id":3661944,"name":"Tefé","timezone":{"dstOffset":-4,"gmtOffset":-4,"timeZoneId":"America/Manaus"},"lat":-3.36841,"lng":-64.72054,"population":44942},{"id":3391908,"name":"Piripiri","timezone":{"dstOffset":-3,"gmtOffset":-3,"timeZoneId":"America/Fortaleza"},"lat":-4.27333,"lng":-41.77694,"population":44864},{"id":3460620,"name":"Itararé","timezone":{"dstOffset":-3,"gmtOffset":-2,"timeZoneId":"America/Sao_Paulo"},"lat":-24.1125,"lng":-49.33167,"population":44809},{"id":3461588,"name":"Ibiporã","timezone":{"dstOffset":-3,"gmtOffset":-2,"timeZoneId":"America/Sao_Paulo"},"lat":-23.26917,"lng":-51.04806,"population":44790},{"id":3455785,"name":"Orlândia","timezone":{"dstOffset":-3,"gmtOffset":-2,"timeZoneId":"America/Sao_Paulo"},"lat":-20.72028,"lng":-47.88667,"population":44766},{"id":3403687,"name":"Camocim","timezone":{"dstOffset":-3,"gmtOffset":-3,"timeZoneId":"America/Fortaleza"},"lat":-2.90222,"lng":-40.84111,"population":44481},{"id":3458132,"name":"Mairinque","timezone":{"dstOffset":-3,"gmtOffset":-2,"timeZoneId":"America/Sao_Paulo"},"lat":-23.54583,"lng":-47.18333,"population":44456},{"id":3461316,"name":"Indaial","timezone":{"dstOffset":-3,"gmtOffset":-2,"timeZoneId":"America/Sao_Paulo"},"lat":-26.89778,"lng":-49.23167,"population":44359},{"id":3407378,"name":"Aracati","timezone":{"dstOffset":-3,"gmtOffset":-3,"timeZoneId":"America/Fortaleza"},"lat":-4.56167,"lng":-37.76972,"population":44293},{"id":3461194,"name":"Inhumas","timezone":{"dstOffset":-3,"gmtOffset":-2,"timeZoneId":"America/Sao_Paulo"},"lat":-16.35778,"lng":-49.49611,"population":44058},{"id":3456848,"name":"Monte Carmelo","timezone":{"dstOffset":-3,"gmtOffset":-2,"timeZoneId":"America/Sao_Paulo"},"lat":-18.72472,"lng":-47.49861,"population":44041},{"id":3398904,"name":"Goiana","timezone":{"dstOffset":-3,"gmtOffset":-3,"timeZoneId":"America/Recife"},"lat":-7.56056,"lng":-35.0025,"population":43980},{"id":3404020,"name":"Cajazeiras","timezone":{"dstOffset":-3,"gmtOffset":-3,"timeZoneId":"America/Fortaleza"},"lat":-6.89028,"lng":-38.55528,"population":43913},{"id":3460186,"name":"Jales","timezone":{"dstOffset":-3,"gmtOffset":-2,"timeZoneId":"America/Sao_Paulo"},"lat":-20.26889,"lng":-50.54583,"population":43831},{"id":3446077,"name":"Três Pontas","timezone":{"dstOffset":-3,"gmtOffset":-2,"timeZoneId":"America/Sao_Paulo"},"lat":-21.36667,"lng":-45.5125,"population":43749},{"id":3398570,"name":"Guarabira","timezone":{"dstOffset":-3,"gmtOffset":-3,"timeZoneId":"America/Fortaleza"},"lat":-6.85472,"lng":-35.49,"population":43749},{"id":3461370,"name":"Imbituba","timezone":{"dstOffset":-3,"gmtOffset":-2,"timeZoneId":"America/Sao_Paulo"},"lat":-28.24,"lng":-48.67028,"population":43450},{"id":3471772,"name":"Araranguá","timezone":{"dstOffset":-3,"gmtOffset":-2,"timeZoneId":"America/Sao_Paulo"},"lat":-28.93575,"lng":-49.49538,"population":43444},{"id":3459251,"name":"Lagoa da Prata","timezone":{"dstOffset":-3,"gmtOffset":-2,"timeZoneId":"America/Sao_Paulo"},"lat":-20.0225,"lng":-45.54361,"population":43118},{"id":3457772,"name":"Marechal Cândido Rondon","timezone":{"dstOffset":-3,"gmtOffset":-2,"timeZoneId":"America/Sao_Paulo"},"lat":-24.55611,"lng":-54.05667,"population":43028},{"id":3448825,"name":"São Joaquim da Barra","timezone":{"dstOffset":-3,"gmtOffset":-2,"timeZoneId":"America/Sao_Paulo"},"lat":-20.58139,"lng":-47.85472,"population":42720},{"id":3403353,"name":"Canindé","timezone":{"dstOffset":-3,"gmtOffset":-3,"timeZoneId":"America/Fortaleza"},"lat":-4.35889,"lng":-39.31167,"population":42720},{"id":3445126,"name":"Videira","timezone":{"dstOffset":-3,"gmtOffset":-2,"timeZoneId":"America/Sao_Paulo"},"lat":-27.00833,"lng":-51.15167,"population":42440},{"id":3396277,"name":"Limoeiro","timezone":{"dstOffset":-3,"gmtOffset":-3,"timeZoneId":"America/Recife"},"lat":-7.87472,"lng":-35.45028,"population":42328},{"id":3389860,"name":"Salgueiro","timezone":{"dstOffset":-3,"gmtOffset":-3,"timeZoneId":"America/Recife"},"lat":-8.07417,"lng":-39.11917,"population":42152},{"id":3454231,"name":"Penedo","timezone":{"dstOffset":-3,"gmtOffset":-3,"timeZoneId":"America/Maceio"},"lat":-10.29028,"lng":-36.58639,"population":42097},{"id":3466704,"name":"Castro","timezone":{"dstOffset":-3,"gmtOffset":-2,"timeZoneId":"America/Sao_Paulo"},"lat":-24.78927,"lng":-50.01225,"population":42091},{"id":3468893,"name":"Brumado","timezone":{"dstOffset":-3,"gmtOffset":-3,"timeZoneId":"America/Bahia"},"lat":-14.20361,"lng":-41.66528,"population":41989},{"id":3451124,"name":"Rio Negrinho","timezone":{"dstOffset":-3,"gmtOffset":-2,"timeZoneId":"America/Sao_Paulo"},"lat":-26.25444,"lng":-49.51833,"population":41914},{"id":3392251,"name":"Pesqueira","timezone":{"dstOffset":-3,"gmtOffset":-3,"timeZoneId":"America/Recife"},"lat":-8.35778,"lng":-36.69639,"population":41896},{"id":3456873,"name":"Monte Alto","timezone":{"dstOffset":-3,"gmtOffset":-2,"timeZoneId":"America/Sao_Paulo"},"lat":-21.26111,"lng":-48.49639,"population":41893},{"id":3393264,"name":"Palmares","timezone":{"dstOffset":-3,"gmtOffset":-3,"timeZoneId":"America/Recife"},"lat":-8.68333,"lng":-35.59167,"population":41679},{"id":3449427,"name":"Santos Dumont","timezone":{"dstOffset":-3,"gmtOffset":-2,"timeZoneId":"America/Sao_Paulo"},"lat":-21.45667,"lng":-43.5525,"population":41582},{"id":3393409,"name":"Pacajus","timezone":{"dstOffset":-3,"gmtOffset":-3,"timeZoneId":"America/Fortaleza"},"lat":-4.1725,"lng":-38.46056,"population":41558},{"id":3460242,"name":"Jaguaquara","timezone":{"dstOffset":-3,"gmtOffset":-3,"timeZoneId":"America/Bahia"},"lat":-13.53056,"lng":-39.97083,"population":41498},{"id":3472311,"name":"Amparo","timezone":{"dstOffset":-3,"gmtOffset":-2,"timeZoneId":"America/Sao_Paulo"},"lat":-22.70111,"lng":-46.76444,"population":41497},{"id":3462580,"name":"Garça","timezone":{"dstOffset":-3,"gmtOffset":-2,"timeZoneId":"America/Sao_Paulo"},"lat":-22.21056,"lng":-49.65611,"population":41302},{"id":3385742,"name":"União dos Palmares","timezone":{"dstOffset":-3,"gmtOffset":-3,"timeZoneId":"America/Maceio"},"lat":-9.16278,"lng":-36.03194,"population":41178},{"id":3453535,"name":"Piraquara","timezone":{"dstOffset":-3,"gmtOffset":-2,"timeZoneId":"America/Sao_Paulo"},"lat":-25.44227,"lng":-49.06795,"population":41161},{"id":3448616,"name":"São Lourenço","timezone":{"dstOffset":-3,"gmtOffset":-2,"timeZoneId":"America/Sao_Paulo"},"lat":-22.11639,"lng":-45.05444,"population":41143},{"id":3452779,"name":"Porto Feliz","timezone":{"dstOffset":-3,"gmtOffset":-2,"timeZoneId":"America/Sao_Paulo"},"lat":-23.21472,"lng":-47.52389,"population":41015},{"id":3389822,"name":"Salinópolis","timezone":{"dstOffset":-3,"gmtOffset":-3,"timeZoneId":"America/Belem"},"lat":-0.61361,"lng":-47.35611,"population":40998},{"id":3462916,"name":"Frutal","timezone":{"dstOffset":-3,"gmtOffset":-2,"timeZoneId":"America/Sao_Paulo"},"lat":-20.02472,"lng":-48.94056,"population":40931},{"id":3388269,"name":"São Miguel dos Campos","timezone":{"dstOffset":-3,"gmtOffset":-3,"timeZoneId":"America/Maceio"},"lat":-9.78111,"lng":-36.09361,"population":40890},{"id":3387604,"name":"Sirinhaém","timezone":{"dstOffset":-3,"gmtOffset":-3,"timeZoneId":"America/Recife"},"lat":-8.59083,"lng":-35.11611,"population":40852},{"id":3402229,"name":"Chapadinha","timezone":{"dstOffset":-3,"gmtOffset":-3,"timeZoneId":"America/Fortaleza"},"lat":-3.74167,"lng":-43.36028,"population":40804},{"id":3469437,"name":"Bom Jesus da Lapa","timezone":{"dstOffset":-3,"gmtOffset":-3,"timeZoneId":"America/Bahia"},"lat":-13.255,"lng":-43.41806,"population":40691},{"id":3445350,"name":"Venâncio Aires","timezone":{"dstOffset":-3,"gmtOffset":-2,"timeZoneId":"America/Sao_Paulo"},"lat":-29.60639,"lng":-52.19194,"population":40627},{"id":3471395,"name":"Artur Nogueira","timezone":{"dstOffset":-3,"gmtOffset":-2,"timeZoneId":"America/Sao_Paulo"},"lat":-22.57306,"lng":-47.1725,"population":40403},{"id":3463865,"name":"Estância Velha","timezone":{"dstOffset":-3,"gmtOffset":-2,"timeZoneId":"America/Sao_Paulo"},"lat":-29.64833,"lng":-51.17389,"population":40390},{"id":3469516,"name":"Bom Despacho","timezone":{"dstOffset":-3,"gmtOffset":-2,"timeZoneId":"America/Sao_Paulo"},"lat":-19.73639,"lng":-45.25222,"population":40303},{"id":3456827,"name":"Monte Mor","timezone":{"dstOffset":-3,"gmtOffset":-2,"timeZoneId":"America/Sao_Paulo"},"lat":-22.94667,"lng":-47.31583,"population":40290},{"id":3458147,"name":"Mafra","timezone":{"dstOffset":-3,"gmtOffset":-2,"timeZoneId":"America/Sao_Paulo"},"lat":-26.11139,"lng":-49.80528,"population":40081},{"id":3396048,"name":"Macaíba","timezone":{"dstOffset":-3,"gmtOffset":-3,"timeZoneId":"America/Fortaleza"},"lat":-5.85833,"lng":-35.35389,"population":40015},{"id":3466641,"name":"Catu","timezone":{"dstOffset":-3,"gmtOffset":-3,"timeZoneId":"America/Bahia"},"lat":-12.35306,"lng":-38.37889,"population":39932},{"id":3447720,"name":"Serrana","timezone":{"dstOffset":-3,"gmtOffset":-2,"timeZoneId":"America/Sao_Paulo"},"lat":-21.21139,"lng":-47.59556,"population":39826},{"id":3459094,"name":"Laguna","timezone":{"dstOffset":-3,"gmtOffset":-2,"timeZoneId":"America/Sao_Paulo"},"lat":-28.4825,"lng":-48.78083,"population":39711},{"id":3390160,"name":"Russas","timezone":{"dstOffset":-3,"gmtOffset":-3,"timeZoneId":"America/Fortaleza"},"lat":-4.94028,"lng":-37.97583,"population":39465},{"id":3460954,"name":"Itabirito","timezone":{"dstOffset":-3,"gmtOffset":-2,"timeZoneId":"America/Sao_Paulo"},"lat":-20.25333,"lng":-43.80139,"population":39452},{"id":3454407,"name":"Pedreira","timezone":{"dstOffset":-3,"gmtOffset":-2,"timeZoneId":"America/Sao_Paulo"},"lat":-22.74194,"lng":-46.90139,"population":39198},{"id":3455459,"name":"Palmas","timezone":{"dstOffset":-3,"gmtOffset":-2,"timeZoneId":"America/Sao_Paulo"},"lat":-26.48417,"lng":-51.99056,"population":39150},{"id":3455152,"name":"Paraguaçu Paulista","timezone":{"dstOffset":-3,"gmtOffset":-2,"timeZoneId":"America/Sao_Paulo"},"lat":-22.41278,"lng":-50.57583,"population":39120},{"id":3457147,"name":"Mineiros","timezone":{"dstOffset":-3,"gmtOffset":-2,"timeZoneId":"America/Sao_Paulo"},"lat":-17.56944,"lng":-52.55111,"population":38951},{"id":3392054,"name":"Pinheiro","timezone":{"dstOffset":-3,"gmtOffset":-3,"timeZoneId":"America/Fortaleza"},"lat":-2.52139,"lng":-45.0825,"population":38893},{"id":3467452,"name":"Canoinhas","timezone":{"dstOffset":-3,"gmtOffset":-2,"timeZoneId":"America/Sao_Paulo"},"lat":-26.17722,"lng":-50.39,"population":38862},{"id":3461129,"name":"Ipiaú","timezone":{"dstOffset":-3,"gmtOffset":-3,"timeZoneId":"America/Bahia"},"lat":-14.13341,"lng":-39.73708,"population":38762},{"id":3452331,"name":"Presidente Epitácio","timezone":{"dstOffset":-3,"gmtOffset":-2,"timeZoneId":"America/Sao_Paulo"},"lat":-21.76333,"lng":-52.11556,"population":38742},{"id":3468592,"name":"Cabreúva","timezone":{"dstOffset":-3,"gmtOffset":-2,"timeZoneId":"America/Sao_Paulo"},"lat":-23.3075,"lng":-47.13278,"population":38738},{"id":3407243,"name":"Araripina","timezone":{"dstOffset":-3,"gmtOffset":-3,"timeZoneId":"America/Recife"},"lat":-7.57611,"lng":-40.49833,"population":38569},{"id":3459138,"name":"Lagoa Santa","timezone":{"dstOffset":-3,"gmtOffset":-2,"timeZoneId":"America/Sao_Paulo"},"lat":-19.63006,"lng":-43.9009,"population":38486},{"id":3458049,"name":"Mandaguari","timezone":{"dstOffset":-3,"gmtOffset":-2,"timeZoneId":"America/Sao_Paulo"},"lat":-23.5475,"lng":-51.67083,"population":38238},{"id":3451134,"name":"Rio Grande da Serra","timezone":{"dstOffset":-3,"gmtOffset":-2,"timeZoneId":"America/Sao_Paulo"},"lat":-23.74417,"lng":-46.39833,"population":38161},{"id":3454620,"name":"Pederneiras","timezone":{"dstOffset":-3,"gmtOffset":-2,"timeZoneId":"America/Sao_Paulo"},"lat":-22.35167,"lng":-48.775,"population":38020},{"id":3924877,"name":"Pôsto Fiscal Rolim de Moura","timezone":{"dstOffset":-4,"gmtOffset":-4,"timeZoneId":"America/Porto_Velho"},"lat":-13.08271,"lng":-62.27726,"population":37949},{"id":3456398,"name":"Nanuque","timezone":{"dstOffset":-3,"gmtOffset":-2,"timeZoneId":"America/Sao_Paulo"},"lat":-17.83917,"lng":-40.35389,"population":37824},{"id":3453807,"name":"Espírito Santo do Pinhal","timezone":{"dstOffset":-3,"gmtOffset":-2,"timeZoneId":"America/Sao_Paulo"},"lat":-22.11583,"lng":-46.68278,"population":37448},{"id":3394500,"name":"Morada Nova","timezone":{"dstOffset":-3,"gmtOffset":-3,"timeZoneId":"America/Fortaleza"},"lat":-5.10667,"lng":-38.3725,"population":37389},{"id":3464728,"name":"Diamantina","timezone":{"dstOffset":-3,"gmtOffset":-2,"timeZoneId":"America/Sao_Paulo"},"lat":-18.24142,"lng":-43.60568,"population":37343},{"id":3450272,"name":"Santa Cruz do Rio Pardo","timezone":{"dstOffset":-3,"gmtOffset":-2,"timeZoneId":"America/Sao_Paulo"},"lat":-22.89889,"lng":-49.6325,"population":37336},{"id":3400558,"name":"Eusébio","timezone":{"dstOffset":-3,"gmtOffset":-3,"timeZoneId":"America/Fortaleza"},"lat":-3.89,"lng":-38.45056,"population":37289},{"id":3470776,"name":"Barra Bonita","timezone":{"dstOffset":-3,"gmtOffset":-2,"timeZoneId":"America/Sao_Paulo"},"lat":-22.49472,"lng":-48.55806,"population":37246},{"id":3467371,"name":"Capâo Bonito","timezone":{"dstOffset":-3,"gmtOffset":-2,"timeZoneId":"America/Sao_Paulo"},"lat":-24.00583,"lng":-48.34944,"population":37206},{"id":3405924,"name":"Beberibe","timezone":{"dstOffset":-3,"gmtOffset":-3,"timeZoneId":"America/Fortaleza"},"lat":-4.17972,"lng":-38.13056,"population":37025},{"id":3460511,"name":"Ituverava","timezone":{"dstOffset":-3,"gmtOffset":-2,"timeZoneId":"America/Sao_Paulo"},"lat":-20.33944,"lng":-47.78056,"population":36997},{"id":3464547,"name":"Dom Pedrito","timezone":{"dstOffset":-3,"gmtOffset":-2,"timeZoneId":"America/Sao_Paulo"},"lat":-30.98278,"lng":-54.67306,"population":36911},{"id":3460740,"name":"Itapema","timezone":{"dstOffset":-3,"gmtOffset":-2,"timeZoneId":"America/Sao_Paulo"},"lat":-27.09028,"lng":-48.61139,"population":36761},{"id":3450873,"name":"Rosário do Sul","timezone":{"dstOffset":-3,"gmtOffset":-2,"timeZoneId":"America/Sao_Paulo"},"lat":-30.25833,"lng":-54.91417,"population":36721},{"id":3465164,"name":"Cristalina","timezone":{"dstOffset":-3,"gmtOffset":-2,"timeZoneId":"America/Sao_Paulo"},"lat":-16.76861,"lng":-47.61361,"population":36531},{"id":3456368,"name":"Naviraí","timezone":{"dstOffset":-4,"gmtOffset":-3,"timeZoneId":"America/Campo_Grande"},"lat":-23.065,"lng":-54.19056,"population":36452},{"id":3449112,"name":"São Francisco do Sul","timezone":{"dstOffset":-3,"gmtOffset":-2,"timeZoneId":"America/Sao_Paulo"},"lat":-26.24333,"lng":-48.63806,"population":36224},{"id":3445500,"name":"Vargem Grande do Sul","timezone":{"dstOffset":-3,"gmtOffset":-2,"timeZoneId":"America/Sao_Paulo"},"lat":-21.83222,"lng":-46.89361,"population":36213},{"id":3401992,"name":"Coelho Neto","timezone":{"dstOffset":-3,"gmtOffset":-3,"timeZoneId":"America/Fortaleza"},"lat":-4.25667,"lng":-43.01278,"population":36184},{"id":3408337,"name":"Açu","timezone":{"dstOffset":-3,"gmtOffset":-3,"timeZoneId":"America/Fortaleza"},"lat":-5.57667,"lng":-36.90861,"population":36125},{"id":3455170,"name":"Paracambi","timezone":{"dstOffset":-3,"gmtOffset":-2,"timeZoneId":"America/Sao_Paulo"},"lat":-22.60829,"lng":-43.7084,"population":36098},{"id":3451261,"name":"Rio Bonito","timezone":{"dstOffset":-3,"gmtOffset":-2,"timeZoneId":"America/Sao_Paulo"},"lat":-22.70861,"lng":-42.60972,"population":35997},{"id":3467362,"name":"Capão da Canoa","timezone":{"dstOffset":-3,"gmtOffset":-2,"timeZoneId":"America/Sao_Paulo"},"lat":-29.74556,"lng":-50.00972,"population":35896},{"id":3470052,"name":"Bertioga","timezone":{"dstOffset":-3,"gmtOffset":-2,"timeZoneId":"America/Sao_Paulo"},"lat":-23.85444,"lng":-46.13861,"population":35759},{"id":3393471,"name":"Oriximiná","timezone":{"dstOffset":-3,"gmtOffset":-3,"timeZoneId":"America/Santarem"},"lat":-1.76556,"lng":-55.86611,"population":35581},{"id":3406160,"name":"Barreiros","timezone":{"dstOffset":-3,"gmtOffset":-3,"timeZoneId":"America/Recife"},"lat":-8.81833,"lng":-35.18639,"population":35565},{"id":3401283,"name":"Currais Novos","timezone":{"dstOffset":-3,"gmtOffset":-3,"timeZoneId":"America/Fortaleza"},"lat":-6.26083,"lng":-36.51778,"population":35560},{"id":3467197,"name":"Capivari","timezone":{"dstOffset":-3,"gmtOffset":-2,"timeZoneId":"America/Sao_Paulo"},"lat":-22.995,"lng":-47.50778,"population":35518},{"id":3455141,"name":"Paraíba do Sul","timezone":{"dstOffset":-3,"gmtOffset":-2,"timeZoneId":"America/Sao_Paulo"},"lat":-22.15847,"lng":-43.29321,"population":35517},{"id":3444823,"name":"Xique Xique","timezone":{"dstOffset":-3,"gmtOffset":-3,"timeZoneId":"America/Bahia"},"lat":-10.82294,"lng":-42.72815,"population":35433},{"id":3466429,"name":"Cerquilho","timezone":{"dstOffset":-3,"gmtOffset":-2,"timeZoneId":"America/Sao_Paulo"},"lat":-23.165,"lng":-47.74361,"population":35367},{"id":3471896,"name":"Aquidauana","timezone":{"dstOffset":-4,"gmtOffset":-3,"timeZoneId":"America/Campo_Grande"},"lat":-20.47111,"lng":-55.78722,"population":35303},{"id":3449529,"name":"Santo Antônio da Platina","timezone":{"dstOffset":-3,"gmtOffset":-2,"timeZoneId":"America/Sao_Paulo"},"lat":-23.295,"lng":-50.07722,"population":35260},{"id":3401109,"name":"Delmiro Gouveia","timezone":{"dstOffset":-3,"gmtOffset":-3,"timeZoneId":"America/Maceio"},"lat":-9.38861,"lng":-37.99917,"population":35259},{"id":3453337,"name":"Poções","timezone":{"dstOffset":-3,"gmtOffset":-3,"timeZoneId":"America/Bahia"},"lat":-14.52972,"lng":-40.36528,"population":35254},{"id":3465748,"name":"Conceição do Coité","timezone":{"dstOffset":-3,"gmtOffset":-3,"timeZoneId":"America/Bahia"},"lat":-11.56389,"lng":-39.28278,"population":35171},{"id":3460362,"name":"Jacarezinho","timezone":{"dstOffset":-3,"gmtOffset":-2,"timeZoneId":"America/Sao_Paulo"},"lat":-23.16056,"lng":-49.96944,"population":35090},{"id":3397936,"name":"Itapecuru Mirim","timezone":{"dstOffset":-3,"gmtOffset":-3,"timeZoneId":"America/Fortaleza"},"lat":-3.3925,"lng":-44.35861,"population":34943},{"id":3460148,"name":"Januária","timezone":{"dstOffset":-3,"gmtOffset":-2,"timeZoneId":"America/Sao_Paulo"},"lat":-15.48866,"lng":-44.35988,"population":34811},{"id":3446232,"name":"Tramandaí","timezone":{"dstOffset":-3,"gmtOffset":-2,"timeZoneId":"America/Sao_Paulo"},"lat":-29.98472,"lng":-50.13361,"population":34734},{"id":3460071,"name":"Jardinópolis","timezone":{"dstOffset":-3,"gmtOffset":-2,"timeZoneId":"America/Sao_Paulo"},"lat":-21.01778,"lng":-47.76389,"population":34718},{"id":3455908,"name":"Oliveira","timezone":{"dstOffset":-3,"gmtOffset":-2,"timeZoneId":"America/Sao_Paulo"},"lat":-20.69639,"lng":-44.82722,"population":34710},{"id":3460629,"name":"Itaqui","timezone":{"dstOffset":-3,"gmtOffset":-2,"timeZoneId":"America/Sao_Paulo"},"lat":-29.12528,"lng":-56.55306,"population":34631},{"id":3455769,"name":"Osório","timezone":{"dstOffset":-3,"gmtOffset":-2,"timeZoneId":"America/Sao_Paulo"},"lat":-29.88667,"lng":-50.26972,"population":34628},{"id":3387115,"name":"Surubim","timezone":{"dstOffset":-3,"gmtOffset":-3,"timeZoneId":"America/Recife"},"lat":-7.83306,"lng":-35.75472,"population":34580},{"id":3460671,"name":"Itápolis","timezone":{"dstOffset":-3,"gmtOffset":-2,"timeZoneId":"America/Sao_Paulo"},"lat":-21.59556,"lng":-48.81278,"population":34552},{"id":3455553,"name":"Paiçandu","timezone":{"dstOffset":-3,"gmtOffset":-2,"timeZoneId":"America/Sao_Paulo"},"lat":-23.4575,"lng":-52.04861,"population":34365},{"id":3472338,"name":"Américo Brasiliense","timezone":{"dstOffset":-3,"gmtOffset":-2,"timeZoneId":"America/Sao_Paulo"},"lat":-21.72444,"lng":-48.10167,"population":34331},{"id":3390901,"name":"Quixeramobim","timezone":{"dstOffset":-3,"gmtOffset":-3,"timeZoneId":"America/Fortaleza"},"lat":-5.19917,"lng":-39.29278,"population":34321},{"id":3450206,"name":"Santa Helena de Goiás","timezone":{"dstOffset":-3,"gmtOffset":-2,"timeZoneId":"America/Sao_Paulo"},"lat":-17.81361,"lng":-50.59694,"population":34254},{"id":3471949,"name":"Aparecida","timezone":{"dstOffset":-3,"gmtOffset":-2,"timeZoneId":"America/Sao_Paulo"},"lat":-22.84694,"lng":-45.22972,"population":34237},{"id":3449053,"name":"São Gotardo","timezone":{"dstOffset":-3,"gmtOffset":-2,"timeZoneId":"America/Sao_Paulo"},"lat":-19.31111,"lng":-46.04889,"population":34145},{"id":3456735,"name":"Morrinhos","timezone":{"dstOffset":-3,"gmtOffset":-2,"timeZoneId":"America/Sao_Paulo"},"lat":-17.73111,"lng":-49.09944,"population":34143},{"id":3401703,"name":"Coroatá","timezone":{"dstOffset":-3,"gmtOffset":-3,"timeZoneId":"America/Fortaleza"},"lat":-4.13,"lng":-44.12417,"population":34129},{"id":3925075,"name":"Guajará Mirim","timezone":{"dstOffset":-4,"gmtOffset":-4,"timeZoneId":"America/Porto_Velho"},"lat":-10.78278,"lng":-65.33944,"population":34119},{"id":3461995,"name":"Guaíra","timezone":{"dstOffset":-3,"gmtOffset":-2,"timeZoneId":"America/Sao_Paulo"},"lat":-20.31833,"lng":-48.31056,"population":34092},{"id":3457359,"name":"Medianeira","timezone":{"dstOffset":-3,"gmtOffset":-2,"timeZoneId":"America/Sao_Paulo"},"lat":-25.29528,"lng":-54.09389,"population":34069},{"id":3386279,"name":"Tomé Açu","timezone":{"dstOffset":-3,"gmtOffset":-3,"timeZoneId":"America/Belem"},"lat":-2.41889,"lng":-48.15222,"population":34053},{"id":3452320,"name":"Presidente Venceslau","timezone":{"dstOffset":-3,"gmtOffset":-2,"timeZoneId":"America/Sao_Paulo"},"lat":-21.87611,"lng":-51.84389,"population":34026},{"id":3406442,"name":"Barbalha","timezone":{"dstOffset":-3,"gmtOffset":-3,"timeZoneId":"America/Fortaleza"},"lat":-7.31111,"lng":-39.30417,"population":33943},{"id":3472609,"name":"Além Paraíba","timezone":{"dstOffset":-3,"gmtOffset":-2,"timeZoneId":"America/Sao_Paulo"},"lat":-21.88778,"lng":-42.70444,"population":33907},{"id":3469932,"name":"Boa Esperança","timezone":{"dstOffset":-3,"gmtOffset":-2,"timeZoneId":"America/Sao_Paulo"},"lat":-21.09,"lng":-45.56583,"population":33840},{"id":3446465,"name":"Timbó","timezone":{"dstOffset":-3,"gmtOffset":-2,"timeZoneId":"America/Sao_Paulo"},"lat":-26.82333,"lng":-49.27167,"population":33765},{"id":3450188,"name":"Santa Isabel","timezone":{"dstOffset":-3,"gmtOffset":-2,"timeZoneId":"America/Sao_Paulo"},"lat":-23.31556,"lng":-46.22139,"population":33709},{"id":3462535,"name":"Gaspar","timezone":{"dstOffset":-3,"gmtOffset":-2,"timeZoneId":"America/Sao_Paulo"},"lat":-26.93139,"lng":-48.95889,"population":33658},{"id":3448545,"name":"São Manuel","timezone":{"dstOffset":-3,"gmtOffset":-2,"timeZoneId":"America/Sao_Paulo"},"lat":-22.73111,"lng":-48.57056,"population":33587},{"id":3467530,"name":"Canela","timezone":{"dstOffset":-3,"gmtOffset":-2,"timeZoneId":"America/Sao_Paulo"},"lat":-29.35622,"lng":-50.81357,"population":33528},{"id":3471683,"name":"Arcos","timezone":{"dstOffset":-3,"gmtOffset":-2,"timeZoneId":"America/Sao_Paulo"},"lat":-20.28194,"lng":-45.53944,"population":33355},{"id":3468327,"name":"Caeté","timezone":{"dstOffset":-3,"gmtOffset":-2,"timeZoneId":"America/Sao_Paulo"},"lat":-19.88,"lng":-43.66972,"population":33231},{"id":3449519,"name":"Santo Antônio de Pádua","timezone":{"dstOffset":-3,"gmtOffset":-2,"timeZoneId":"America/Sao_Paulo"},"lat":-21.53944,"lng":-42.18028,"population":33076},{"id":3449176,"name":"São Francisco","timezone":{"dstOffset":-3,"gmtOffset":-2,"timeZoneId":"America/Sao_Paulo"},"lat":-15.94861,"lng":-44.86444,"population":33033},{"id":3458211,"name":"Machado","timezone":{"dstOffset":-3,"gmtOffset":-2,"timeZoneId":"America/Sao_Paulo"},"lat":-21.67472,"lng":-45.91972,"population":33002},{"id":3444848,"name":"Xanxerê","timezone":{"dstOffset":-3,"gmtOffset":-2,"timeZoneId":"America/Sao_Paulo"},"lat":-26.87694,"lng":-52.40417,"population":32957},{"id":3461425,"name":"Ilhabela","timezone":{"dstOffset":-3,"gmtOffset":-2,"timeZoneId":"America/Sao_Paulo"},"lat":-23.77806,"lng":-45.35806,"population":32892},{"id":3446295,"name":"Torres","timezone":{"dstOffset":-3,"gmtOffset":-2,"timeZoneId":"America/Sao_Paulo"},"lat":-29.33528,"lng":-49.72694,"population":32791},{"id":3453014,"name":"Porangatu","timezone":{"dstOffset":-3,"gmtOffset":-2,"timeZoneId":"America/Sao_Paulo"},"lat":-13.44083,"lng":-49.14861,"population":32758},{"id":3403127,"name":"Capitão Poço","timezone":{"dstOffset":-3,"gmtOffset":-3,"timeZoneId":"America/Belem"},"lat":-1.74639,"lng":-47.05944,"population":32704},{"id":3465209,"name":"Cravinhos","timezone":{"dstOffset":-3,"gmtOffset":-2,"timeZoneId":"America/Sao_Paulo"},"lat":-21.34028,"lng":-47.72944,"population":32689},{"id":3402360,"name":"Ceará Mirim","timezone":{"dstOffset":-3,"gmtOffset":-3,"timeZoneId":"America/Fortaleza"},"lat":-5.63444,"lng":-35.42556,"population":32667},{"id":3453171,"name":"Pontal","timezone":{"dstOffset":-3,"gmtOffset":-2,"timeZoneId":"America/Sao_Paulo"},