[{"id":933773,"name":"Gaborone","timezone":{"dstOffset":2,"gmtOffset":2,"timeZoneId":"Africa/Gaborone"},"lat":-24.65451,"lng":25.90859,"population":208411},{"id":933778,"name":"Francistown","timezone":{"dstOffset":2,"gmtOffset":2,"timeZoneId":"Africa/Gaborone"},"lat":-21.16995,"lng":27.50788,"population":89979},{"id":933305,"name":"Molepolole","timezone":{"dstOffset":2,"gmtOffset":2,"timeZoneId":"Africa/Gaborone"},"lat":-24.40659,"lng":25.49508,"population":63248},{"id":933099,"name":"Selebi-Phikwe","timezone":{"dstOffset":2,"gmtOffset":2,"timeZoneId":"Africa/Gaborone"},"lat":-21.97895,"lng":27.84296,"population":53727},{"id":933366,"name":"Maun","timezone":{"dstOffset":2,"gmtOffset":2,"timeZoneId":"Africa/Gaborone"},"lat":-19.98333,"lng":23.41667,"population":49945},{"id":933088,"name":"Serowe","timezone":{"dstOffset":2,"gmtOffset":2,"timeZoneId":"Africa/Gaborone"},"lat":-22.38754,"lng":26.71077,"population":47419},{"id":933685,"name":"Kanye","timezone":{"dstOffset":2,"gmtOffset":2,"timeZoneId":"Africa/Gaborone"},"lat":-24.96675,"lng":25.33274,"population":44716},{"id":933471,"name":"Mahalapye","timezone":{"dstOffset":2,"gmtOffset":2,"timeZoneId":"Africa/Gaborone"},"lat":-23.10407,"lng":26.81421,"population":44471},{"id":933331,"name":"Mogoditshane","timezone":{"dstOffset":2,"gmtOffset":2,"timeZoneId":"Africa/Gaborone"},"lat":-24.62694,"lng":25.86556,"population":43394},{"id":933340,"name":"Mochudi","timezone":{"dstOffset":2,"gmtOffset":2,"timeZoneId":"Africa/Gaborone"},"lat":-24.41667,"lng":26.15,"population":36962},{"id":933521,"name":"Lobatse","timezone":{"dstOffset":2,"gmtOffset":2,"timeZoneId":"Africa/Gaborone"},"lat":-25.22435,"lng":25.67728,"population":30883},{"id":933182,"name":"Palapye","timezone":{"dstOffset":2,"gmtOffset":2,"timeZoneId":"Africa/Gaborone"},"lat":-22.54605,"lng":27.12507,"population":30650},{"id":933141,"name":"Ramotswa","timezone":{"dstOffset":2,"gmtOffset":2,"timeZoneId":"Africa/Gaborone"},"lat":-24.87158,"lng":25.86989,"population":21450},{"id":933018,"name":"Thamaga","timezone":{"dstOffset":2,"gmtOffset":2,"timeZoneId":"Africa/Gaborone"},"lat":-24.67014,"lng":25.53975,"population":20756},{"id":933271,"name":"Mosopa","timezone":{"dstOffset":2,"gmtOffset":2,"timeZoneId":"Africa/Gaborone"},"lat":-24.7718,"lng":25.42156,"population":19561},{"id":933535,"name":"Letlhakane","timezone":{"dstOffset":2,"gmtOffset":2,"timeZoneId":"Africa/Gaborone"},"lat":-21.41494,"lng":25.59263,"population":18136},{"id":933000,"name":"Tonota","timezone":{"dstOffset":2,"gmtOffset":2,"timeZoneId":"Africa/Gaborone"},"lat":-21.44236,"lng":27.46153,"population":17759},{"id":933719,"name":"Janeng","timezone":{"dstOffset":2,"gmtOffset":2,"timeZoneId":"Africa/Gaborone"},"lat":-25.41667,"lng":25.55,"population":16853},{"id":933777,"name":"Gabane","timezone":{"dstOffset":2,"gmtOffset":2,"timeZoneId":"Africa/Gaborone"},"lat":-24.66667,"lng":25.78222,"population":12884},{"id":933759,"name":"Ghanzi","timezone":{"dstOffset":2,"gmtOffset":2,"timeZoneId":"Africa/Gaborone"},"lat":-21.56667,"lng":21.78333,"population":9934},{"id":933677,"name":"Kasane","timezone":{"dstOffset":2,"gmtOffset":2,"timeZoneId":"Africa/Gaborone"},"lat":-17.81667,"lng":25.15,"population":9250},{"id":933186,"name":"Orapa","timezone":{"dstOffset":2,"gmtOffset":2,"timeZoneId":"Africa/Gaborone"},"lat":-21.3115,"lng":25.37642,"population":9189},{"id":933596,"name":"Kopong","timezone":{"dstOffset":2,"gmtOffset":2,"timeZoneId":"Africa/Gaborone"},"lat":-24.48333,"lng":25.88333,"population":6895},{"id":933534,"name":"Letlhakeng","timezone":{"dstOffset":2,"gmtOffset":2,"timeZoneId":"Africa/Gaborone"},"lat":-24.09442,"lng":25.02977,"population":6781},{"id":932987,"name":"Tshabong","timezone":{"dstOffset":2,"gmtOffset":2,"timeZoneId":"Africa/Gaborone"},"lat":-26.05,"lng":22.45,"population":6591},{"id":933184,"name":"Otse","timezone":{"dstOffset":2,"gmtOffset":2,"timeZoneId":"Africa/Gaborone"},"lat":-25.01667,"lng":25.73333,"population":6275},{"id":933077,"name":"Shakawe","timezone":{"dstOffset":2,"gmtOffset":2,"timeZoneId":"Africa/Gaborone"},"lat":-18.36536,"lng":21.84219,"population":5651},{"id":1106206,"name":"Metsemotlhaba","timezone":{"dstOffset":2,"gmtOffset":2,"timeZoneId":"Africa/Gaborone"},"lat":-24.55139,"lng":25.80306,"population":5544},{"id":933151,"name":"Rakops","timezone":{"dstOffset":2,"gmtOffset":2,"timeZoneId":"Africa/Gaborone"},"lat":-21.02258,"lng":24.36052,"population":5222},{"id":933541,"name":"Lenchwe Le Tau","timezone":{"dstOffset":2,"gmtOffset":2,"timeZoneId":"Africa/Gaborone"},"lat":-24.38333,"lng":25.85,"population":4992},{"id":1106213,"name":"Mmopone","timezone":{"dstOffset":2,"gmtOffset":2,"timeZoneId":"Africa/Gaborone"},"lat":-24.56694,"lng":25.87417,"population":4927},{"id":933238,"name":"Nata","timezone":{"dstOffset":2,"gmtOffset":2,"timeZoneId":"Africa/Gaborone"},"lat":-20.21667,"lng":26.18333,"population":4794},{"id":933734,"name":"Gweta","timezone":{"dstOffset":2,"gmtOffset":2,"timeZoneId":"Africa/Gaborone"},"lat":-20.18333,"lng":25.23333,"population":4689},{"id":933387,"name":"Mathambgwane","timezone":{"dstOffset":2,"gmtOffset":2,"timeZoneId":"Africa/Gaborone"},"lat":-20.99075,"lng":27.33158,"population":4675},{"id":933726,"name":"Hukuntsi","timezone":{"dstOffset":2,"gmtOffset":2,"timeZoneId":"Africa/Gaborone"},"lat":-23.9988,"lng":21.77962,"population":4403},{"id":933692,"name":"Kang","timezone":{"dstOffset":2,"gmtOffset":2,"timeZoneId":"Africa/Gaborone"},"lat":-23.67518,"lng":22.78762,"population":4229},{"id":933881,"name":"Bokaa","timezone":{"dstOffset":2,"gmtOffset":2,"timeZoneId":"Africa/Gaborone"},"lat":-24.45,"lng":26.01667,"population":4131},{"id":933112,"name":"Sefophe","timezone":{"dstOffset":2,"gmtOffset":2,"timeZoneId":"Africa/Gaborone"},"lat":-22.18333,"lng":27.96667,"population":4114},{"id":933148,"name":"Ramokgonami","timezone":{"dstOffset":2,"gmtOffset":2,"timeZoneId":"Africa/Gaborone"},"lat":-22.8645,"lng":27.42391,"population":3681},{"id":933390,"name":"Masunga","timezone":{"dstOffset":2,"gmtOffset":2,"timeZoneId":"Africa/Gaborone"},"lat":-20.62455,"lng":27.44875,"population":3639},{"id":933292,"name":"Maunatlala","timezone":{"dstOffset":2,"gmtOffset":2,"timeZoneId":"Africa/Gaborone"},"lat":-22.59701,"lng":27.63006,"population":3361},{"id":933416,"name":"Manyana","timezone":{"dstOffset":2,"gmtOffset":2,"timeZoneId":"Africa/Gaborone"},"lat":-23.4,"lng":21.71667,"population":3338},{"id":933288,"name":"Mopipi","timezone":{"dstOffset":2,"gmtOffset":2,"timeZoneId":"Africa/Gaborone"},"lat":-21.18333,"lng":24.88333,"population":3301},{"id":933040,"name":"Sua","timezone":{"dstOffset":2,"gmtOffset":2,"timeZoneId":"Africa/Gaborone"},"lat":-20.05,"lng":26.2,"population":3141},{"id":933117,"name":"Sebina","timezone":{"dstOffset":2,"gmtOffset":2,"timeZoneId":"Africa/Gaborone"},"lat":-20.86667,"lng":27.25,"population":3030},{"id":933329,"name":"Moijabana","timezone":{"dstOffset":2,"gmtOffset":2,"timeZoneId":"Africa/Gaborone"},"lat":-22.43333,"lng":26.41667,"population":2768},{"id":933555,"name":"Letsheng","timezone":{"dstOffset":2,"gmtOffset":2,"timeZoneId":"Africa/Gaborone"},"lat":-22.66384,"lng":27.2239,"population":2696},{"id":933290,"name":"Mookane","timezone":{"dstOffset":2,"gmtOffset":2,"timeZoneId":"Africa/Gaborone"},"lat":-23.68805,"lng":26.65948,"population":2397},{"id":933137,"name":"Ratholo","timezone":{"dstOffset":2,"gmtOffset":2,"timeZoneId":"Africa/Gaborone"},"lat":-22.72454,"lng":27.57199,"population":2377},{"id":933696,"name":"Kalamare","timezone":{"dstOffset":2,"gmtOffset":2,"timeZoneId":"Africa/Gaborone"},"lat":-22.93369,"lng":26.57032,"population":2339},{"id":933347,"name":"Mmathubudukwane","timezone":{"dstOffset":2,"gmtOffset":2,"timeZoneId":"Africa/Gaborone"},"lat":-24.6,"lng":26.43333,"population":2221},{"id":932960,"name":"Werda","timezone":{"dstOffset":2,"gmtOffset":2,"timeZoneId":"Africa/Gaborone"},"lat":-25.26667,"lng":23.28333,"population":2149},{"id":933488,"name":"Machaneng","timezone":{"dstOffset":2,"gmtOffset":2,"timeZoneId":"Africa/Gaborone"},"lat":-23.18621,"lng":27.48856,"population":2139},{"id":933649,"name":"Khakhea","timezone":{"dstOffset":2,"gmtOffset":2,"timeZoneId":"Africa/Gaborone"},"lat":-24.68954,"lng":23.49403,"population":2133},{"id":933790,"name":"Dukwe","timezone":{"dstOffset":2,"gmtOffset":2,"timeZoneId":"Africa/Gaborone"},"lat":-20.58333,"lng":26.41667,"population":2037},{"id":933633,"name":"Khudumelapye","timezone":{"dstOffset":2,"gmtOffset":2,"timeZoneId":"Africa/Gaborone"},"lat":-23.88333,"lng":24.75,"population":2035},{"id":933383,"name":"Mathathane","timezone":{"dstOffset":2,"gmtOffset":2,"timeZoneId":"Africa/Gaborone"},"lat":-22.26875,"lng":28.74946,"population":1987},{"id":933548,"name":"Lehututu","timezone":{"dstOffset":2,"gmtOffset":2,"timeZoneId":"Africa/Gaborone"},"lat":-23.96667,"lng":21.86667,"population":1942},{"id":933002,"name":"Tobane","timezone":{"dstOffset":2,"gmtOffset":2,"timeZoneId":"Africa/Gaborone"},"lat":-21.95,"lng":27.9,"population":1925},{"id":933333,"name":"Mogapi","timezone":{"dstOffset":2,"gmtOffset":2,"timeZoneId":"Africa/Gaborone"},"lat":-22.32301,"lng":27.83492,"population":1917},{"id":933313,"name":"Makobeng","timezone":{"dstOffset":2,"gmtOffset":2,"timeZoneId":"Africa/Gaborone"},"lat":-22.99637,"lng":27.66766,"population":1822},{"id":933277,"name":"Mosetse","timezone":{"dstOffset":2,"gmtOffset":2,"timeZoneId":"Africa/Gaborone"},"lat":-20.75,"lng":26.65,"population":1780},{"id":933211,"name":"Nokaneng","timezone":{"dstOffset":2,"gmtOffset":2,"timeZoneId":"Africa/Gaborone"},"lat":-19.66667,"lng":22.26667,"population":1763},{"id":933753,"name":"Gobojango","timezone":{"dstOffset":2,"gmtOffset":2,"timeZoneId":"Africa/Gaborone"},"lat":-21.8327,"lng":28.72882,"population":1756},{"id":933178,"name":"Pandamatenga","timezone":{"dstOffset":2,"gmtOffset":2,"timeZoneId":"Africa/Gaborone"},"lat":-18.52779,"lng":25.62698,"population":1685},{"id":1106203,"name":"Gaphatshwe","timezone":{"dstOffset":2,"gmtOffset":2,"timeZoneId":"Africa/Gaborone"},"lat":-24.57389,"lng":25.83417,"population":1678},{"id":933491,"name":"Mabuli","timezone":{"dstOffset":2,"gmtOffset":2,"timeZoneId":"Africa/Gaborone"},"lat":-25.78333,"lng":24.6,"population":1665},{"id":933437,"name":"Makwata","timezone":{"dstOffset":2,"gmtOffset":2,"timeZoneId":"Africa/Gaborone"},"lat":-23.28333,"lng":27.3,"population":1660},{"id":933109,"name":"Sehithwa","timezone":{"dstOffset":2,"gmtOffset":2,"timeZoneId":"Africa/Gaborone"},"lat":-20.46667,"lng":22.71667,"population":1614},{"id":1106215,"name":"Nkoyaphiri","timezone":{"dstOffset":2,"gmtOffset":2,"timeZoneId":"Africa/Gaborone"},"lat":-24.63222,"lng":25.83139,"population":1578},{"id":933332,"name":"Mogapinyana","timezone":{"dstOffset":2,"gmtOffset":2,"timeZoneId":"Africa/Gaborone"},"lat":-22.36667,"lng":27.6,"population":1515},{"id":933510,"name":"Lokwabe","timezone":{"dstOffset":2,"gmtOffset":2,"timeZoneId":"Africa/Gaborone"},"lat":-24.16667,"lng":21.83333,"population":1473},{"id":932993,"name":"Tsau","timezone":{"dstOffset":2,"gmtOffset":2,"timeZoneId":"Africa/Gaborone"},"lat":-20.15,"lng":22.45,"population":1409},{"id":933573,"name":"Kurametsi","timezone":{"dstOffset":2,"gmtOffset":2,"timeZoneId":"Africa/Gaborone"},"lat":-23.4,"lng":27.06667,"population":1397},{"id":933162,"name":"Pilikwe","timezone":{"dstOffset":2,"gmtOffset":2,"timeZoneId":"Africa/Gaborone"},"lat":-22.79904,"lng":27.19376,"population":1375},{"id":933164,"name":"Pilane","timezone":{"dstOffset":2,"gmtOffset":2,"timeZoneId":"Africa/Gaborone"},"lat":-24.45,"lng":26.13333,"population":1277},{"id":933498,"name":"Maapi","timezone":{"dstOffset":2,"gmtOffset":2,"timeZoneId":"Africa/Gaborone"},"lat":-22.75785,"lng":27.35001,"population":1275},{"id":933474,"name":"Magothla","timezone":{"dstOffset":2,"gmtOffset":2,"timeZoneId":"Africa/Gaborone"},"lat":-23.56667,"lng":27,"population":1174},{"id":933456,"name":"Makaleng","timezone":{"dstOffset":2,"gmtOffset":2,"timeZoneId":"Africa/Gaborone"},"lat":-20.9,"lng":27.28333,"population":1166},{"id":933377,"name":"Mathakola","timezone":{"dstOffset":2,"gmtOffset":2,"timeZoneId":"Africa/Gaborone"},"lat":-22.72125,"lng":27.31057,"population":1159},{"id":933787,"name":"Dutlwe","timezone":{"dstOffset":2,"gmtOffset":2,"timeZoneId":"Africa/Gaborone"},"lat":-23.98333,"lng":23.9,"population":1126},{"id":933102,"name":"Sekoma","timezone":{"dstOffset":2,"gmtOffset":2,"timeZoneId":"Africa/Gaborone"},"lat":-24.4,"lng":23.88333,"population":1083},{"id":933030,"name":"Tamasane","timezone":{"dstOffset":2,"gmtOffset":2,"timeZoneId":"Africa/Gaborone"},"lat":-22.4184,"lng":27.40127,"population":1070},{"id":933815,"name":"Dekar","timezone":{"dstOffset":2,"gmtOffset":2,"timeZoneId":"Africa/Gaborone"},"lat":-21.53333,"lng":21.93333,"population":1043},{"id":933862,"name":"Botlhapatlou","timezone":{"dstOffset":2,"gmtOffset":2,"timeZoneId":"Africa/Gaborone"},"lat":-24.02591,"lng":25.48976,"population":1013},{"id":933446,"name":"Makoba","timezone":{"dstOffset":2,"gmtOffset":2,"timeZoneId":"Africa/Gaborone"},"lat":-23.48333,"lng":27.11667,"population":1006}]