[{"id":6077243,"name":"Montreal","timezone":{"dstOffset":-4,"gmtOffset":-5,"timeZoneId":"America/Toronto"},"lat":45.50884,"lng":-73.58781,"population":3268513},{"id":6167865,"name":"Toronto","timezone":{"dstOffset":-4,"gmtOffset":-5,"timeZoneId":"America/Toronto"},"lat":43.70011,"lng":-79.4163,"population":2600000},{"id":6173331,"name":"Vancouver","timezone":{"dstOffset":-7,"gmtOffset":-8,"timeZoneId":"America/Vancouver"},"lat":49.24966,"lng":-123.11934,"population":1837969},{"id":5913490,"name":"Calgary","timezone":{"dstOffset":-6,"gmtOffset":-7,"timeZoneId":"America/Edmonton"},"lat":51.05011,"lng":-114.08529,"population":1019942},{"id":6094817,"name":"Ottawa","timezone":{"dstOffset":-4,"gmtOffset":-5,"timeZoneId":"America/Toronto"},"lat":45.41117,"lng":-75.69812,"population":812129},{"id":5946768,"name":"Edmonton","timezone":{"dstOffset":-6,"gmtOffset":-7,"timeZoneId":"America/Edmonton"},"lat":53.55014,"lng":-113.46871,"population":712391},{"id":6075357,"name":"Mississauga","timezone":{"dstOffset":-4,"gmtOffset":-5,"timeZoneId":"America/Toronto"},"lat":43.5789,"lng":-79.6583,"population":668549},{"id":6091104,"name":"North York","timezone":{"dstOffset":-4,"gmtOffset":-5,"timeZoneId":"America/Toronto"},"lat":43.76681,"lng":-79.4163,"population":636000},{"id":6183235,"name":"Winnipeg","timezone":{"dstOffset":-5,"gmtOffset":-6,"timeZoneId":"America/Winnipeg"},"lat":49.8844,"lng":-97.14704,"population":632063},{"id":5882599,"name":"Scarborough","timezone":{"dstOffset":-4,"gmtOffset":-5,"timeZoneId":"America/Toronto"},"lat":43.77223,"lng":-79.25666,"population":600000},{"id":6325494,"name":"Québec","timezone":{"dstOffset":-4,"gmtOffset":-5,"timeZoneId":"America/Toronto"},"lat":46.81228,"lng":-71.21454,"population":528595},{"id":5969782,"name":"Hamilton","timezone":{"dstOffset":-4,"gmtOffset":-5,"timeZoneId":"America/Toronto"},"lat":43.25011,"lng":-79.84963,"population":519949},{"id":5907364,"name":"Brampton","timezone":{"dstOffset":-4,"gmtOffset":-5,"timeZoneId":"America/Toronto"},"lat":43.68341,"lng":-79.76633,"population":433806},{"id":6159905,"name":"Surrey","timezone":{"dstOffset":-7,"gmtOffset":-8,"timeZoneId":"America/Vancouver"},"lat":49.10635,"lng":-122.82509,"population":394976},{"id":6050610,"name":"Laval","timezone":{"dstOffset":-4,"gmtOffset":-5,"timeZoneId":"America/Toronto"},"lat":45.56995,"lng":-73.692,"population":376845},{"id":6324729,"name":"Halifax","timezone":{"dstOffset":-3,"gmtOffset":-4,"timeZoneId":"America/Halifax"},"lat":44.64533,"lng":-63.57239,"population":359111},{"id":5950267,"name":"Etobicoke","timezone":{"dstOffset":-4,"gmtOffset":-5,"timeZoneId":"America/Toronto"},"lat":43.65421,"lng":-79.56711,"population":347948},{"id":6058560,"name":"London","timezone":{"dstOffset":-4,"gmtOffset":-5,"timeZoneId":"America/Toronto"},"lat":42.98339,"lng":-81.23304,"population":346765},{"id":7281931,"name":"Okanagan","timezone":{"dstOffset":-7,"gmtOffset":-8,"timeZoneId":"America/Vancouver"},"lat":50.36386,"lng":-119.34997,"population":297601},{"id":6174041,"name":"Victoria","timezone":{"dstOffset":-7,"gmtOffset":-8,"timeZoneId":"America/Vancouver"},"lat":48.43294,"lng":-123.3693,"population":289625},{"id":6182962,"name":"Windsor","timezone":{"dstOffset":-4,"gmtOffset":-5,"timeZoneId":"America/Toronto"},"lat":42.30008,"lng":-83.01654,"population":278013},{"id":6066513,"name":"Markham","timezone":{"dstOffset":-4,"gmtOffset":-5,"timeZoneId":"America/Toronto"},"lat":43.86682,"lng":-79.2663,"population":261573},{"id":6094578,"name":"Oshawa","timezone":{"dstOffset":-4,"gmtOffset":-5,"timeZoneId":"America/Toronto"},"lat":43.90012,"lng":-78.84957,"population":247989},{"id":5959974,"name":"Gatineau","timezone":{"dstOffset":-4,"gmtOffset":-5,"timeZoneId":"America/Toronto"},"lat":45.47723,"lng":-75.70164,"population":242124},{"id":6173577,"name":"Vaughan","timezone":{"dstOffset":-4,"gmtOffset":-5,"timeZoneId":"America/Toronto"},"lat":43.8361,"lng":-79.49827,"population":238866},{"id":5992996,"name":"Kitchener","timezone":{"dstOffset":-4,"gmtOffset":-5,"timeZoneId":"America/Toronto"},"lat":43.42537,"lng":-80.5112,"population":233700},{"id":6059891,"name":"Longueuil","timezone":{"dstOffset":-4,"gmtOffset":-5,"timeZoneId":"America/Toronto"},"lat":45.53121,"lng":-73.51806,"population":229330},{"id":5911606,"name":"Burnaby","timezone":{"dstOffset":-7,"gmtOffset":-8,"timeZoneId":"America/Vancouver"},"lat":49.26636,"lng":-122.95263,"population":202799},{"id":7602078,"name":"Ladner","timezone":{"dstOffset":-7,"gmtOffset":-8,"timeZoneId":"America/Vancouver"},"lat":49.08938,"lng":-123.08241,"population":200000},{"id":6141256,"name":"Saskatoon","timezone":{"dstOffset":-6,"gmtOffset":-6,"timeZoneId":"America/Regina"},"lat":52.11679,"lng":-106.63452,"population":198958},{"id":6122091,"name":"Richmond Hill","timezone":{"dstOffset":-4,"gmtOffset":-5,"timeZoneId":"America/Toronto"},"lat":43.87111,"lng":-79.43725,"population":185541},{"id":5894171,"name":"Barrie","timezone":{"dstOffset":-4,"gmtOffset":-5,"timeZoneId":"America/Toronto"},"lat":44.40011,"lng":-79.66634,"population":182041},{"id":6122085,"name":"Richmond","timezone":{"dstOffset":-7,"gmtOffset":-8,"timeZoneId":"America/Vancouver"},"lat":49.17003,"lng":-123.13683,"population":182000},{"id":6119109,"name":"Regina","timezone":{"dstOffset":-6,"gmtOffset":-6,"timeZoneId":"America/Regina"},"lat":50.45008,"lng":-104.6178,"population":176183},{"id":6092122,"name":"Oakville","timezone":{"dstOffset":-4,"gmtOffset":-5,"timeZoneId":"America/Toronto"},"lat":43.45011,"lng":-79.68292,"population":165697},{"id":5911592,"name":"Burlington","timezone":{"dstOffset":-4,"gmtOffset":-5,"timeZoneId":"America/Toronto"},"lat":43.38621,"lng":-79.83713,"population":164415},{"id":5964700,"name":"Sudbury","timezone":{"dstOffset":-4,"gmtOffset":-5,"timeZoneId":"America/Toronto"},"lat":46.49,"lng":-80.99001,"population":157857},{"id":5881791,"name":"Abbotsford","timezone":{"dstOffset":-7,"gmtOffset":-8,"timeZoneId":"America/Vancouver"},"lat":49.05798,"lng":-122.25257,"population":151683},{"id":6137270,"name":"Saguenay","timezone":{"dstOffset":-4,"gmtOffset":-5,"timeZoneId":"America/Toronto"},"lat":48.41675,"lng":-71.06573,"population":143692},{"id":6155721,"name":"St. Catharines","timezone":{"dstOffset":-4,"gmtOffset":-5,"timeZoneId":"America/Toronto"},"lat":43.17126,"lng":-79.24267,"population":131989},{"id":6146143,"name":"Sherbrooke","timezone":{"dstOffset":-4,"gmtOffset":-5,"timeZoneId":"America/Toronto"},"lat":45.40008,"lng":-71.89908,"population":129447},{"id":5885383,"name":"Anmore","timezone":{"dstOffset":-7,"gmtOffset":-8,"timeZoneId":"America/Vancouver"},"lat":49.31637,"lng":-122.85263,"population":126456},{"id":6325521,"name":"Lévis","timezone":{"dstOffset":-4,"gmtOffset":-5,"timeZoneId":"America/Toronto"},"lat":46.80326,"lng":-71.17793,"population":126396},{"id":5990579,"name":"Kelowna","timezone":{"dstOffset":-7,"gmtOffset":-8,"timeZoneId":"America/Vancouver"},"lat":49.88307,"lng":-119.48568,"population":125109},{"id":5913695,"name":"Cambridge","timezone":{"dstOffset":-4,"gmtOffset":-5,"timeZoneId":"America/Toronto"},"lat":43.3601,"lng":-80.31269,"population":120372},{"id":6169141,"name":"Trois-Rivières","timezone":{"dstOffset":-4,"gmtOffset":-5,"timeZoneId":"America/Toronto"},"lat":46.34515,"lng":-72.5477,"population":119693},{"id":5967629,"name":"Guelph","timezone":{"dstOffset":-4,"gmtOffset":-5,"timeZoneId":"America/Toronto"},"lat":43.54594,"lng":-80.25599,"population":115760},{"id":5927689,"name":"Coquitlam","timezone":{"dstOffset":-7,"gmtOffset":-8,"timeZoneId":"America/Vancouver"},"lat":49.28297,"lng":-122.75262,"population":114565},{"id":5992500,"name":"Kingston","timezone":{"dstOffset":-4,"gmtOffset":-5,"timeZoneId":"America/Toronto"},"lat":44.22976,"lng":-76.48098,"population":114195},{"id":6354908,"name":"Sydney","timezone":{"dstOffset":-3,"gmtOffset":-4,"timeZoneId":"America/Glace_Bay"},"lat":46.1351,"lng":-60.1831,"population":105968},{"id":5937615,"name":"Delta","timezone":{"dstOffset":-7,"gmtOffset":-8,"timeZoneId":"America/Vancouver"},"lat":49.14399,"lng":-122.9068,"population":101668},{"id":5935277,"name":"Dartmouth","timezone":{"dstOffset":-3,"gmtOffset":-4,"timeZoneId":"America/Halifax"},"lat":44.67134,"lng":-63.57719,"population":101343},{"id":6166142,"name":"Thunder Bay","timezone":{"dstOffset":-4,"gmtOffset":-5,"timeZoneId":"America/Thunder_Bay"},"lat":48.38202,"lng":-89.25018,"population":99334},{"id":6324733,"name":"St. John's","timezone":{"dstOffset":-2.5,"gmtOffset":-3.5,"timeZoneId":"America/St_Johns"},"lat":47.56494,"lng":-52.70931,"population":99182},{"id":6176823,"name":"Waterloo","timezone":{"dstOffset":-4,"gmtOffset":-5,"timeZoneId":"America/Toronto"},"lat":43.4668,"lng":-80.51639,"population":97475},{"id":6163012,"name":"Terrebonne","timezone":{"dstOffset":-4,"gmtOffset":-5,"timeZoneId":"America/Toronto"},"lat":45.70004,"lng":-73.64732,"population":94703},{"id":6049430,"name":"Langley, British Columbia","timezone":{"dstOffset":-7,"gmtOffset":-8,"timeZoneId":"America/Vancouver"},"lat":49.08297,"lng":-122.58589,"population":93726},{"id":5882873,"name":"Ajax","timezone":{"dstOffset":-4,"gmtOffset":-5,"timeZoneId":"America/Toronto"},"lat":43.85012,"lng":-79.03288,"population":90167},{"id":6138517,"name":"Saint John","timezone":{"dstOffset":-3,"gmtOffset":-4,"timeZoneId":"America/Moncton"},"lat":45.27271,"lng":-66.06766,"population":87857},{"id":6104111,"name":"Pickering","timezone":{"dstOffset":-4,"gmtOffset":-5,"timeZoneId":"America/Toronto"},"lat":43.90012,"lng":-79.13289,"population":87838},{"id":5907990,"name":"Brantford","timezone":{"dstOffset":-4,"gmtOffset":-5,"timeZoneId":"America/Toronto"},"lat":43.1334,"lng":-80.26636,"population":87759},{"id":6076211,"name":"Moncton","timezone":{"dstOffset":-3,"gmtOffset":-4,"timeZoneId":"America/Moncton"},"lat":46.11594,"lng":-64.80186,"population":87467},{"id":6085772,"name":"Nanaimo","timezone":{"dstOffset":-7,"gmtOffset":-8,"timeZoneId":"America/Vancouver"},"lat":49.16638,"lng":-123.94003,"population":84905},{"id":6074377,"name":"Milton","timezone":{"dstOffset":-4,"gmtOffset":-5,"timeZoneId":"America/Toronto"},"lat":43.51681,"lng":-79.88294,"population":84362},{"id":6141190,"name":"Sarnia","timezone":{"dstOffset":-4,"gmtOffset":-5,"timeZoneId":"America/Toronto"},"lat":42.97866,"lng":-82.40407,"population":82998},{"id":6087892,"name":"Niagara Falls","timezone":{"dstOffset":-4,"gmtOffset":-5,"timeZoneId":"America/Toronto"},"lat":43.10012,"lng":-79.06627,"population":82000},{"id":8558534,"name":"Willowdale","timezone":{"dstOffset":-4,"gmtOffset":-5,"timeZoneId":"America/Toronto"},"lat":43.76672,"lng":-79.39909,"population":79440},{"id":6138610,"name":"St Laurent","timezone":{"dstOffset":-4,"gmtOffset":-5,"timeZoneId":"America/Toronto"},"lat":45.50008,"lng":-73.66585,"population":77391},{"id":5921356,"name":"Chilliwack","timezone":{"dstOffset":-7,"gmtOffset":-8,"timeZoneId":"America/Vancouver"},"lat":49.16638,"lng":-121.95257,"population":77000},{"id":6119518,"name":"Repentigny","timezone":{"dstOffset":-4,"gmtOffset":-5,"timeZoneId":"America/Toronto"},"lat":45.74222,"lng":-73.45008,"population":76237},{"id":5955895,"name":"Fort McMurray","timezone":{"dstOffset":-6,"gmtOffset":-7,"timeZoneId":"America/Edmonton"},"lat":56.72676,"lng":-111.38103,"population":76000},{"id":6101645,"name":"Peterborough","timezone":{"dstOffset":-4,"gmtOffset":-5,"timeZoneId":"America/Toronto"},"lat":44.30012,"lng":-78.31623,"population":75877},{"id":6141439,"name":"Sault Ste. Marie","timezone":{"dstOffset":-4,"gmtOffset":-5,"timeZoneId":"America/Toronto"},"lat":46.51677,"lng":-84.33325,"population":74948},{"id":6087701,"name":"Newmarket","timezone":{"dstOffset":-4,"gmtOffset":-5,"timeZoneId":"America/Toronto"},"lat":44.05011,"lng":-79.46631,"population":74295},{"id":6118158,"name":"Red Deer","timezone":{"dstOffset":-6,"gmtOffset":-7,"timeZoneId":"America/Edmonton"},"lat":52.26682,"lng":-113.802,"population":73593},{"id":6138625,"name":"Saint-Léonard","timezone":{"dstOffset":-4,"gmtOffset":-5,"timeZoneId":"America/Toronto"},"lat":45.58773,"lng":-73.59501,"population":73423},{"id":6138495,"name":"Saint-Jean-sur-Richelieu","timezone":{"dstOffset":-4,"gmtOffset":-5,"timeZoneId":"America/Toronto"},"lat":45.30713,"lng":-73.26259,"population":71613},{"id":6053154,"name":"Lethbridge","timezone":{"dstOffset":-6,"gmtOffset":-7,"timeZoneId":"America/Edmonton"},"lat":49.69999,"lng":-112.81856,"population":70617},{"id":6065686,"name":"Maple Ridge","timezone":{"dstOffset":-7,"gmtOffset":-8,"timeZoneId":"America/Vancouver"},"lat":49.21939,"lng":-122.60193,"population":70000},{"id":5909629,"name":"Brossard","timezone":{"dstOffset":-4,"gmtOffset":-5,"timeZoneId":"America/Toronto"},"lat":45.45008,"lng":-73.46583,"population":69575},{"id":5989045,"name":"Kamloops","timezone":{"dstOffset":-7,"gmtOffset":-8,"timeZoneId":"America/Vancouver"},"lat":50.66648,"lng":-120.3192,"population":68714},{"id":6180961,"name":"White Rock","timezone":{"dstOffset":-7,"gmtOffset":-8,"timeZoneId":"America/Vancouver"},"lat":49.01636,"lng":-122.8026,"population":66450},{"id":6113365,"name":"Prince George","timezone":{"dstOffset":-7,"gmtOffset":-8,"timeZoneId":"America/Vancouver"},"lat":53.9166,"lng":-122.75301,"population":65558},{"id":6071618,"name":"Medicine Hat","timezone":{"dstOffset":-6,"gmtOffset":-7,"timeZoneId":"America/Edmonton"},"lat":50.05006,"lng":-110.66834,"population":63138},{"id":6089125,"name":"Norfolk County","timezone":{"dstOffset":-4,"gmtOffset":-5,"timeZoneId":"America/Toronto"},"lat":42.8334,"lng":-80.38297,"population":60847},{"id":5942845,"name":"Drummondville","timezone":{"dstOffset":-4,"gmtOffset":-5,"timeZoneId":"America/Toronto"},"lat":45.88336,"lng":-72.48241,"population":59489},{"id":6087844,"name":"New Westminster","timezone":{"dstOffset":-7,"gmtOffset":-8,"timeZoneId":"America/Vancouver"},"lat":49.20678,"lng":-122.91092,"population":58549},{"id":6155033,"name":"St. Albert","timezone":{"dstOffset":-6,"gmtOffset":-7,"timeZoneId":"America/Edmonton"},"lat":53.63344,"lng":-113.63533,"population":57719},{"id":6146279,"name":"Sherwood Park","timezone":{"dstOffset":-6,"gmtOffset":-7,"timeZoneId":"America/Edmonton"},"lat":53.51684,"lng":-113.3187,"population":55063},{"id":6138501,"name":"Saint-Jérôme","timezone":{"dstOffset":-4,"gmtOffset":-5,"timeZoneId":"America/Toronto"},"lat":45.78036,"lng":-74.00365,"population":54948},{"id":7303786,"name":"Jonquière","timezone":{"dstOffset":-4,"gmtOffset":-5,"timeZoneId":"America/Toronto"},"lat":48.41648,"lng":-71.24884,"population":54842},{"id":5964215,"name":"Granby","timezone":{"dstOffset":-4,"gmtOffset":-5,"timeZoneId":"America/Toronto"},"lat":45.40008,"lng":-72.73243,"population":53979},{"id":5957776,"name":"Fredericton","timezone":{"dstOffset":-3,"gmtOffset":-4,"timeZoneId":"America/Moncton"},"lat":45.94541,"lng":-66.66558,"population":52337},{"id":6177869,"name":"Welland","timezone":{"dstOffset":-4,"gmtOffset":-5,"timeZoneId":"America/Toronto"},"lat":42.98342,"lng":-79.24958,"population":50331},{"id":6138374,"name":"Saint-Hyacinthe","timezone":{"dstOffset":-4,"gmtOffset":-5,"timeZoneId":"America/Toronto"},"lat":45.63076,"lng":-72.95699,"population":50326},{"id":6089426,"name":"North Bay","timezone":{"dstOffset":-4,"gmtOffset":-5,"timeZoneId":"America/Toronto"},"lat":46.3168,"lng":-79.46633,"population":50170},{"id":5897884,"name":"Belleville","timezone":{"dstOffset":-4,"gmtOffset":-5,"timeZoneId":"America/Toronto"},"lat":44.16682,"lng":-77.38277,"population":49454},{"id":6145489,"name":"Shawinigan","timezone":{"dstOffset":-4,"gmtOffset":-5,"timeZoneId":"America/Toronto"},"lat":46.56675,"lng":-72.74913,"population":49161},{"id":5940956,"name":"Dollard-Des Ormeaux","timezone":{"dstOffset":-4,"gmtOffset":-5,"timeZoneId":"America/Toronto"},"lat":45.49452,"lng":-73.82419,"population":48930},{"id":5928065,"name":"Cornwall","timezone":{"dstOffset":-4,"gmtOffset":-5,"timeZoneId":"America/Toronto"},"lat":45.01809,"lng":-74.72815,"population":48821},{"id":6090785,"name":"North Vancouver","timezone":{"dstOffset":-7,"gmtOffset":-8,"timeZoneId":"America/Vancouver"},"lat":49.31636,"lng":-123.06934,"population":48000},{"id":6173864,"name":"Vernon","timezone":{"dstOffset":-7,"gmtOffset":-8,"timeZoneId":"America/Vancouver"},"lat":50.26729,"lng":-119.27337,"population":47274},{"id":5903510,"name":"Blainville","timezone":{"dstOffset":-4,"gmtOffset":-5,"timeZoneId":"America/Toronto"},"lat":45.66678,"lng":-73.88249,"population":46493},{"id":6178582,"name":"West End","timezone":{"dstOffset":-7,"gmtOffset":-8,"timeZoneId":"America/Vancouver"},"lat":49.28333,"lng":-123.13333,"population":44560},{"id":6166739,"name":"Timmins","timezone":{"dstOffset":-4,"gmtOffset":-5,"timeZoneId":"America/Toronto"},"lat":48.46686,"lng":-81.33312,"population":42997},{"id":5920433,"name":"Châteauguay","timezone":{"dstOffset":-4,"gmtOffset":-5,"timeZoneId":"America/Toronto"},"lat":45.38338,"lng":-73.74919,"population":42786},{"id":6115355,"name":"Quinte West","timezone":{"dstOffset":-4,"gmtOffset":-5,"timeZoneId":"America/Toronto"},"lat":44.18342,"lng":-77.56618,"population":42697},{"id":8533869,"name":"West Vancouver","timezone":{"dstOffset":-7,"gmtOffset":-8,"timeZoneId":"America/Vancouver"},"lat":49.36672,"lng":-123.16652,"population":42694},{"id":5920288,"name":"Charlottetown","timezone":{"dstOffset":-3,"gmtOffset":-4,"timeZoneId":"America/Halifax"},"lat":46.23525,"lng":-63.12671,"population":42402},{"id":6354895,"name":"Rimouski","timezone":{"dstOffset":-4,"gmtOffset":-5,"timeZoneId":"America/Toronto"},"lat":48.44879,"lng":-68.52396,"population":42240},{"id":6138175,"name":"Saint-Eustache","timezone":{"dstOffset":-4,"gmtOffset":-5,"timeZoneId":"America/Toronto"},"lat":45.565,"lng":-73.90554,"population":42062},{"id":5964347,"name":"Grande Prairie","timezone":{"dstOffset":-6,"gmtOffset":-7,"timeZoneId":"America/Edmonton"},"lat":55.16667,"lng":-118.80271,"population":41462},{"id":5906267,"name":"Boucherville","timezone":{"dstOffset":-4,"gmtOffset":-5,"timeZoneId":"America/Toronto"},"lat":45.59104,"lng":-73.43605,"population":39062},{"id":6139289,"name":"Salaberry-de-Valleyfield","timezone":{"dstOffset":-4,"gmtOffset":-5,"timeZoneId":"America/Toronto"},"lat":45.25008,"lng":-74.13253,"population":38662},{"id":6101141,"name":"Penticton","timezone":{"dstOffset":-7,"gmtOffset":-8,"timeZoneId":"America/Vancouver"},"lat":49.48062,"lng":-119.58584,"population":37721},{"id":6158357,"name":"St. Thomas","timezone":{"dstOffset":-4,"gmtOffset":-5,"timeZoneId":"America/Toronto"},"lat":42.77361,"lng":-81.18038,"population":36110},{"id":5987650,"name":"Joliette","timezone":{"dstOffset":-4,"gmtOffset":-5,"timeZoneId":"America/Toronto"},"lat":46.01677,"lng":-73.44915,"population":34772},{"id":6067494,"name":"Mascouche","timezone":{"dstOffset":-4,"gmtOffset":-5,"timeZoneId":"America/Toronto"},"lat":45.74965,"lng":-73.59956,"population":34626},{"id":6075061,"name":"Mirabel","timezone":{"dstOffset":-4,"gmtOffset":-5,"timeZoneId":"America/Toronto"},"lat":45.65008,"lng":-74.08251,"population":34626},{"id":6113335,"name":"Prince Albert","timezone":{"dstOffset":-6,"gmtOffset":-6,"timeZoneId":"America/Regina"},"lat":53.20008,"lng":-105.76772,"population":34609},{"id":6174151,"name":"Victoriaville","timezone":{"dstOffset":-4,"gmtOffset":-5,"timeZoneId":"America/Toronto"},"lat":46.05007,"lng":-71.96579,"population":34426},{"id":5907983,"name":"Brant","timezone":{"dstOffset":-4,"gmtOffset":-5,"timeZoneId":"America/Toronto"},"lat":43.1334,"lng":-80.34967,"population":34415},{"id":6184365,"name":"Woodstock","timezone":{"dstOffset":-4,"gmtOffset":-5,"timeZoneId":"America/Toronto"},"lat":43.13339,"lng":-80.7497,"population":33892},{"id":6151352,"name":"Sorel-Tracy","timezone":{"dstOffset":-4,"gmtOffset":-5,"timeZoneId":"America/Toronto"},"lat":46.03336,"lng":-73.11585,"population":33591},{"id":5914132,"name":"Campbell River","timezone":{"dstOffset":-7,"gmtOffset":-8,"timeZoneId":"America/Vancouver"},"lat":50.01634,"lng":-125.24459,"population":33430},{"id":8285452,"name":"Ancaster","timezone":{"dstOffset":-4,"gmtOffset":-5,"timeZoneId":"America/Toronto"},"lat":43.21806,"lng":-79.98716,"population":33232},{"id":5930890,"name":"Courtenay","timezone":{"dstOffset":-7,"gmtOffset":-8,"timeZoneId":"America/Vancouver"},"lat":49.68657,"lng":-124.9936,"population":32793},{"id":6094201,"name":"Orangeville","timezone":{"dstOffset":-4,"gmtOffset":-5,"timeZoneId":"America/Toronto"},"lat":43.9168,"lng":-80.09967,"population":32640},{"id":6089661,"name":"North Cowichan","timezone":{"dstOffset":-7,"gmtOffset":-8,"timeZoneId":"America/Vancouver"},"lat":48.84133,"lng":-123.68596,"population":32272},{"id":6078112,"name":"Moose Jaw","timezone":{"dstOffset":-6,"gmtOffset":-6,"timeZoneId":"America/Regina"},"lat":50.40005,"lng":-105.53445,"population":32166},{"id":6073363,"name":"Midland","timezone":{"dstOffset":-4,"gmtOffset":-5,"timeZoneId":"America/Toronto"},"lat":44.7501,"lng":-79.88296,"population":31502},{"id":5928488,"name":"Côte-Saint-Luc","timezone":{"dstOffset":-4,"gmtOffset":-5,"timeZoneId":"America/Toronto"},"lat":45.46536,"lng":-73.66585,"population":31395},{"id":6173017,"name":"Val-d'Or","timezone":{"dstOffset":-4,"gmtOffset":-5,"timeZoneId":"America/Toronto"},"lat":48.10018,"lng":-77.7828,"population":31123},{"id":6157977,"name":"Stratford","timezone":{"dstOffset":-4,"gmtOffset":-5,"timeZoneId":"America/Toronto"},"lat":43.36679,"lng":-80.94972,"population":30233},{"id":6094325,"name":"Orillia","timezone":{"dstOffset":-4,"gmtOffset":-5,"timeZoneId":"America/Toronto"},"lat":44.60868,"lng":-79.42068,"population":30178},{"id":6107325,"name":"Pointe-Claire","timezone":{"dstOffset":-4,"gmtOffset":-5,"timeZoneId":"America/Toronto"},"lat":45.44868,"lng":-73.81669,"population":30161},{"id":5889745,"name":"Baie-Comeau","timezone":{"dstOffset":-4,"gmtOffset":-5,"timeZoneId":"America/Toronto"},"lat":49.21679,"lng":-68.14894,"population":29808},{"id":7302647,"name":"Bellechasse Regional County Municipality","timezone":{"dstOffset":-4,"gmtOffset":-5,"timeZoneId":"America/Toronto"},"lat":46.66667,"lng":-70.71667,"population":29570},{"id":5884083,"name":"Alma","timezone":{"dstOffset":-4,"gmtOffset":-5,"timeZoneId":"America/Toronto"},"lat":48.55009,"lng":-71.6491,"population":29526},{"id":6137941,"name":"Sainte-Julie","timezone":{"dstOffset":-4,"gmtOffset":-5,"timeZoneId":"America/Toronto"},"lat":45.58338,"lng":-73.33246,"population":29019},{"id":7281936,"name":"West Kelowna","timezone":{"dstOffset":-7,"gmtOffset":-8,"timeZoneId":"America/Vancouver"},"lat":49.8625,"lng":-119.58333,"population":28793},{"id":6111962,"name":"Port Moody","timezone":{"dstOffset":-7,"gmtOffset":-8,"timeZoneId":"America/Vancouver"},"lat":49.28297,"lng":-122.85263,"population":27512},{"id":5905132,"name":"Boisbriand","timezone":{"dstOffset":-4,"gmtOffset":-5,"timeZoneId":"America/Toronto"},"lat":45.61678,"lng":-73.83249,"population":26483},{"id":5907896,"name":"Brandon","timezone":{"dstOffset":-5,"gmtOffset":-6,"timeZoneId":"America/Winnipeg"},"lat":49.84692,"lng":-99.95306,"population":26234},{"id":6173570,"name":"Vaudreuil-Dorion","timezone":{"dstOffset":-4,"gmtOffset":-5,"timeZoneId":"America/Toronto"},"lat":45.40008,"lng":-74.03251,"population":25789},{"id":6943827,"name":"Thetford-Mines","timezone":{"dstOffset":-4,"gmtOffset":-5,"timeZoneId":"America/Toronto"},"lat":46.09371,"lng":-71.30539,"population":25704},{"id":7669012,"name":"Walnut Grove","timezone":{"dstOffset":-7,"gmtOffset":-8,"timeZoneId":"America/Vancouver"},"lat":49.16473,"lng":-122.64042,"population":25683},{"id":6113355,"name":"Prince Edward","timezone":{"dstOffset":-4,"gmtOffset":-5,"timeZoneId":"America/Toronto"},"lat":44.00012,"lng":-77.24946,"population":25496},{"id":6138121,"name":"Sainte-Thérèse","timezone":{"dstOffset":-4,"gmtOffset":-5,"timeZoneId":"America/Toronto"},"lat":45.63922,"lng":-73.82757,"population":25224},{"id":5882799,"name":"Airdrie","timezone":{"dstOffset":-6,"gmtOffset":-7,"timeZoneId":"America/Edmonton"},"lat":51.30011,"lng":-114.03528,"population":24673},{"id":6082231,"name":"Mount Pearl","timezone":{"dstOffset":-2.5,"gmtOffset":-3.5,"timeZoneId":"America/St_Johns"},"lat":47.51659,"lng":-52.78135,"population":24671},{"id":6137540,"name":"Saint-Bruno-de-Montarville","timezone":{"dstOffset":-4,"gmtOffset":-5,"timeZoneId":"America/Toronto"},"lat":45.53341,"lng":-73.34916,"population":24388},{"id":6128577,"name":"Rouyn-Noranda","timezone":{"dstOffset":-4,"gmtOffset":-5,"timeZoneId":"America/Toronto"},"lat":48.23656,"lng":-79.02311,"population":24023},{"id":6137633,"name":"Saint-Constant","timezone":{"dstOffset":-4,"gmtOffset":-5,"timeZoneId":"America/Toronto"},"lat":45.36678,"lng":-73.56588,"population":23957},{"id":5909294,"name":"Brockville","timezone":{"dstOffset":-4,"gmtOffset":-5,"timeZoneId":"America/Toronto"},"lat":44.59132,"lng":-75.68705,"population":23886},{"id":6049429,"name":"Langley","timezone":{"dstOffset":-7,"gmtOffset":-8,"timeZoneId":"America/Vancouver"},"lat":49.10107,"lng":-122.65883,"population":23606},{"id":6180550,"name":"Whitehorse","timezone":{"dstOffset":-7,"gmtOffset":-8,"timeZoneId":"America/Whitehorse"},"lat":60.71611,"lng":-135.05375,"population":23272},{"id":6095645,"name":"Owen Sound","timezone":{"dstOffset":-4,"gmtOffset":-5,"timeZoneId":"America/Toronto"},"lat":44.56717,"lng":-80.94349,"population":22625},{"id":5919566,"name":"Chambly","timezone":{"dstOffset":-4,"gmtOffset":-5,"timeZoneId":"America/Toronto"},"lat":45.45008,"lng":-73.28246,"population":22608},{"id":6144312,"name":"Sept-Îles","timezone":{"dstOffset":-4,"gmtOffset":-5,"timeZoneId":"America/Toronto"},"lat":50.20011,"lng":-66.38208,"population":22582},{"id":6049388,"name":"Langford","timezone":{"dstOffset":-7,"gmtOffset":-8,"timeZoneId":"America/Vancouver"},"lat":48.44963,"lng":-123.50261,"population":22459},{"id":5943865,"name":"Duncan","timezone":{"dstOffset":-7,"gmtOffset":-8,"timeZoneId":"America/Vancouver"},"lat":48.78293,"lng":-123.70266,"population":22199},{"id":6049863,"name":"La Prairie","timezone":{"dstOffset":-4,"gmtOffset":-5,"timeZoneId":"America/Toronto"},"lat":45.41678,"lng":-73.49917,"population":21763},{"id":6111632,"name":"Port Alberni","timezone":{"dstOffset":-7,"gmtOffset":-8,"timeZoneId":"America/Vancouver"},"lat":49.24133,"lng":-124.8028,"population":21282},{"id":6098642,"name":"Parksville","timezone":{"dstOffset":-7,"gmtOffset":-8,"timeZoneId":"America/Vancouver"},"lat":49.31947,"lng":-124.31575,"population":21150},{"id":5991370,"name":"Keswick","timezone":{"dstOffset":-4,"gmtOffset":-5,"timeZoneId":"America/Toronto"},"lat":44.25011,"lng":-79.46632,"population":21000},{"id":6173508,"name":"Varennes","timezone":{"dstOffset":-4,"gmtOffset":-5,"timeZoneId":"America/Toronto"},"lat":45.68338,"lng":-73.43246,"population":20950},{"id":5923101,"name":"Clarence-Rockland","timezone":{"dstOffset":-4,"gmtOffset":-5,"timeZoneId":"America/Toronto"},"lat":45.5501,"lng":-75.29101,"population":20790},{"id":6169587,"name":"Truro","timezone":{"dstOffset":-3,"gmtOffset":-4,"timeZoneId":"America/Halifax"},"lat":45.36685,"lng":-63.26538,"population":20650},{"id":6179226,"name":"Westmount","timezone":{"dstOffset":-4,"gmtOffset":-5,"timeZoneId":"America/Toronto"},"lat":45.48341,"lng":-73.59918,"population":20494},{"id":5992830,"name":"Kirkland","timezone":{"dstOffset":-4,"gmtOffset":-5,"timeZoneId":"America/Toronto"},"lat":45.45008,"lng":-73.86586,"population":20491},{"id":6087579,"name":"New Glasgow","timezone":{"dstOffset":-3,"gmtOffset":-4,"timeZoneId":"America/Halifax"},"lat":45.58344,"lng":-62.64863,"population":20322},{"id":7280414,"name":"Cole Harbour","timezone":{"dstOffset":-3,"gmtOffset":-4,"timeZoneId":"America/Halifax"},"lat":44.67244,"lng":-63.47506,"population":20000},{"id":5961564,"name":"Glace Bay","timezone":{"dstOffset":-3,"gmtOffset":-4,"timeZoneId":"America/Glace_Bay"},"lat":46.19695,"lng":-59.95698,"population":19968},{"id":5978765,"name":"Huntsville","timezone":{"dstOffset":-4,"gmtOffset":-5,"timeZoneId":"America/Toronto"},"lat":45.33341,"lng":-79.21632,"population":19579},{"id":6162949,"name":"Terrace","timezone":{"dstOffset":-7,"gmtOffset":-8,"timeZoneId":"America/Vancouver"},"lat":54.51634,"lng":-128.60345,"population":19443},{"id":6089404,"name":"North Battleford","timezone":{"dstOffset":-6,"gmtOffset":-6,"timeZoneId":"America/Regina"},"lat":52.77972,"lng":-108.2967,"population":19440},{"id":5895650,"name":"Beaconsfield","timezone":{"dstOffset":-4,"gmtOffset":-5,"timeZoneId":"America/Toronto"},"lat":45.43341,"lng":-73.86586,"population":19194},{"id":6077315,"name":"Mont-Royal","timezone":{"dstOffset":-4,"gmtOffset":-5,"timeZoneId":"America/Toronto"},"lat":45.51675,"lng":-73.64918,"population":18933},{"id":5898138,"name":"Beloeil","timezone":{"dstOffset":-4,"gmtOffset":-5,"timeZoneId":"America/Toronto"},"lat":45.56678,"lng":-73.19915,"population":18927},{"id":5907180,"name":"Bradford West Gwillimbury","timezone":{"dstOffset":-4,"gmtOffset":-5,"timeZoneId":"America/Toronto"},"lat":44.11681,"lng":-79.61633,"population":18811},{"id":5927969,"name":"Corner Brook","timezone":{"dstOffset":-2.5,"gmtOffset":-3.5,"timeZoneId":"America/St_Johns"},"lat":48.95001,"lng":-57.95202,"population":18693},{"id":5931800,"name":"Cranbrook","timezone":{"dstOffset":-6,"gmtOffset":-7,"timeZoneId":"America/Edmonton"},"lat":49.49991,"lng":-115.76879,"population":18610},{"id":6111704,"name":"Port Colborne","timezone":{"dstOffset":-4,"gmtOffset":-5,"timeZoneId":"America/Toronto"},"lat":42.90012,"lng":-79.23288,"population":18599},{"id":6354897,"name":"Rivière-du-Loup","timezone":{"dstOffset":-4,"gmtOffset":-5,"timeZoneId":"America/Toronto"},"lat":47.82699,"lng":-69.54243,"population":18586},{"id":5939219,"name":"Dieppe","timezone":{"dstOffset":-3,"gmtOffset":-4,"timeZoneId":"America/Moncton"},"lat":46.07844,"lng":-64.68735,"population":18565},{"id":6165719,"name":"Thorold","timezone":{"dstOffset":-4,"gmtOffset":-5,"timeZoneId":"America/Toronto"},"lat":43.11682,"lng":-79.19958,"population":18224},{"id":6075081,"name":"Miramichi","timezone":{"dstOffset":-3,"gmtOffset":-4,"timeZoneId":"America/Moncton"},"lat":47.02895,"lng":-65.50186,"population":18129},{"id":5924579,"name":"Cobourg","timezone":{"dstOffset":-4,"gmtOffset":-5,"timeZoneId":"America/Toronto"},"lat":43.95977,"lng":-78.16515,"population":18099},{"id":5941925,"name":"Dorval","timezone":{"dstOffset":-4,"gmtOffset":-5,"timeZoneId":"America/Toronto"},"lat":45.4473,"lng":-73.75335,"population":18088},{"id":6091919,"name":"Oak Bay","timezone":{"dstOffset":-7,"gmtOffset":-8,"timeZoneId":"America/Vancouver"},"lat":48.44964,"lng":-123.3026,"population":18015},{"id":5884588,"name":"Amos","timezone":{"dstOffset":-4,"gmtOffset":-5,"timeZoneId":"America/Toronto"},"lat":48.56688,"lng":-78.11624,"population":17918},{"id":6154383,"name":"Spruce Grove","timezone":{"dstOffset":-6,"gmtOffset":-7,"timeZoneId":"America/Edmonton"},"lat":53.53344,"lng":-113.91874,"population":17767},{"id":6105815,"name":"Pitt Meadows","timezone":{"dstOffset":-7,"gmtOffset":-8,"timeZoneId":"America/Vancouver"},"lat":49.22119,"lng":-122.68965,"population":17410},{"id":5938513,"name":"Deux-Montagnes","timezone":{"dstOffset":-4,"gmtOffset":-5,"timeZoneId":"America/Toronto"},"lat":45.53455,"lng":-73.90168,"population":17402},{"id":5955960,"name":"Fort St. John","timezone":{"dstOffset":-7,"gmtOffset":-7,"timeZoneId":"America/Dawson_Creek"},"lat":56.24988,"lng":-120.85292,"population":17402},{"id":7535681,"name":"Saint-Augustin-de-Desmaures","timezone":{"dstOffset":-4,"gmtOffset":-5,"timeZoneId":"America/Toronto"},"lat":46.74064,"lng":-71.45131,"population":17281},{"id":5926511,"name":"Conception Bay South","timezone":{"dstOffset":-2.5,"gmtOffset":-3.5,"timeZoneId":"America/St_Johns"},"lat":47.49989,"lng":-52.99806,"population":17087},{"id":6138617,"name":"Saint-Lazare","timezone":{"dstOffset":-4,"gmtOffset":-5,"timeZoneId":"America/Toronto"},"lat":45.40008,"lng":-74.13256,"population":17016},{"id":6050263,"name":"L'Assomption","timezone":{"dstOffset":-4,"gmtOffset":-5,"timeZoneId":"America/Toronto"},"lat":45.82318,"lng":-73.4294,"population":16738},{"id":6545023,"name":"Edmundston","timezone":{"dstOffset":-3,"gmtOffset":-4,"timeZoneId":"America/Moncton"},"lat":47.3737,"lng":-68.32512,"population":16643},{"id":6534203,"name":"L'Ancienne-Lorette","timezone":{"dstOffset":-4,"gmtOffset":-5,"timeZoneId":"America/Toronto"},"lat":46.79392,"lng":-71.35191,"population":16516},{"id":5924618,"name":"Cochrane","timezone":{"dstOffset":-6,"gmtOffset":-7,"timeZoneId":"America/Edmonton"},"lat":51.18341,"lng":-114.46871,"population":16365},{"id":6137781,"name":"Sainte-Catherine","timezone":{"dstOffset":-4,"gmtOffset":-5,"timeZoneId":"America/Toronto"},"lat":46.31836,"lng":-72.56632,"population":16211},{"id":6139416,"name":"Salmon Arm","timezone":{"dstOffset":-7,"gmtOffset":-8,"timeZoneId":"America/Vancouver"},"lat":50.6998,"lng":-119.30237,"population":16205},{"id":6117731,"name":"Rayside-Balfour","timezone":{"dstOffset":-4,"gmtOffset":-5,"timeZoneId":"America/Toronto"},"lat":46.60873,"lng":-81.20763,"population":16050},{"id":6101606,"name":"Petawawa","timezone":{"dstOffset":-4,"gmtOffset":-5,"timeZoneId":"America/Toronto"},"lat":45.89452,"lng":-77.28007,"population":15988},{"id":5955815,"name":"Fort Erie","timezone":{"dstOffset":-4,"gmtOffset":-5,"timeZoneId":"America/Toronto"},"lat":42.90012,"lng":-78.93286,"population":15953},{"id":5914826,"name":"Candiac","timezone":{"dstOffset":-4,"gmtOffset":-5,"timeZoneId":"America/Toronto"},"lat":45.38338,"lng":-73.51587,"population":15947},{"id":6058024,"name":"Lloydminster","timezone":{"dstOffset":-6,"gmtOffset":-7,"timeZoneId":"America/Edmonton"},"lat":53.28346,"lng":-110.00157,"population":15910},{"id":6185377,"name":"Yellowknife","timezone":{"dstOffset":-6,"gmtOffset":-7,"timeZoneId":"America/Yellowknife"},"lat":62.456,"lng":-114.35255,"population":15865},{"id":5925975,"name":"Collingwood","timezone":{"dstOffset":-4,"gmtOffset":-5,"timeZoneId":"America/Toronto"},"lat":44.4834,"lng":-80.21638,"population":15809},{"id":6077340,"name":"Mont-Saint-Hilaire","timezone":{"dstOffset":-4,"gmtOffset":-5,"timeZoneId":"America/Toronto"},"lat":45.56678,"lng":-73.19915,"population":15720},{"id":5914653,"name":"Camrose","timezone":{"dstOffset":-6,"gmtOffset":-7,"timeZoneId":"America/Edmonton"},"lat":53.01684,"lng":-112.83525,"population":15686},{"id":6185607,"name":"Yorkton","timezone":{"dstOffset":-6,"gmtOffset":-6,"timeZoneId":"America/Regina"},"lat":51.2167,"lng":-102.46766,"population":15669},{"id":6137489,"name":"Saint-Basile-le-Grand","timezone":{"dstOffset":-4,"gmtOffset":-5,"timeZoneId":"America/Toronto"},"lat":45.53338,"lng":-73.28246,"population":15605},{"id":6051562,"name":"Leduc","timezone":{"dstOffset":-6,"gmtOffset":-7,"timeZoneId":"America/Edmonton"},"lat":53.26682,"lng":-113.55201,"population":15561},{"id":6100832,"name":"Pembroke","timezone":{"dstOffset":-4,"gmtOffset":-5,"timeZoneId":"America/Toronto"},"lat":45.81681,"lng":-77.11616,"population":15551},{"id":6064180,"name":"Magog","timezone":{"dstOffset":-4,"gmtOffset":-5,"timeZoneId":"America/Toronto"},"lat":45.26678,"lng":-72.14909,"population":15550},{"id":5965812,"name":"Napanee","timezone":{"dstOffset":-4,"gmtOffset":-5,"timeZoneId":"America/Toronto"},"lat":44.25012,"lng":-76.94944,"population":15132},{"id":5955948,"name":"Fort Saskatchewan","timezone":{"dstOffset":-6,"gmtOffset":-7,"timeZoneId":"America/Edmonton"},"lat":53.71684,"lng":-113.2187,"population":14957},{"id":6093010,"name":"Okotoks","timezone":{"dstOffset":-6,"gmtOffset":-7,"timeZoneId":"America/Edmonton"},"lat":50.72885,"lng":-113.98281,"population":14826},{"id":5959878,"name":"Gaspé","timezone":{"dstOffset":-4,"gmtOffset":-5,"timeZoneId":"America/Toronto"},"lat":48.83341,"lng":-64.48194,"population":14819},{"id":6696260,"name":"Matane","timezone":{"dstOffset":-4,"gmtOffset":-5,"timeZoneId":"America/Toronto"},"lat":48.82857,"lng":-67.52197,"population":14812},{"id":6159244,"name":"Summerside","timezone":{"dstOffset":-3,"gmtOffset":-4,"timeZoneId":"America/Halifax"},"lat":46.39593,"lng":-63.78762,"population":14808},{"id":6113406,"name":"Prince Rupert","timezone":{"dstOffset":-7,"gmtOffset":-8,"timeZoneId":"America/Vancouver"},"lat":54.31507,"lng":-130.32098,"population":14708},{"id":6160603,"name":"Swift Current","timezone":{"dstOffset":-6,"gmtOffset":-6,"timeZoneId":"America/Swift_Current"},"lat":50.28337,"lng":-107.80135,"population":14703},{"id":5926268,"name":"Colwood","timezone":{"dstOffset":-7,"gmtOffset":-8,"timeZoneId":"America/Vancouver"},"lat":48.43293,"lng":-123.48591,"population":14687},{"id":6127681,"name":"Rosemère","timezone":{"dstOffset":-4,"gmtOffset":-5,"timeZoneId":"America/Toronto"},"lat":45.63338,"lng":-73.79919,"population":14173},{"id":6182212,"name":"Williams Lake","timezone":{"dstOffset":-7,"gmtOffset":-8,"timeZoneId":"America/Vancouver"},"lat":52.14153,"lng":-122.14451,"population":14168},{"id":6138643,"name":"Saint-Lin-Laurentides","timezone":{"dstOffset":-4,"gmtOffset":-5,"timeZoneId":"America/Toronto"},"lat":45.85008,"lng":-73.76588,"population":14159},{"id":6115187,"name":"Quesnel","timezone":{"dstOffset":-7,"gmtOffset":-8,"timeZoneId":"America/Vancouver"},"lat":52.97842,"lng":-122.4931,"population":13788},{"id":5895424,"name":"Bay Roberts","timezone":{"dstOffset":-2.5,"gmtOffset":-3.5,"timeZoneId":"America/St_Johns"},"lat":47.59989,"lng":-53.26478,"population":13737},{"id":6077128,"name":"Mont-Laurier","timezone":{"dstOffset":-4,"gmtOffset":-5,"timeZoneId":"America/Toronto"},"lat":46.55011,"lng":-75.4993,"population":13405},{"id":6111529,"name":"Portage la Prairie","timezone":{"dstOffset":-5,"gmtOffset":-6,"timeZoneId":"America/Winnipeg"},"lat":49.97282,"lng":-98.29263,"population":12957},{"id":5940934,"name":"Dolbeau-Mistassini","timezone":{"dstOffset":-4,"gmtOffset":-5,"timeZoneId":"America/Toronto"},"lat":48.8786,"lng":-72.23142,"population":12916},{"id":6112608,"name":"Powell River","timezone":{"dstOffset":-7,"gmtOffset":-8,"timeZoneId":"America/Vancouver"},"lat":49.87022,"lng":-124.54926,"population":12779},{"id":5909514,"name":"Brooks","timezone":{"dstOffset":-6,"gmtOffset":-7,"timeZoneId":"America/Edmonton"},"lat":50.58341,"lng":-111.88509,"population":12744},{"id":6696259,"name":"Bathurst","timezone":{"dstOffset":-3,"gmtOffset":-4,"timeZoneId":"America/Moncton"},"lat":47.61814,"lng":-65.65112,"population":12714},{"id":5991148,"name":"Kentville","timezone":{"dstOffset":-3,"gmtOffset":-4,"timeZoneId":"America/Halifax"},"lat":45.0771,"lng":-64.49605,"population":12636},{"id":5947866,"name":"Elliot Lake","timezone":{"dstOffset":-4,"gmtOffset":-5,"timeZoneId":"America/Toronto"},"lat":46.38336,"lng":-82.63315,"population":12508},{"id":6165406,"name":"Thompson","timezone":{"dstOffset":-5,"gmtOffset":-6,"timeZoneId":"America/Winnipeg"},"lat":55.7435,"lng":-97.85579,"population":12467},{"id":7669018,"name":"Aldergrove","timezone":{"dstOffset":-7,"gmtOffset":-8,"timeZoneId":"America/Vancouver"},"lat":49.05801,"lng":-122.47087,"population":12363},{"id":5914894,"name":"Canmore","timezone":{"dstOffset":-6,"gmtOffset":-7,"timeZoneId":"America/Edmonton"},"lat":51.08335,"lng":-115.35206,"population":12288},{"id":5972360,"name":"Hawkesbury","timezone":{"dstOffset":-4,"gmtOffset":-5,"timeZoneId":"America/Toronto"},"lat":45.60009,"lng":-74.61595,"population":12283},{"id":6090405,"name":"North Perth","timezone":{"dstOffset":-4,"gmtOffset":-5,"timeZoneId":"America/Toronto"},"lat":43.7251,"lng":-80.96723,"population":12254},{"id":5964378,"name":"Grand Falls-Windsor","timezone":{"dstOffset":-2.5,"gmtOffset":-3.5,"timeZoneId":"America/St_Johns"},"lat":48.93324,"lng":-55.66492,"population":12076},{"id":5896495,"name":"Beauharnois","timezone":{"dstOffset":-4,"gmtOffset":-5,"timeZoneId":"America/Toronto"},"lat":45.31341,"lng":-73.8725,"population":11918},{"id":5983175,"name":"Ingersoll","timezone":{"dstOffset":-4,"gmtOffset":-5,"timeZoneId":"America/Toronto"},"lat":43.03339,"lng":-80.88302,"population":11874},{"id":6325529,"name":"Montmagny","timezone":{"dstOffset":-4,"gmtOffset":-5,"timeZoneId":"America/Toronto"},"lat":46.98043,"lng":-70.55493,"population":11724},{"id":5925024,"name":"Cold Lake","timezone":{"dstOffset":-6,"gmtOffset":-7,"timeZoneId":"America/Edmonton"},"lat":54.46525,"lng":-110.18154,"population":11595},{"id":6945989,"name":"Sainte-Marie","timezone":{"dstOffset":-4,"gmtOffset":-5,"timeZoneId":"America/Toronto"},"lat":46.43401,"lng":-71.01168,"population":11584},{"id":6172932,"name":"Uxbridge","timezone":{"dstOffset":-4,"gmtOffset":-5,"timeZoneId":"America/Toronto"},"lat":44.10012,"lng":-79.11628,"population":11531},{"id":5884473,"name":"Amherstburg","timezone":{"dstOffset":-4,"gmtOffset":-5,"timeZoneId":"America/Toronto"},"lat":42.11679,"lng":-83.04985,"population":11459},{"id":6138032,"name":"Sainte-Marthe-sur-le-Lac","timezone":{"dstOffset":-4,"gmtOffset":-5,"timeZoneId":"America/Toronto"},"lat":45.53338,"lng":-73.9325,"population":11311},{"id":6179602,"name":"Wetaskiwin","timezone":{"dstOffset":-6,"gmtOffset":-7,"timeZoneId":"America/Edmonton"},"lat":52.96683,"lng":-113.36869,"population":11302},{"id":6104876,"name":"Pincourt","timezone":{"dstOffset":-4,"gmtOffset":-5,"timeZoneId":"America/Toronto"},"lat":45.38338,"lng":-73.9825,"population":11197},{"id":6942553,"name":"Paris","timezone":{"dstOffset":-4,"gmtOffset":-5,"timeZoneId":"America/Toronto"},"lat":43.2,"lng":-80.38333,"population":11177},{"id":5897209,"name":"Bécancour","timezone":{"dstOffset":-4,"gmtOffset":-5,"timeZoneId":"America/Toronto"},"lat":46.33336,"lng":-72.43241,"population":11134},{"id":6090579,"name":"North Saanich","timezone":{"dstOffset":-7,"gmtOffset":-8,"timeZoneId":"America/Vancouver"},"lat":48.66634,"lng":-123.41933,"population":11089},{"id":5931074,"name":"Cowansville","timezone":{"dstOffset":-4,"gmtOffset":-5,"timeZoneId":"America/Toronto"},"lat":45.20008,"lng":-72.74913,"population":10887},{"id":5935804,"name":"Dawson Creek","timezone":{"dstOffset":-7,"gmtOffset":-7,"timeZoneId":"America/Dawson_Creek"},"lat":55.75984,"lng":-120.2403,"population":10802},{"id":6137753,"name":"Sainte-Anne-des-Plaines","timezone":{"dstOffset":-4,"gmtOffset":-5,"timeZoneId":"America/Toronto"},"lat":45.76468,"lng":-73.81156,"population":10680},{"id":6049024,"name":"Lambton Shores","timezone":{"dstOffset":-4,"gmtOffset":-5,"timeZoneId":"America/Toronto"},"lat":43.16678,"lng":-81.93309,"population":10656},{"id":6137696,"name":"Sainte-Adèle","timezone":{"dstOffset":-4,"gmtOffset":-5,"timeZoneId":"America/Toronto"},"lat":45.95008,"lng":-74.13251,"population":10634},{"id":6052788,"name":"Les Coteaux","timezone":{"dstOffset":-4,"gmtOffset":-5,"timeZoneId":"America/Toronto"},"lat":45.28338,"lng":-74.23254,"population":10622},{"id":6180144,"name":"Whistler Village","timezone":{"dstOffset":-7,"gmtOffset":-8,"timeZoneId":"America/Vancouver"},"lat":50.1164,"lng":-122.96946,"population":10600},{"id":6150174,"name":"Smiths Falls","timezone":{"dstOffset":-4,"gmtOffset":-5,"timeZoneId":"America/Toronto"},"lat":44.90452,"lng":-76.02333,"population":10553},{"id":6160806,"name":"Sylvan Lake","timezone":{"dstOffset":-6,"gmtOffset":-7,"timeZoneId":"America/Edmonton"},"lat":52.31681,"lng":-114.0853,"population":10518},{"id":6162659,"name":"Temiskaming Shores","timezone":{"dstOffset":-4,"gmtOffset":-5,"timeZoneId":"America/Toronto"},"lat":47.49376,"lng":-79.71529,"population":10442},{"id":6117611,"name":"Rawdon","timezone":{"dstOffset":-4,"gmtOffset":-5,"timeZoneId":"America/Toronto"},"lat":46.05007,"lng":-73.71587,"population":10400},{"id":5994839,"name":"Labrador City","timezone":{"dstOffset":-3,"gmtOffset":-4,"timeZoneId":"America/Goose_Bay"},"lat":52.94626,"lng":-66.91137,"population":10313},{"id":5885280,"name":"Angus","timezone":{"dstOffset":-4,"gmtOffset":-5,"timeZoneId":"America/Toronto"},"lat":44.31681,"lng":-79.88295,"population":10269},{"id":6113198,"name":"Prévost","timezone":{"dstOffset":-4,"gmtOffset":-5,"timeZoneId":"America/Toronto"},"lat":45.86678,"lng":-74.08251,"population":10132},{"id":6072206,"name":"Mercier","timezone":{"dstOffset":-4,"gmtOffset":-5,"timeZoneId":"America/Toronto"},"lat":45.31678,"lng":-73.74919,"population":10121},{"id":6035615,"name":"Lacombe","timezone":{"dstOffset":-6,"gmtOffset":-7,"timeZoneId":"America/Edmonton"},"lat":52.46681,"lng":-113.7353,"population":10059},{"id":6158023,"name":"Strathmore","timezone":{"dstOffset":-6,"gmtOffset":-7,"timeZoneId":"America/Edmonton"},"lat":51.05011,"lng":-113.38523,"population":10009},{"id":5970063,"name":"Hanceville","timezone":{"dstOffset":-7,"gmtOffset":-8,"timeZoneId":"America/Vancouver"},"lat":51.91922,"lng":-123.04458,"population":10000},{"id":6152244,"name":"South Huron","timezone":{"dstOffset":-4,"gmtOffset":-5,"timeZoneId":"America/Toronto"},"lat":43.31679,"lng":-81.51647,"population":9982},{"id":5898070,"name":"Bells Corners","timezone":{"dstOffset":-4,"gmtOffset":-5,"timeZoneId":"America/Toronto"},"lat":45.31588,"lng":-75.83012,"population":9977},{"id":6053877,"name":"L'Ile Perrot","timezone":{"dstOffset":-4,"gmtOffset":-5,"timeZoneId":"America/Toronto"},"lat":45.38338,"lng":-73.9492,"population":9927},{"id":5949568,"name":"Estevan","timezone":{"dstOffset":-6,"gmtOffset":-6,"timeZoneId":"America/Regina"},"lat":49.13337,"lng":-102.98422,"population":9904},{"id":5975503,"name":"Hinton","timezone":{"dstOffset":-6,"gmtOffset":-7,"timeZoneId":"America/Edmonton"},"lat":53.40009,"lng":-117.58567,"population":9889},{"id":6091369,"name":"Notre-Dame-de-l'Île-Perrot","timezone":{"dstOffset":-4,"gmtOffset":-5,"timeZoneId":"America/Toronto"},"lat":45.36678,"lng":-73.9325,"population":9885},{"id":5975038,"name":"High River","timezone":{"dstOffset":-6,"gmtOffset":-7,"timeZoneId":"America/Edmonton"},"lat":50.58341,"lng":-113.86867,"population":9826},{"id":6086871,"name":"Nelson","timezone":{"dstOffset":-7,"gmtOffset":-8,"timeZoneId":"America/Vancouver"},"lat":49.49985,"lng":-117.28553,"population":9813},{"id":5917158,"name":"Carleton Place","timezone":{"dstOffset":-4,"gmtOffset":-5,"timeZoneId":"America/Toronto"},"lat":45.13341,"lng":-76.14938,"population":9743},{"id":6168326,"name":"Trail","timezone":{"dstOffset":-7,"gmtOffset":-8,"timeZoneId":"America/Vancouver"},"lat":49.09983,"lng":-117.70223,"population":9707},{"id":6144054,"name":"Selkirk","timezone":{"dstOffset":-5,"gmtOffset":-6,"timeZoneId":"America/Winnipeg"},"lat":50.1436,"lng":-96.88452,"population":9653},{"id":6060407,"name":"Lorraine","timezone":{"dstOffset":-4,"gmtOffset":-5,"timeZoneId":"America/Toronto"},"lat":45.68338,"lng":-73.78249,"population":9613},{"id":5887214,"name":"Arnprior","timezone":{"dstOffset":-4,"gmtOffset":-5,"timeZoneId":"America/Toronto"},"lat":45.43341,"lng":-76.34939,"population":9607},{"id":6156102,"name":"Steinbach","timezone":{"dstOffset":-5,"gmtOffset":-6,"timeZoneId":"America/Winnipeg"},"lat":49.52579,"lng":-96.68451,"population":9607},{"id":6024829,"name":"Lachute","timezone":{"dstOffset":-4,"gmtOffset":-5,"timeZoneId":"America/Toronto"},"lat":45.65008,"lng":-74.33253,"population":9562},{"id":6173012,"name":"Val-des-Monts","timezone":{"dstOffset":-4,"gmtOffset":-5,"timeZoneId":"America/Toronto"},"lat":45.6501,"lng":-75.66604,"population":9539},{"id":6050416,"name":"La Tuque","timezone":{"dstOffset":-4,"gmtOffset":-5,"timeZoneId":"America/Toronto"},"lat":47.43337,"lng":-72.7824,"population":9503},{"id":6179652,"name":"Weyburn","timezone":{"dstOffset":-6,"gmtOffset":-6,"timeZoneId":"America/Regina"},"lat":49.66675,"lng":-103.85109,"population":9362},{"id":5884467,"name":"Amherst","timezone":{"dstOffset":-3,"gmtOffset":-4,"timeZoneId":"America/Halifax"},"lat":45.83345,"lng":-64.19874,"population":9336},{"id":5941761,"name":"Dorchester","timezone":{"dstOffset":-4,"gmtOffset":-5,"timeZoneId":"America/Toronto"},"lat":42.98339,"lng":-81.06643,"population":9329},{"id":6125653,"name":"Roberval","timezone":{"dstOffset":-4,"gmtOffset":-5,"timeZoneId":"America/Toronto"},"lat":48.5168,"lng":-72.23244,"population":9287},{"id":6138980,"name":"Saint-Raymond","timezone":{"dstOffset":-4,"gmtOffset":-5,"timeZoneId":"America/Toronto"},"lat":45.46698,"lng":-73.60948,"population":9273},{"id":5978831,"name":"Huron East","timezone":{"dstOffset":-4,"gmtOffset":-5,"timeZoneId":"America/Toronto"},"lat":43.61679,"lng":-81.29975,"population":9264},{"id":5989403,"name":"Kapuskasing","timezone":{"dstOffset":-4,"gmtOffset":-5,"timeZoneId":"America/Toronto"},"lat":49.41694,"lng":-82.43308,"population":9240},{"id":6139045,"name":"Saint-Sauveur","timezone":{"dstOffset":-4,"gmtOffset":-5,"timeZoneId":"America/Toronto"},"lat":45.88686,"lng":-74.17943,"population":9191},{"id":6094407,"name":"Oromocto","timezone":{"dstOffset":-3,"gmtOffset":-4,"timeZoneId":"America/Moncton"},"lat":45.83512,"lng":-66.47917,"population":8998},{"id":5993072,"name":"Kitimat","timezone":{"dstOffset":-7,"gmtOffset":-8,"timeZoneId":"America/Vancouver"},"lat":54.05244,"lng":-128.65342,"population":8987},{"id":6945986,"name":"La Malbaie","timezone":{"dstOffset":-4,"gmtOffset":-5,"timeZoneId":"America/Toronto"},"lat":47.654,"lng":-70.15268,"population":8959},{"id":6157536,"name":"Stony Plain","timezone":{"dstOffset":-6,"gmtOffset":-7,"timeZoneId":"America/Edmonton"},"lat":53.53343,"lng":-114.00205,"population":8939},{"id":6077445,"name":"Mont-Tremblant","timezone":{"dstOffset":-4,"gmtOffset":-5,"timeZoneId":"America/Toronto"},"lat":46.21274,"lng":-74.58438,"population":8892},{"id":6180285,"name":"Whitecourt","timezone":{"dstOffset":-6,"gmtOffset":-7,"timeZoneId":"America/Edmonton"},"lat":54.15015,"lng":-115.68548,"population":8763},{"id":6050650,"name":"Lavaltrie","timezone":{"dstOffset":-4,"gmtOffset":-5,"timeZoneId":"America/Toronto"},"lat":45.88338,"lng":-73.28245,"population":8762},{"id":6047817,"name":"Ladysmith","timezone":{"dstOffset":-7,"gmtOffset":-8,"timeZoneId":"America/Vancouver"},"lat":48.99016,"lng":-123.81699,"population":8740},{"id":8379100,"name":"Pont-Rouge","timezone":{"dstOffset":-4,"gmtOffset":-5,"timeZoneId":"America/Toronto"},"lat":46.75468,"lng":-71.69566,"population":8723},{"id":5918118,"name":"Castlegar","timezone":{"dstOffset":-7,"gmtOffset":-8,"timeZoneId":"America/Vancouver"},"lat":49.29984,"lng":-117.66894,"population":8715},{"id":6094884,"name":"Otterburn Park","timezone":{"dstOffset":-4,"gmtOffset":-5,"timeZoneId":"America/Toronto"},"lat":45.53338,"lng":-73.21585,"population":8464},{"id":5935341,"name":"Dauphin","timezone":{"dstOffset":-5,"gmtOffset":-6,"timeZoneId":"America/Winnipeg"},"lat":51.14941,"lng":-100.05023,"population":8418},{"id":5905152,"name":"Bois-des-Filion","timezone":{"dstOffset":-4,"gmtOffset":-5,"timeZoneId":"America/Toronto"},"lat":45.66678,"lng":-73.74918,"population":8383},{"id":6183204,"name":"Winkler","timezone":{"dstOffset":-5,"gmtOffset":-6,"timeZoneId":"America/Winnipeg"},"lat":49.1817,"lng":-97.94104,"population":8270},{"id":5926526,"name":"Concord","timezone":{"dstOffset":-4,"gmtOffset":-5,"timeZoneId":"America/Toronto"},"lat":43.80011,"lng":-79.48291,"population":8255},{"id":5907092,"name":"Bracebridge","timezone":{"dstOffset":-4,"gmtOffset":-5,"timeZoneId":"America/Toronto"},"lat":45.03341,"lng":-79.31633,"population":8238},{"id":6091422,"name":"Notre-Dame-des-Prairies","timezone":{"dstOffset":-4,"gmtOffset":-5,"timeZoneId":"America/Toronto"},"lat":46.05007,"lng":-73.43245,"population":8230},{"id":5942913,"name":"Dryden","timezone":{"dstOffset":-5,"gmtOffset":-6,"timeZoneId":"America/Winnipeg"},"lat":49.78334,"lng":-92.75032,"population":8195},{"id":6160919,"name":"Taber","timezone":{"dstOffset":-6,"gmtOffset":-7,"timeZoneId":"America/Edmonton"},"lat":49.78703,"lng":-112.14603,"population":8163},{"id":6078636,"name":"Morinville","timezone":{"dstOffset":-6,"gmtOffset":-7,"timeZoneId":"America/Edmonton"},"lat":53.80014,"lng":-113.65203,"population":8108},{"id":6138201,"name":"Saint-Félicien","timezone":{"dstOffset":-4,"gmtOffset":-5,"timeZoneId":"America/Toronto"},"lat":48.65007,"lng":-72.44906,"population":8088},{"id":5908723,"name":"Bridgewater","timezone":{"dstOffset":-3,"gmtOffset":-4,"timeZoneId":"America/Halifax"},"lat":44.38345,"lng":-64.51546,"population":8070},{"id":5962442,"name":"Goderich","timezone":{"dstOffset":-4,"gmtOffset":-5,"timeZoneId":"America/Toronto"},"lat":43.75008,"lng":-81.71648,"population":8032},{"id":6119448,"name":"Renfrew","timezone":{"dstOffset":-4,"gmtOffset":-5,"timeZoneId":"America/Toronto"},"lat":45.46681,"lng":-76.68272,"population":8018},{"id":5946820,"name":"Edson","timezone":{"dstOffset":-6,"gmtOffset":-7,"timeZoneId":"America/Edmonton"},"lat":53.58345,"lng":-116.43559,"population":7975},{"id":5955826,"name":"Fort Frances","timezone":{"dstOffset":-5,"gmtOffset":-6,"timeZoneId":"America/Winnipeg"},"lat":48.59988,"lng":-93.4003,"population":7931},{"id":6943811,"name":"Chandler","timezone":{"dstOffset":-4,"gmtOffset":-5,"timeZoneId":"America/Toronto"},"lat":48.34935,"lng":-64.67926,"population":7914},{"id":5992836,"name":"Kirkland Lake","timezone":{"dstOffset":-4,"gmtOffset":-5,"timeZoneId":"America/Toronto"},"lat":48.14461,"lng":-80.03767,"population":7775},{"id":6149374,"name":"Slave Lake","timezone":{"dstOffset":-6,"gmtOffset":-7,"timeZoneId":"America/Edmonton"},"lat":55.28344,"lng":-114.76896,"population":7661},{"id":5970458,"name":"Happy Valley-Goose Bay","timezone":{"dstOffset":-3,"gmtOffset":-4,"timeZoneId":"America/Goose_Bay"},"lat":53.31685,"lng":-60.33153,"population":7572},{"id":6176421,"name":"Wasaga","timezone":{"dstOffset":-4,"gmtOffset":-5,"timeZoneId":"America/Toronto"},"lat":44.5168,"lng":-80.01637,"population":7567},{"id":5921147,"name":"Chibougamau","timezone":{"dstOffset":-4,"gmtOffset":-5,"timeZoneId":"America/Toronto"},"lat":49.91684,"lng":-74.36586,"population":7563},{"id":6121621,"name":"Revelstoke","timezone":{"dstOffset":-7,"gmtOffset":-8,"timeZoneId":"America/Vancouver"},"lat":50.98317,"lng":-118.2023,"population":7533},{"id":5888716,"name":"Aylmer","timezone":{"dstOffset":-4,"gmtOffset":-5,"timeZoneId":"America/Toronto"},"lat":42.76679,"lng":-80.98302,"population":7527},{"id":6110611,"name":"Pont Rouge","timezone":{"dstOffset":-4,"gmtOffset":-5,"timeZoneId":"America/Toronto"},"lat":48.88332,"lng":-72.08247,"population":7518},{"id":5913934,"name":"Camlachie","timezone":{"dstOffset":-4,"gmtOffset":-5,"timeZoneId":"America/Toronto"},"lat":43.03596,"lng":-82.1616,"population":7506},{"id":5892532,"name":"Banff","timezone":{"dstOffset":-6,"gmtOffset":-7,"timeZoneId":"America/Edmonton"},"lat":51.17622,"lng":-115.56982,"population":7502},{"id":6185217,"name":"Yarmouth","timezone":{"dstOffset":-3,"gmtOffset":-4,"timeZoneId":"America/Halifax"},"lat":43.83345,"lng":-66.11557,"population":7500},{"id":5917117,"name":"Carignan","timezone":{"dstOffset":-4,"gmtOffset":-5,"timeZoneId":"America/Toronto"},"lat":45.45008,"lng":-73.29916,"population":7426},{"id":6696258,"name":"Campbellton","timezone":{"dstOffset":-3,"gmtOffset":-4,"timeZoneId":"America/Moncton"},"lat":48.00751,"lng":-66.67272,"population":7384},{"id":5896522,"name":"Beaumont","timezone":{"dstOffset":-6,"gmtOffset":-7,"timeZoneId":"America/Edmonton"},"lat":53.35013,"lng":-113.41871,"population":7366},{"id":5983433,"name":"Innisfil","timezone":{"dstOffset":-4,"gmtOffset":-5,"timeZoneId":"America/Toronto"},"lat":44.30011,"lng":-79.64964,"population":7345},{"id":5937612,"name":"Delson","timezone":{"dstOffset":-4,"gmtOffset":-5,"timeZoneId":"America/Toronto"},"lat":45.36678,"lng":-73.54917,"population":7322},{"id":7303783,"name":"Sydney Mines","timezone":{"dstOffset":-3,"gmtOffset":-4,"timeZoneId":"America/Glace_Bay"},"lat":46.23669,"lng":-60.21767,"population":7312},{"id":6690232,"name":"Baie-Saint-Paul","timezone":{"dstOffset":-4,"gmtOffset":-5,"timeZoneId":"America/Toronto"},"lat":47.44109,"lng":-70.49858,"population":7288},{"id":5970301,"name":"Hanover","timezone":{"dstOffset":-4,"gmtOffset":-5,"timeZoneId":"America/Toronto"},"lat":44.15009,"lng":-81.03303,"population":7255},{"id":6050194,"name":"La Sarre","timezone":{"dstOffset":-4,"gmtOffset":-5,"timeZoneId":"America/Toronto"},"lat":48.80019,"lng":-79.19964,"population":7206},{"id":5887470,"name":"Asbestos","timezone":{"dstOffset":-4,"gmtOffset":-5,"timeZoneId":"America/Toronto"},"lat":45.76678,"lng":-71.9324,"population":7190},{"id":6072350,"name":"Merritt","timezone":{"dstOffset":-7,"gmtOffset":-8,"timeZoneId":"America/Vancouver"},"lat":50.11225,"lng":-120.7942,"population":7179},{"id":5904501,"name":"Bluewater","timezone":{"dstOffset":-4,"gmtOffset":-5,"timeZoneId":"America/Toronto"},"lat":43.46679,"lng":-81.59977,"population":7044},{"id":5924500,"name":"Coaticook","timezone":{"dstOffset":-4,"gmtOffset":-5,"timeZoneId":"America/Toronto"},"lat":45.13339,"lng":-71.79907,"population":7021},{"id":5970014,"name":"Hampstead","timezone":{"dstOffset":-4,"gmtOffset":-5,"timeZoneId":"America/Toronto"},"lat":45.48064,"lng":-73.66307,"population":6996},{"id":6093347,"name":"Olds","timezone":{"dstOffset":-6,"gmtOffset":-7,"timeZoneId":"America/Edmonton"},"lat":51.78341,"lng":-114.10199,"population":6947},{"id":5966689,"name":"Greenwood","timezone":{"dstOffset":-3,"gmtOffset":-4,"timeZoneId":"America/Halifax"},"lat":44.98345,"lng":-64.89879,"population":6915},{"id":5960971,"name":"Gibsons","timezone":{"dstOffset":-7,"gmtOffset":-8,"timeZoneId":"America/Vancouver"},"lat":49.39539,"lng":-123.50555,"population":6821},{"id":5916722,"name":"Carbonear","timezone":{"dstOffset":-2.5,"gmtOffset":-3.5,"timeZoneId":"America/St_Johns"},"lat":47.73319,"lng":-53.21478,"population":6814},{"id":6945991,"name":"Plessisville","timezone":{"dstOffset":-4,"gmtOffset":-5,"timeZoneId":"America/Toronto"},"lat":46.21856,"lng":-71.76201,"population":6677},{"id":5909969,"name":"Brownsburg-Chatham","timezone":{"dstOffset":-4,"gmtOffset":-5,"timeZoneId":"America/Toronto"},"lat":45.68342,"lng":-74.4159,"population":6664},{"id":6109273,"name":"Ponoka","timezone":{"dstOffset":-6,"gmtOffset":-7,"timeZoneId":"America/Edmonton"},"lat":52.6768,"lng":-113.58147,"population":6656},{"id":6944113,"name":"Mont-Joli","timezone":{"dstOffset":-4,"gmtOffset":-5,"timeZoneId":"America/Toronto"},"lat":48.58388,"lng":-68.19214,"population":6568},{"id":6126749,"name":"Rocky Mountain House","timezone":{"dstOffset":-6,"gmtOffset":-7,"timeZoneId":"America/Edmonton"},"lat":52.36683,"lng":-114.9188,"population":6527},{"id":5992059,"name":"Kimberley","timezone":{"dstOffset":-6,"gmtOffset":-7,"timeZoneId":"America/Edmonton"},"lat":49.67071,"lng":-115.9776,"population":6513},{"id":6101546,"name":"Perth","timezone":{"dstOffset":-4,"gmtOffset":-5,"timeZoneId":"America/Toronto"},"lat":44.90011,"lng":-76.24939,"population":6481},{"id":6098747,"name":"Parry Sound","timezone":{"dstOffset":-4,"gmtOffset":-5,"timeZoneId":"America/Toronto"},"lat":45.34732,"lng":-80.03527,"population":6469},{"id":6078447,"name":"Morden","timezone":{"dstOffset":-5,"gmtOffset":-6,"timeZoneId":"America/Winnipeg"},"lat":49.1919,"lng":-98.10136,"population":6395},{"id":5924417,"name":"Coaldale","timezone":{"dstOffset":-6,"gmtOffset":-7,"timeZoneId":"America/Edmonton"},"lat":49.7167,"lng":-112.61854,"population":6317},{"id":6159232,"name":"Summerland","timezone":{"dstOffset":-7,"gmtOffset":-8,"timeZoneId":"America/Vancouver"},"lat":49.59977,"lng":-119.66911,"population":6292},{"id":6156244,"name":"Stephenville","timezone":{"dstOffset":-2.5,"gmtOffset":-3.5,"timeZoneId":"America/St_Johns"},"lat":48.55001,"lng":-58.5818,"population":6278},{"id":6943488,"name":"Amqui","timezone":{"dstOffset":-4,"gmtOffset":-5,"timeZoneId":"America/Toronto"},"lat":48.46382,"lng":-67.43134,"population":6261},{"id":6295855,"name":"Beauceville","timezone":{"dstOffset":-4,"gmtOffset":-5,"timeZoneId":"America/Toronto"},"lat":46.21785,"lng":-70.77873,"population":6226},{"id":8354587,"name":"Saint-Lambert-de-Lauzon","timezone":{"dstOffset":-4,"gmtOffset":-5,"timeZoneId":"America/Toronto"},"lat":46.58624,"lng":-71.20892,"population":6177},{"id":6151264,"name":"Sooke","timezone":{"dstOffset":-7,"gmtOffset":-8,"timeZoneId":"America/Vancouver"},"lat":48.37463,"lng":-123.72762,"population":6145},{"id":5983720,"name":"Crystal Two","timezone":{"dstOffset":-4,"gmtOffset":-5,"timeZoneId":"America/Iqaluit"},"lat":63.74697,"lng":-68.51727,"population":6124},{"id":5942547,"name":"Drayton Valley","timezone":{"dstOffset":-6,"gmtOffset":-7,"timeZoneId":"America/Edmonton"},"lat":53.21682,"lng":-114.98544,"population":6099},{"id":5951644,"name":"Farnham","timezone":{"dstOffset":-4,"gmtOffset":-5,"timeZoneId":"America/Toronto"},"lat":45.28338,"lng":-72.98244,"population":6061},{"id":6164499,"name":"The Pas","timezone":{"dstOffset":-5,"gmtOffset":-6,"timeZoneId":"America/Winnipeg"},"lat":53.82509,"lng":-101.25413,"population":6055},{"id":5909403,"name":"Bromont","timezone":{"dstOffset":-4,"gmtOffset":-5,"timeZoneId":"America/Toronto"},"lat":45.31678,"lng":-72.64912,"population":6049},{"id":5905616,"name":"Bonnyville","timezone":{"dstOffset":-6,"gmtOffset":-7,"timeZoneId":"America/Edmonton"},"lat":54.26684,"lng":-110.73505,"population":6003},{"id":5954718,"name":"Flin Flon","timezone":{"dstOffset":-5,"gmtOffset":-6,"timeZoneId":"America/Winnipeg"},"lat":54.76824,"lng":-101.86497,"population":6002},{"id":6143367,"name":"Sechelt","timezone":{"dstOffset":-7,"gmtOffset":-8,"timeZoneId":"America/Vancouver"},"lat":49.47512,"lng":-123.75903,"population":5977},{"id":6111696,"name":"Port-Cartier","timezone":{"dstOffset":-4,"gmtOffset":-5,"timeZoneId":"America/Toronto"},"lat":50.03339,"lng":-66.86545,"population":5851},{"id":5965546,"name":"Gravenhurst","timezone":{"dstOffset":-4,"gmtOffset":-5,"timeZoneId":"America/Toronto"},"lat":44.91681,"lng":-79.36633,"population":5839},{"id":6060839,"name":"Louiseville","timezone":{"dstOffset":-4,"gmtOffset":-5,"timeZoneId":"America/Toronto"},"lat":46.25594,"lng":-72.94145,"population":5819},{"id":6137702,"name":"Sainte-Agathe-des-Monts","timezone":{"dstOffset":-4,"gmtOffset":-5,"timeZoneId":"America/Toronto"},"lat":46.05009,"lng":-74.28252,"population":5706},{"id":8379101,"name":"Princeville","timezone":{"dstOffset":-4,"gmtOffset":-5,"timeZoneId":"America/Toronto"},"lat":46.17163,"lng":-71.87462,"population":5693},{"id":6173635,"name":"Vegreville","timezone":{"dstOffset":-6,"gmtOffset":-7,"timeZoneId":"America/Edmonton"},"lat":53.50015,"lng":-112.05182,"population":5678},{"id":6002133,"name":"Lac Brome","timezone":{"dstOffset":-4,"gmtOffset":-5,"timeZoneId":"America/Toronto"},"lat":45.21678,"lng":-72.51581,"population":5629},{"id":6137749,"name":"Sainte-Anne-des-Monts","timezone":{"dstOffset":-4,"gmtOffset":-5,"timeZoneId":"America/Toronto"},"lat":49.12402,"lng":-66.49243,"population":5602},{"id":6066350,"name":"Marieville","timezone":{"dstOffset":-4,"gmtOffset":-5,"timeZoneId":"America/Toronto"},"lat":45.43338,"lng":-73.16585,"population":5600},{"id":5920089,"name":"Charlemagne","timezone":{"dstOffset":-4,"gmtOffset":-5,"timeZoneId":"America/Toronto"},"lat":45.71678,"lng":-73.48247,"population":5594},{"id":6113466,"name":"Princeville","timezone":{"dstOffset":-3,"gmtOffset":-4,"timeZoneId":"America/Halifax"},"lat":45.76684,"lng":-61.29853,"population":5571},{"id":7535690,"name":"Donnacona","timezone":{"dstOffset":-4,"gmtOffset":-5,"timeZoneId":"America/Toronto"},"lat":46.68042,"lng":-71.7239,"population":5564},{"id":6156307,"name":"Stettler","timezone":{"dstOffset":-6,"gmtOffset":-7,"timeZoneId":"America/Edmonton"},"lat":52.31683,"lng":-112.71861,"population":5494},{"id":5959326,"name":"Gananoque","timezone":{"dstOffset":-4,"gmtOffset":-5,"timeZoneId":"America/Toronto"},"lat":44.33342,"lng":-76.16607,"population":5458},{"id":6103581,"name":"Petrolia","timezone":{"dstOffset":-4,"gmtOffset":-5,"timeZoneId":"America/Toronto"},"lat":42.86678,"lng":-82.14981,"population":5453},{"id":6149996,"name":"Smithers","timezone":{"dstOffset":-7,"gmtOffset":-8,"timeZoneId":"America/Vancouver"},"lat":54.78036,"lng":-127.17428,"population":5438},{"id":6137063,"name":"Sackville","timezone":{"dstOffset":-3,"gmtOffset":-4,"timeZoneId":"America/Moncton"},"lat":45.91875,"lng":-64.38455,"population":5411},{"id":6071876,"name":"Melfort","timezone":{"dstOffset":-6,"gmtOffset":-6,"timeZoneId":"America/Regina"},"lat":52.86673,"lng":-104.61768,"population":5410},{"id":6182959,"name":"Windsor","timezone":{"dstOffset":-4,"gmtOffset":-5,"timeZoneId":"America/Toronto"},"lat":45.56678,"lng":-71.99909,"population":5408},{"id":6175059,"name":"Wainwright","timezone":{"dstOffset":-6,"gmtOffset":-7,"timeZoneId":"America/Edmonton"},"lat":52.83904,"lng":-110.85723,"population":5380},{"id":6100069,"name":"Peace River","timezone":{"dstOffset":-6,"gmtOffset":-7,"timeZoneId":"America/Edmonton"},"lat":56.2501,"lng":-117.28599,"population":5340},{"id":6088132,"name":"Nicolet","timezone":{"dstOffset":-4,"gmtOffset":-5,"timeZoneId":"America/Toronto"},"lat":46.21676,"lng":-72.61582,"population":5257},{"id":5938801,"name":"Devon","timezone":{"dstOffset":-6,"gmtOffset":-7,"timeZoneId":"America/Edmonton"},"lat":53.36683,"lng":-113.73533,"population":5225},{"id":6122037,"name":"Richelieu","timezone":{"dstOffset":-4,"gmtOffset":-5,"timeZoneId":"America/Toronto"},"lat":45.44336,"lng":-73.24602,"population":5208},{"id":6137733,"name":"Sainte-Anne-de-Bellevue","timezone":{"dstOffset":-4,"gmtOffset":-5,"timeZoneId":"America/Toronto"},"lat":45.40618,"lng":-73.9456,"population":5197},{"id":6077265,"name":"Montreal West","timezone":{"dstOffset":-4,"gmtOffset":-5,"timeZoneId":"America/Toronto"},"lat":45.45286,"lng":-73.64918,"population":5184},{"id":5882142,"name":"Acton Vale","timezone":{"dstOffset":-4,"gmtOffset":-5,"timeZoneId":"America/Toronto"},"lat":45.65007,"lng":-72.56582,"population":5135},{"id":5978126,"name":"Hudson","timezone":{"dstOffset":-4,"gmtOffset":-5,"timeZoneId":"America/Toronto"},"lat":45.45008,"lng":-74.14922,"population":5088},{"id":8354533,"name":"Shannon","timezone":{"dstOffset":-4,"gmtOffset":-5,"timeZoneId":"America/Toronto"},"lat":46.88026,"lng":-71.51464,"population":5086},{"id":6179138,"name":"Westlock","timezone":{"dstOffset":-6,"gmtOffset":-7,"timeZoneId":"America/Edmonton"},"lat":54.15016,"lng":-113.86876,"population":5067},{"id":8354586,"name":"Saint-Henri","timezone":{"dstOffset":-4,"gmtOffset":-5,"timeZoneId":"America/Toronto"},"lat":46.69314,"lng":-71.06927,"population":5023},{"id":6639619,"name":"Sainte Catherine de la Jacques Cartier","timezone":{"dstOffset":-4,"gmtOffset":-5,"timeZoneId":"America/Toronto"},"lat":46.85244,"lng":-71.62056,"population":5021},{"id":5952370,"name":"Fernie","timezone":{"dstOffset":-6,"gmtOffset":-7,"timeZoneId":"America/Edmonton"},"lat":49.49996,"lng":-115.06871,"population":5019},{"id":5886182,"name":"Antigonish","timezone":{"dstOffset":-3,"gmtOffset":-4,"timeZoneId":"America/Halifax"},"lat":45.61685,"lng":-61.99858,"population":5003},{"id":8131396,"name":"Breakeyville","timezone":{"dstOffset":-4,"gmtOffset":-5,"timeZoneId":"America/Toronto"},"lat":46.68037,"lng":-71.22327,"population":5000},{"id":5978404,"name":"Humboldt","timezone":{"dstOffset":-6,"gmtOffset":-6,"timeZoneId":"America/Regina"},"lat":52.20005,"lng":-105.1255,"population":4822},{"id":5932311,"name":"Creston","timezone":{"dstOffset":-7,"gmtOffset":-7,"timeZoneId":"America/Creston"},"lat":49.09987,"lng":-116.50211,"population":4816},{"id":6072482,"name":"Metchosin","timezone":{"dstOffset":-7,"gmtOffset":-8,"timeZoneId":"America/Vancouver"},"lat":48.38293,"lng":-123.53591,"population":4803},{"id":5973108,"name":"Hearst","timezone":{"dstOffset":-4,"gmtOffset":-5,"timeZoneId":"America/Toronto"},"lat":49.68351,"lng":-83.66654,"population":4746},{"id":5882534,"name":"Agassiz","timezone":{"dstOffset":-7,"gmtOffset":-8,"timeZoneId":"America/Vancouver"},"lat":49.23298,"lng":-121.76926,"population":4738},{"id":6145668,"name":"Shediac","timezone":{"dstOffset":-3,"gmtOffset":-4,"timeZoneId":"America/Moncton"},"lat":46.21981,"lng":-64.54107,"population":4735},{"id":5949493,"name":"Espanola","timezone":{"dstOffset":-4,"gmtOffset":-5,"timeZoneId":"America/Toronto"},"lat":46.25837,"lng":-81.76649,"population":4682},{"id":6032673,"name":"Lac-Mégantic","timezone":{"dstOffset":-4,"gmtOffset":-5,"timeZoneId":"America/Toronto"},"lat":45.58338,"lng":-70.88234,"population":4658},{"id":6093514,"name":"Oliver","timezone":{"dstOffset":-7,"gmtOffset":-8,"timeZoneId":"America/Vancouver"},"lat":49.18306,"lng":-119.5524,"population":4647},{"id":6065867,"name":"Marathon","timezone":{"dstOffset":-4,"gmtOffset":-5,"timeZoneId":"America/Toronto"},"lat":48.7501,"lng":-86.43322,"population":4627},{"id":5964230,"name":"Grand Bank","timezone":{"dstOffset":-2.5,"gmtOffset":-3.5,"timeZoneId":"America/St_Johns"},"lat":47.09995,"lng":-55.76504,"population":4623},{"id":6052583,"name":"L'Épiphanie","timezone":{"dstOffset":-4,"gmtOffset":-5,"timeZoneId":"America/Toronto"},"lat":45.85008,"lng":-73.48246,"population":4606},{"id":5976783,"name":"Hope","timezone":{"dstOffset":-7,"gmtOffset":-8,"timeZoneId":"America/Vancouver"},"lat":49.38299,"lng":-121.44144,"population":4598},{"id":7535692,"name":"La Pocatière","timezone":{"dstOffset":-4,"gmtOffset":-5,"timeZoneId":"America/Toronto"},"lat":47.34836,"lng":-70.06186,"population":4575},{"id":6067472,"name":"Marystown","timezone":{"dstOffset":-2.5,"gmtOffset":-3.5,"timeZoneId":"America/St_Johns"},"lat":47.16663,"lng":-55.14829,"population":4558},{"id":5955902,"name":"Fort Nelson","timezone":{"dstOffset":-7,"gmtOffset":-8,"timeZoneId":"America/Vancouver"},"lat":58.80533,"lng":-122.7002,"population":4514},{"id":7302644,"name":"Tracadie–Sheila","timezone":{"dstOffset":-3,"gmtOffset":-4,"timeZoneId":"America/Moncton"},"lat":47.51444,"lng":-64.91806,"population":4474},{"id":6113027,"name":"Prescott","timezone":{"dstOffset":-4,"gmtOffset":-5,"timeZoneId":"America/Toronto"},"lat":44.71681,"lng":-75.51604,"population":4466},{"id":7535693,"name":"Saint-Joseph-de-Beauce","timezone":{"dstOffset":-4,"gmtOffset":-5,"timeZoneId":"America/Toronto"},"lat":46.3,"lng":-70.86667,"population":4454},{"id":5894164,"name":"Barrhead","timezone":{"dstOffset":-6,"gmtOffset":-7,"timeZoneId":"America/Edmonton"},"lat":54.13345,"lng":-114.40211,"population":4430},{"id":5899017,"name":"Berthierville","timezone":{"dstOffset":-4,"gmtOffset":-5,"timeZoneId":"America/Toronto"},"lat":46.08336,"lng":-73.18245,"population":4411},{"id":6145890,"name":"Shelburne","timezone":{"dstOffset":-4,"gmtOffset":-5,"timeZoneId":"America/Toronto"},"lat":44.0787,"lng":-80.20408,"population":4390},{"id":6118417,"name":"Red Lake","timezone":{"dstOffset":-5,"gmtOffset":-6,"timeZoneId":"America/Winnipeg"},"lat":51.01676,"lng":-93.83374,"population":4366},{"id":6094665,"name":"Osoyoos","timezone":{"dstOffset":-7,"gmtOffset":-8,"timeZoneId":"America/Vancouver"},"lat":49.03306,"lng":-119.45237,"population":4314},{"id":5937073,"name":"Deep River","timezone":{"dstOffset":-4,"gmtOffset":-5,"timeZoneId":"America/Toronto"},"lat":46.10012,"lng":-77.49949,"population":4296},{"id":5970018,"name":"Hampton","timezone":{"dstOffset":-3,"gmtOffset":-4,"timeZoneId":"America/Moncton"},"lat":45.52876,"lng":-65.85354,"population":4292},{"id":6071421,"name":"Meadow Lake","timezone":{"dstOffset":-6,"gmtOffset":-6,"timeZoneId":"America/Regina"},"lat":54.13348,"lng":-108.43471,"population":4281},{"id":6071971,"name":"Melville","timezone":{"dstOffset":-6,"gmtOffset":-6,"timeZoneId":"America/Regina"},"lat":50.91671,"lng":-102.80099,"population":4279},{"id":5887048,"name":"Armstrong","timezone":{"dstOffset":-7,"gmtOffset":-8,"timeZoneId":"America/Vancouver"},"lat":50.44979,"lng":-119.20235,"population":4275},{"id":5992154,"name":"Kindersley","timezone":{"dstOffset":-6,"gmtOffset":-6,"timeZoneId":"America/Regina"},"lat":51.46681,"lng":-109.16818,"population":4249},{"id":6065262,"name":"Maniwaki","timezone":{"dstOffset":-4,"gmtOffset":-5,"timeZoneId":"America/Toronto"},"lat":46.38341,"lng":-75.96605,"population":4236},{"id":5984000,"name":"Iroquois Falls","timezone":{"dstOffset":-4,"gmtOffset":-5,"timeZoneId":"America/Toronto"},"lat":48.76688,"lng":-80.68307,"population":4232},{"id":5919815,"name":"Channel-Port aux Basques","timezone":{"dstOffset":-2.5,"gmtOffset":-3.5,"timeZoneId":"America/St_Johns"},"lat":47.57021,"lng":-59.13674,"population":4220},{"id":5964401,"name":"Grand Forks","timezone":{"dstOffset":-7,"gmtOffset":-8,"timeZoneId":"America/Vancouver"},"lat":49.03309,"lng":-118.4356,"population":4208},{"id":5966622,"name":"Greenstone","timezone":{"dstOffset":-4,"gmtOffset":-5,"timeZoneId":"America/Toronto"},"lat":49.73343,"lng":-87.16668,"population":4200},{"id":6160362,"name":"Swan River","timezone":{"dstOffset":-5,"gmtOffset":-6,"timeZoneId":"America/Winnipeg"},"lat":52.1058,"lng":-101.26759,"population":4198},{"id":6138987,"name":"Saint-Rémi","timezone":{"dstOffset":-4,"gmtOffset":-5,"timeZoneId":"America/Toronto"},"lat":45.26678,"lng":-73.61588,"population":4192},{"id":6157355,"name":"Stonewall","timezone":{"dstOffset":-5,"gmtOffset":-6,"timeZoneId":"America/Winnipeg"},"lat":50.13441,"lng":-97.32676,"population":4177},{"id":5937252,"name":"Deer Lake","timezone":{"dstOffset":-2.5,"gmtOffset":-3.5,"timeZoneId":"America/St_Johns"},"lat":49.16671,"lng":-57.43163,"population":4163},{"id":6124931,"name":"Rivière-Rouge","timezone":{"dstOffset":-4,"gmtOffset":-5,"timeZoneId":"America/Toronto"},"lat":46.41679,"lng":-74.86596,"population":4152},{"id":6173801,"name":"Vermilion","timezone":{"dstOffset":-6,"gmtOffset":-7,"timeZoneId":"America/Edmonton"},"lat":53.35409,"lng":-110.85849,"population":4151},{"id":5939210,"name":"Didsbury","timezone":{"dstOffset":-6,"gmtOffset":-7,"timeZoneId":"America/Edmonton"},"lat":51.66681,"lng":-114.13529,"population":4134},{"id":7535694,"name":"Metabetchouan-Lac-a-la-Croix","timezone":{"dstOffset":-4,"gmtOffset":-5,"timeZoneId":"America/Toronto"},"lat":48.41,"lng":-71.78,"population":4084},{"id":6067033,"name":"Martensville","timezone":{"dstOffset":-6,"gmtOffset":-6,"timeZoneId":"America/Regina"},"lat":52.28339,"lng":-106.66792,"population":4078},{"id":6693777,"name":"Carleton-sur-Mer","timezone":{"dstOffset":-4,"gmtOffset":-5,"timeZoneId":"America/Toronto"},"lat":48.10749,"lng":-66.128,"population":4077},{"id":6176821,"name":"Waterloo","timezone":{"dstOffset":-4,"gmtOffset":-5,"timeZoneId":"America/Toronto"},"lat":45.35008,"lng":-72.51582,"population":4064},{"id":6159980,"name":"Sussex","timezone":{"dstOffset":-3,"gmtOffset":-4,"timeZoneId":"America/Moncton"},"lat":45.72266,"lng":-65.50663,"population":4048},{"id":5962582,"name":"Golden","timezone":{"dstOffset":-6,"gmtOffset":-7,"timeZoneId":"America/Edmonton"},"lat":51.29995,"lng":-116.9689,"population":4038},{"id":6173750,"name":"Verchères","timezone":{"dstOffset":-4,"gmtOffset":-5,"timeZoneId":"America/Toronto"},"lat":45.78338,"lng":-73.34916,"population":4030},{"id":5964304,"name":"Grande Cache","timezone":{"dstOffset":-6,"gmtOffset":-7,"timeZoneId":"America/Edmonton"},"lat":53.88335,"lng":-119.13585,"population":4025},{"id":6088469,"name":"Nipawin","timezone":{"dstOffset":-6,"gmtOffset":-6,"timeZoneId":"America/Regina"},"lat":53.36678,"lng":-104.00092,"population":3994},{"id":6104215,"name":"Picton","timezone":{"dstOffset":-4,"gmtOffset":-5,"timeZoneId":"America/Toronto"},"lat":44.00012,"lng":-77.13275,"population":3983},{"id":6137462,"name":"Saint-Augustin","timezone":{"dstOffset":-4,"gmtOffset":-4,"timeZoneId":"America/Blanc-Sablon"},"lat":51.22602,"lng":-58.65017,"population":3961},{"id":6154202,"name":"Springhill","timezone":{"dstOffset":-3,"gmtOffset":-4,"timeZoneId":"America/Halifax"},"lat":45.65015,"lng":-64.04873,"population":3940},{"id":5985934,"name":"Jasper Park Lodge","timezone":{"dstOffset":-6,"gmtOffset":-7,"timeZoneId":"America/Edmonton"},"lat":52.88633,"lng":-118.05625,"population":3907},{"id":5890542,"name":"Baie-D'Urfé","timezone":{"dstOffset":-4,"gmtOffset":-5,"timeZoneId":"America/Toronto"},"lat":45.41397,"lng":-73.91586,"population":3902},{"id":6182958,"name":"Windsor","timezone":{"dstOffset":-3,"gmtOffset":-4,"timeZoneId":"America/Halifax"},"lat":44.98345,"lng":-64.13204,"population":3864},{"id":6104841,"name":"Pincher Creek","timezone":{"dstOffset":-6,"gmtOffset":-7,"timeZoneId":"America/Edmonton"},"lat":49.48328,"lng":-113.95195,"population":3855},{"id":5892510,"name":"Bancroft","timezone":{"dstOffset":-4,"gmtOffset":-5,"timeZoneId":"America/Toronto"},"lat":45.05752,"lng":-77.85702,"population":3838},{"id":6077251,"name":"Montreal East","timezone":{"dstOffset":-4,"gmtOffset":-5,"timeZoneId":"America/Toronto"},"lat":45.63202,"lng":-73.5075,"population":3822},{"id":5923125,"name":"Claresholm","timezone":{"dstOffset":-6,"gmtOffset":-7,"timeZoneId":"America/Edmonton"},"lat":50.03332,"lng":-113.58524,"population":3808},{"id":6160070,"name":"Sutton","timezone":{"dstOffset":-4,"gmtOffset":-5,"timeZoneId":"America/Toronto"},"lat":45.10008,"lng":-72.61582,"population":3805},{"id":5958590,"name":"Fruitvale","timezone":{"dstOffset":-7,"gmtOffset":-8,"timeZoneId":"America/Vancouver"},"lat":49.11654,"lng":-117.55222,"population":3790},{"id":6943826,"name":"New-Richmond","timezone":{"dstOffset":-4,"gmtOffset":-5,"timeZoneId":"America/Toronto"},"lat":48.16059,"lng":-65.85823,"population":3748},{"id":6104221,"name":"Pictou","timezone":{"dstOffset":-3,"gmtOffset":-4,"timeZoneId":"America/Halifax"},"lat":45.67875,"lng":-62.70936,"population":3732},{"id":6064704,"name":"Malartic","timezone":{"dstOffset":-4,"gmtOffset":-5,"timeZoneId":"America/Toronto"},"lat":48.13348,"lng":-78.13283,"population":3710},{"id":6153250,"name":"Sparwood","timezone":{"dstOffset":-6,"gmtOffset":-7,"timeZoneId":"America/Edmonton"},"lat":49.73332,"lng":-114.88532,"population":3667},{"id":5902458,"name":"Black Diamond","timezone":{"dstOffset":-6,"gmtOffset":-7,"timeZoneId":"America/Edmonton"},"lat":50.70011,"lng":-114.2353,"population":3663},{"id":5905393,"name":"Bonavista","timezone":{"dstOffset":-2.5,"gmtOffset":-3.5,"timeZoneId":"America/St_Johns"},"lat":48.64989,"lng":-53.11474,"population":3658},{"id":5916821,"name":"Cardston","timezone":{"dstOffset":-6,"gmtOffset":-7,"timeZoneId":"America/Edmonton"},"lat":49.19998,"lng":-113.3019,"population":3654},{"id":6325572,"name":"Neuville","timezone":{"dstOffset":-4,"gmtOffset":-5,"timeZoneId":"America/Toronto"},"lat":46.69823,"lng":-71.58275,"population":3638},{"id":5945016,"name":"East Angus","timezone":{"dstOffset":-4,"gmtOffset":-5,"timeZoneId":"America/Toronto"},"lat":45.48338,"lng":-71.66577,"population":3634},{"id":5975004,"name":"High Level","timezone":{"dstOffset":-6,"gmtOffset":-7,"timeZoneId":"America/Edmonton"},"lat":58.51688,"lng":-117.13605,"population":3621},{"id":6127950,"name":"Rossland","timezone":{"dstOffset":-7,"gmtOffset":-8,"timeZoneId":"America/Vancouver"},"lat":49.08313,"lng":-117.80224,"population":3619},{"id":5884260,"name":"Altona","timezone":{"dstOffset":-5,"gmtOffset":-6,"timeZoneId":"America/Winnipeg"},"lat":49.10469,"lng":-97.55961,"population":3613},{"id":5921060,"name":"Chestermere","timezone":{"dstOffset":-6,"gmtOffset":-7,"timeZoneId":"America/Edmonton"},"lat":51.03341,"lng":-113.81867,"population":3590},{"id":5927024,"name":"Contrecoeur","timezone":{"dstOffset":-4,"gmtOffset":-5,"timeZoneId":"America/Toronto"},"lat":45.85008,"lng":-73.23245,"population":3587},{"id":6111867,"name":"Port Hawkesbury","timezone":{"dstOffset":-3,"gmtOffset":-4,"timeZoneId":"America/Halifax"},"lat":45.61685,"lng":-61.34853,"population":3564},{"id":6325486,"name":"Château-Richer","timezone":{"dstOffset":-4,"gmtOffset":-5,"timeZoneId":"America/Toronto"},"lat":46.96031,"lng":-71.03219,"population":3563},{"id":5906690,"name":"Bowen Island","timezone":{"dstOffset":-7,"gmtOffset":-8,"timeZoneId":"America/Vancouver"},"lat":49.3847,"lng":-123.33622,"population":3551},{"id":6944112,"name":"Forestville","timezone":{"dstOffset":-4,"gmtOffset":-5,"timeZoneId":"America/Toronto"},"lat":48.73808,"lng":-69.08478,"population":3543},{"id":6183858,"name":"Wolfville","timezone":{"dstOffset":-3,"gmtOffset":-4,"timeZoneId":"America/Halifax"},"lat":45.08345,"lng":-64.36546,"population":3523},{"id":6122078,"name":"Richmond","timezone":{"dstOffset":-4,"gmtOffset":-5,"timeZoneId":"America/Toronto"},"lat":45.66677,"lng":-72.1491,"population":3485},{"id":5923119,"name":"Clarenville-Shoal Harbour","timezone":{"dstOffset":-2.5,"gmtOffset":-3.5,"timeZoneId":"America/St_Johns"},"lat":48.1805,"lng":-53.96982,"population":3478},{"id":5972762,"name":"Hay River","timezone":{"dstOffset":-6,"gmtOffset":-7,"timeZoneId":"America/Yellowknife"},"lat":60.81555,"lng":-115.79993,"population":3400},{"id":5888001,"name":"Atikokan","timezone":{"dstOffset":-5,"gmtOffset":-5,"timeZoneId":"America/Atikokan"},"lat":48.75667,"lng":-91.62409,"population":3400},{"id":6117675,"name":"Raymond","timezone":{"dstOffset":-6,"gmtOffset":-7,"timeZoneId":"America/Edmonton"},"lat":49.44998,"lng":-112.65185,"population":3365},{"id":6176393,"name":"Warwick","timezone":{"dstOffset":-4,"gmtOffset":-5,"timeZoneId":"America/Toronto"},"lat":45.95007,"lng":-71.9824,"population":3340},{"id":5951036,"name":"Fairview, Alberta","timezone":{"dstOffset":-6,"gmtOffset":-7,"timeZoneId":"America/Edmonton"},"lat":56.06675,"lng":-118.38606,"population":3312},{"id":6051264,"name":"Lebel-sur-Quévillon","timezone":{"dstOffset":-4,"gmtOffset":-5,"timeZoneId":"America/Toronto"},"lat":49.05018,"lng":-76.98273,"population":3289},{"id":6176226,"name":"Warman","timezone":{"dstOffset":-6,"gmtOffset":-6,"timeZoneId":"America/Regina"},"lat":52.31679,"lng":-106.56791,"population":3252},{"id":6174457,"name":"Virden","timezone":{"dstOffset":-5,"gmtOffset":-6,"timeZoneId":"America/Winnipeg"},"lat":49.8508,"lng":-100.93262,"population":3237},{"id":6144195,"name":"Senneterre","timezone":{"dstOffset":-4,"gmtOffset":-5,"timeZoneId":"America/Toronto"},"lat":48.39302,"lng":-77.23951,"population":3228},{"id":5972961,"name":"Headingley","timezone":{"dstOffset":-5,"gmtOffset":-6,"timeZoneId":"America/Winnipeg"},"lat":49.8753,"lng":-97.40896,"population":3215},{"id":6137947,"name":"Sainte-Julienne","timezone":{"dstOffset":-4,"gmtOffset":-5,"timeZoneId":"America/Toronto"},"lat":45.96677,"lng":-73.71587,"population":3211},{"id":7731837,"name":"Harrison Brook","timezone":{"dstOffset":-3,"gmtOffset":-4,"timeZoneId":"America/Moncton"},"lat":47.21304,"lng":-67.92847,"population":3200},{"id":6944109,"name":"Cabano","timezone":{"dstOffset":-4,"gmtOffset":-5,"timeZoneId":"America/Toronto"},"lat":47.68065,"lng":-68.8781,"population":3199},{"id":5902599,"name":"Blackfalds","timezone":{"dstOffset":-6,"gmtOffset":-7,"timeZoneId":"America/Edmonton"},"lat":52.38342,"lng":-113.7853,"population":3198},{"id":6137571,"name":"Saint-Césaire","timezone":{"dstOffset":-4,"gmtOffset":-5,"timeZoneId":"America/Toronto"},"lat":45.41678,"lng":-72.99914,"population":3175},{"id":6138212,"name":"Saint-Félix-de-Valois","timezone":{"dstOffset":-4,"gmtOffset":-5,"timeZoneId":"America/Toronto"},"lat":46.16677,"lng":-73.43245,"population":3165},{"id":6086673,"name":"Neepawa","timezone":{"dstOffset":-5,"gmtOffset":-6,"timeZoneId":"America/Winnipeg"},"lat":50.22892,"lng":-99.46642,"population":3151},{"id":5970234,"name":"Hanna","timezone":{"dstOffset":-6,"gmtOffset":-7,"timeZoneId":"America/Edmonton"},"lat":51.63343,"lng":-111.90181,"population":3140},{"id":6085960,"name":"Napierville","timezone":{"dstOffset":-4,"gmtOffset":-5,"timeZoneId":"America/Toronto"},"lat":45.18648,"lng":-73.40468,"population":3124},{"id":6167817,"name":"Torbay","timezone":{"dstOffset":-2.5,"gmtOffset":-3.5,"timeZoneId":"America/St_Johns"},"lat":47.66659,"lng":-52.73135,"population":3097},{"id":5918021,"name":"Casselman","timezone":{"dstOffset":-4,"gmtOffset":-5,"timeZoneId":"America/Toronto"},"lat":45.3168,"lng":-75.0826,"population":3074},{"id":6050066,"name":"La Ronge","timezone":{"dstOffset":-6,"gmtOffset":-6,"timeZoneId":"America/Regina"},"lat":55.10013,"lng":-105.28422,"population":3071},{"id":5955891,"name":"Fort Macleod","timezone":{"dstOffset":-6,"gmtOffset":-7,"timeZoneId":"America/Edmonton"},"lat":49.71671,"lng":-113.41857,"population":3060},{"id":6165875,"name":"Three Hills","timezone":{"dstOffset":-6,"gmtOffset":-7,"timeZoneId":"America/Edmonton"},"lat":51.70012,"lng":-113.26863,"population":3051},{"id":5983607,"name":"Inuvik","timezone":{"dstOffset":-6,"gmtOffset":-7,"timeZoneId":"America/Inuvik"},"lat":68.34986,"lng":-133.72181,"population":3022},{"id":6138413,"name":"Saint-Jacques","timezone":{"dstOffset":-4,"gmtOffset":-5,"timeZoneId":"America/Toronto"},"lat":45.95007,"lng":-73.56586,"population":2985},{"id":5952337,"name":"Fermont","timezone":{"dstOffset":-4,"gmtOffset":-5,"timeZoneId":"America/Toronto"},"lat":52.78345,"lng":-67.08204,"population":2966},{"id":5972291,"name":"Havre-St-Pierre","timezone":{"dstOffset":-4,"gmtOffset":-5,"timeZoneId":"America/Toronto"},"lat":50.24342,"lng":-63.60264,"population":2966},{"id":5917275,"name":"Carman","timezone":{"dstOffset":-5,"gmtOffset":-6,"timeZoneId":"America/Winnipeg"},"lat":49.4992,"lng":-98.00156,"population":2948},{"id":5906229,"name":"Botwood","timezone":{"dstOffset":-2.5,"gmtOffset":-3.5,"timeZoneId":"America/St_Johns"},"lat":49.14994,"lng":-55.34819,"population":2940},{"id":6053446,"name":"Lewisporte","timezone":{"dstOffset":-2.5,"gmtOffset":-3.5,"timeZoneId":"America/St_Johns"},"lat":49.24993,"lng":-55.04816,"population":2935},{"id":6137539,"name":"Saint-Bruno-de-Guigues","timezone":{"dstOffset":-4,"gmtOffset":-5,"timeZoneId":"America/Toronto"},"lat":47.46685,"lng":-79.43296,"population":2928},{"id":6183141,"name":"Wingham","timezone":{"dstOffset":-4,"gmtOffset":-5,"timeZoneId":"America/Toronto"},"lat":43.88793,"lng":-81.31145,"population":2923},{"id":6028050,"name":"Lac La Biche","timezone":{"dstOffset":-6,"gmtOffset":-7,"timeZoneId":"America/Edmonton"},"lat":54.7669,"lng":-111.96861,"population":2919},{"id":5955797,"name":"Fort-Coulonge","timezone":{"dstOffset":-4,"gmtOffset":-5,"timeZoneId":"America/Toronto"},"lat":45.85011,"lng":-76.73272,"population":2911},{"id":6138260,"name":"Saint-Gabriel","timezone":{"dstOffset":-4,"gmtOffset":-5,"timeZoneId":"America/Toronto"},"lat":46.30007,"lng":-73.38245,"population":2901},{"id":5896549,"name":"Beausejour","timezone":{"dstOffset":-5,"gmtOffset":-6,"timeZoneId":"America/Winnipeg"},"lat":50.0622,"lng":-96.51669,"population":2886},{"id":5977783,"name":"Houston","timezone":{"dstOffset":-7,"gmtOffset":-8,"timeZoneId":"America/Vancouver"},"lat":54.39976,"lng":-126.67008,"population":2884},{"id":5975034,"name":"High Prairie","timezone":{"dstOffset":-6,"gmtOffset":-7,"timeZoneId":"America/Edmonton"},"lat":55.4334,"lng":-116.4858,"population":2878},{"id":5983626,"name":"Invermere","timezone":{"dstOffset":-6,"gmtOffset":-7,"timeZoneId":"America/Edmonton"},"lat":50.51666,"lng":-116.03538,"population":2871},{"id":6048316,"name":"Lake Cowichan","timezone":{"dstOffset":-7,"gmtOffset":-8,"timeZoneId":"America/Vancouver"},"lat":48.82495,"lng":-124.05461,"population":2870},{"id":5978683,"name":"Huntingdon","timezone":{"dstOffset":-4,"gmtOffset":-5,"timeZoneId":"America/Toronto"},"lat":45.08339,"lng":-74.16593,"population":2865},{"id":6166987,"name":"Tisdale","timezone":{"dstOffset":-6,"gmtOffset":-6,"timeZoneId":"America/Regina"},"lat":52.85002,"lng":-104.05096,"population":2862},{"id":6174335,"name":"Ville-Marie","timezone":{"dstOffset":-4,"gmtOffset":-5,"timeZoneId":"America/Toronto"},"lat":47.33345,"lng":-79.43297,"population":2831},{"id":5948770,"name":"Enderby","timezone":{"dstOffset":-7,"gmtOffset":-8,"timeZoneId":"America/Vancouver"},"lat":50.5498,"lng":-119.15234,"population":2830},{"id":6325479,"name":"Beaupré","timezone":{"dstOffset":-4,"gmtOffset":-5,"timeZoneId":"America/Toronto"},"lat":47.04428,"lng":-70.89529,"population":2803},{"id":5960842,"name":"Gibbons","timezone":{"dstOffset":-6,"gmtOffset":-7,"timeZoneId":"America/Edmonton"},"lat":53.83345,"lng":-113.33531,"population":2790},{"id":8379097,"name":"Pohénégamook","timezone":{"dstOffset":-4,"gmtOffset":-5,"timeZoneId":"America/Toronto"},"lat":47.46315,"lng":-69.22666,"population":2770},{"id":6147353,"name":"Sicamous","timezone":{"dstOffset":-7,"gmtOffset":-8,"timeZoneId":"America/Vancouver"},"lat":50.83312,"lng":-118.98565,"population":2732},{"id":6089179,"name":"Normandin","timezone":{"dstOffset":-4,"gmtOffset":-5,"timeZoneId":"America/Toronto"},"lat":48.83328,"lng":-72.53209,"population":2728},{"id":6113463,"name":"Princeton","timezone":{"dstOffset":-7,"gmtOffset":-8,"timeZoneId":"America/Vancouver"},"lat":49.45802,"lng":-120.51076,"population":2706},{"id":7731836,"name":"Saint-Léonard","timezone":{"dstOffset":-3,"gmtOffset":-4,"timeZoneId":"America/Moncton"},"lat":47.16317,"lng":-67.9246,"population":2700},{"id":5897323,"name":"Bedford","timezone":{"dstOffset":-4,"gmtOffset":-5,"timeZoneId":"America/Toronto"},"lat":45.11678,"lng":-72.98244,"population":2684},{"id":6943825,"name":"Bonaventure","timezone":{"dstOffset":-4,"gmtOffset":-5,"timeZoneId":"America/Toronto"},"lat":48.04573,"lng":-65.49259,"population":2673},{"id":7535673,"name":"Cap-Santé","timezone":{"dstOffset":-4,"gmtOffset":-5,"timeZoneId":"America/Toronto"},"lat":46.67159,"lng":-71.78812,"population":2666},{"id":5882428,"name":"Adstock","timezone":{"dstOffset":-4,"gmtOffset":-5,"timeZoneId":"America/Toronto"},"lat":46.05007,"lng":-71.08235,"population":2643},{"id":6137533,"name":"Saint-Bruno","timezone":{"dstOffset":-4,"gmtOffset":-5,"timeZoneId":"America/Toronto"},"lat":48.46679,"lng":-71.6491,"population":2636},{"id":5911745,"name":"Burns Lake","timezone":{"dstOffset":-7,"gmtOffset":-8,"timeZoneId":"America/Vancouver"},"lat":54.2331,"lng":-125.7533,"population":2635},{"id":5933885,"name":"Cumberland","timezone":{"dstOffset":-7,"gmtOffset":-8,"timeZoneId":"America/Vancouver"},"lat":49.61634,"lng":-125.03613,"population":2630},{"id":5921091,"name":"Chetwynd","timezone":{"dstOffset":-7,"gmtOffset":-7,"timeZoneId":"America/Dawson_Creek"},"lat":55.69988,"lng":-121.63627,"population":2587},{"id":5947708,"name":"Elkford","timezone":{"dstOffset":-6,"gmtOffset":-7,"timeZoneId":"America/Edmonton"},"lat":50.05007,"lng":-114.8854,"population":2585},{"id":5967157,"name":"Grimshaw","timezone":{"dstOffset":-6,"gmtOffset":-7,"timeZoneId":"America/Edmonton"},"lat":56.18339,"lng":-117.6027,"population":2560},{"id":5887916,"name":"Athabasca","timezone":{"dstOffset":-6,"gmtOffset":-7,"timeZoneId":"America/Edmonton"},"lat":54.71687,"lng":-113.28537,"population":2539},{"id":6138038,"name":"Sainte-Martine","timezone":{"dstOffset":-4,"gmtOffset":-5,"timeZoneId":"America/Toronto"},"lat":45.25008,"lng":-73.79919,"population":2535},{"id":6074882,"name":"Minnedosa","timezone":{"dstOffset":-5,"gmtOffset":-6,"timeZoneId":"America/Winnipeg"},"lat":50.24532,"lng":-99.84364,"population":2526},{"id":6122288,"name":"Rigaud","timezone":{"dstOffset":-4,"gmtOffset":-5,"timeZoneId":"America/Toronto"},"lat":45.47927,"lng":-74.30238,"population":2525},{"id":5937497,"name":"Delaware","timezone":{"dstOffset":-4,"gmtOffset":-5,"timeZoneId":"America/Toronto"},"lat":42.91679,"lng":-81.41646,"population":2521},{"id":5933070,"name":"Crossfield","timezone":{"dstOffset":-6,"gmtOffset":-7,"timeZoneId":"America/Edmonton"},"lat":51.43341,"lng":-114.03528,"population":2512},{"id":6166224,"name":"Thurso","timezone":{"dstOffset":-4,"gmtOffset":-5,"timeZoneId":"America/Toronto"},"lat":45.6001,"lng":-75.24931,"population":2476},{"id":6062069,"name":"Lunenburg","timezone":{"dstOffset":-3,"gmtOffset":-4,"timeZoneId":"America/Halifax"},"lat":44.37847,"lng":-64.31658,"population":2473},{"id":5920381,"name":"Chase","timezone":{"dstOffset":-7,"gmtOffset":-8,"timeZoneId":"America/Vancouver"},"lat":50.8165,"lng":-119.68571,"population":2471},{"id":5956869,"name":"Fox Creek","timezone":{"dstOffset":-6,"gmtOffset":-7,"timeZoneId":"America/Edmonton"},"lat":54.40007,"lng":-116.80238,"population":2457},{"id":6139154,"name":"Saint-Tite","timezone":{"dstOffset":-4,"gmtOffset":-5,"timeZoneId":"America/Toronto"},"lat":46.73336,"lng":-72.56581,"population":2456},{"id":6170118,"name":"Tumbler Ridge","timezone":{"dstOffset":-7,"gmtOffset":-7,"timeZoneId":"America/Dawson_Creek"},"lat":55.13027,"lng":-120.99415,"population":2454},{"id":6172998,"name":"Valcourt","timezone":{"dstOffset":-4,"gmtOffset":-5,"timeZoneId":"America/Toronto"},"lat":45.50008,"lng":-72.31581,"population":2451},{"id":6067959,"name":"Mattawa","timezone":{"dstOffset":-4,"gmtOffset":-5,"timeZoneId":"America/Toronto"},"lat":46.31681,"lng":-78.69957,"population":2415},{"id":6159474,"name":"Sundre","timezone":{"dstOffset":-6,"gmtOffset":-7,"timeZoneId":"America/Edmonton"},"lat":51.8001,"lng":-114.63532,"population":2384},{"id":5917688,"name":"Carstairs","timezone":{"dstOffset":-6,"gmtOffset":-7,"timeZoneId":"America/Edmonton"},"lat":51.56681,"lng":-114.102,"population":2370},{"id":5955954,"name":"Fort Smith","timezone":{"dstOffset":-6,"gmtOffset":-7,"timeZoneId":"America/Edmonton"},"lat":60.00029,"lng":-111.88543,"population":2364},{"id":5991907,"name":"Killarney","timezone":{"dstOffset":-5,"gmtOffset":-6,"timeZoneId":"America/Winnipeg"},"lat":49.18332,"lng":-99.66364,"population":2362},{"id":6174727,"name":"Wabana","timezone":{"dstOffset":-2.5,"gmtOffset":-3.5,"timeZoneId":"America/St_Johns"},"lat":47.63319,"lng":-52.94806,"population":2362},{"id":6138719,"name":"Saint-Marc-des-Carrières","timezone":{"dstOffset":-4,"gmtOffset":-5,"timeZoneId":"America/Toronto"},"lat":46.68335,"lng":-72.0491,"population":2358},{"id":6116548,"name":"Rankin Inlet","timezone":{"dstOffset":-5,"gmtOffset":-6,"timeZoneId":"America/Rankin_Inlet"},"lat":62.81732,"lng":-92.08324,"population":2334},{"id":6945979,"name":"Lillooet","timezone":{"dstOffset":-7,"gmtOffset":-8,"timeZoneId":"America/Vancouver"},"lat":50.6856,"lng":-121.942,"population":2324},{"id":5887798,"name":"Assiniboia","timezone":{"dstOffset":-6,"gmtOffset":-6,"timeZoneId":"America/Regina"},"lat":49.63336,"lng":-105.98446,"population":2320},{"id":6127749,"name":"Rosetown","timezone":{"dstOffset":-6,"gmtOffset":-6,"timeZoneId":"America/Regina"},"lat":51.5501,"lng":-108.00136,"population":2309},{"id":5928063,"name":"Cornwall","timezone":{"dstOffset":-3,"gmtOffset":-4,"timeZoneId":"America/Halifax"},"lat":46.22652,"lng":-63.21809,"population":2272},{"id":5899061,"name":"Berwick","timezone":{"dstOffset":-3,"gmtOffset":-4,"timeZoneId":"America/Halifax"},"lat":45.05015,"lng":-64.73208,"population":2271},{"id":6098924,"name":"Pasadena","timezone":{"dstOffset":-2.5,"gmtOffset":-3.5,"timeZoneId":"America/St_Johns"},"lat":49.01671,"lng":-57.59837,"population":2248},{"id":5931427,"name":"Crabtree","timezone":{"dstOffset":-4,"gmtOffset":-5,"timeZoneId":"America/Toronto"},"lat":45.96677,"lng":-73.46586,"population":2248},{"id":6122374,"name":"Rimbey","timezone":{"dstOffset":-6,"gmtOffset":-7,"timeZoneId":"America/Edmonton"},"lat":52.6334,"lng":-114.23532,"population":2227},{"id":5896969,"name":"Beaverlodge","timezone":{"dstOffset":-6,"gmtOffset":-7,"timeZoneId":"America/Edmonton"},"lat":55.21664,"lng":-119.43605,"population":2219},{"id":6078359,"name":"Moosomin","timezone":{"dstOffset":-6,"gmtOffset":-6,"timeZoneId":"America/Regina"},"lat":50.13332,"lng":-101.66766,"population":2206},{"id":5949563,"name":"Esterhazy","timezone":{"dstOffset":-6,"gmtOffset":-6,"timeZoneId":"America/Regina"},"lat":50.65001,"lng":-102.08426,"population":2194},{"id":6100799,"name":"Pemberton","timezone":{"dstOffset":-7,"gmtOffset":-8,"timeZoneId":"America/Vancouver"},"lat":50.31641,"lng":-122.80273,"population":2192},{"id":6058415,"name":"Logan Lake","timezone":{"dstOffset":-7,"gmtOffset":-8,"timeZoneId":"America/Vancouver"},"lat":50.49976,"lng":-120.80253,"population":2190},{"id":6104231,"name":"Picture Butte","timezone":{"dstOffset":-6,"gmtOffset":-7,"timeZoneId":"America/Edmonton"},"lat":49.8833,"lng":-112.78516,"population":2175},{"id":6104329,"name":"Pierreville","timezone":{"dstOffset":-4,"gmtOffset":-5,"timeZoneId":"America/Toronto"},"lat":46.07034,"lng":-72.81125,"population":2172},{"id":6137631,"name":"Saint-Côme--Linière","timezone":{"dstOffset":-4,"gmtOffset":-5,"timeZoneId":"America/Toronto"},"lat":46.06677,"lng":-70.51573,"population":2167},{"id":6055388,"name":"Little Current","timezone":{"dstOffset":-4,"gmtOffset":-5,"timeZoneId":"America/Toronto"},"lat":45.97927,"lng":-81.9248,"population":2156},{"id":6138310,"name":"Saint-Germain-de-Grantham","timezone":{"dstOffset":-4,"gmtOffset":-5,"timeZoneId":"America/Toronto"},"lat":45.83337,"lng":-72.56582,"population":2145},{"id":6074099,"name":"Millet","timezone":{"dstOffset":-6,"gmtOffset":-7,"timeZoneId":"America/Edmonton"},"lat":53.10013,"lng":-113.4687,"population":2142},{"id":6065592,"name":"Maple Creek","timezone":{"dstOffset":-6,"gmtOffset":-6,"timeZoneId":"America/Regina"},"lat":49.91678,"lng":-109.48481,"population":2121},{"id":5952330,"name":"Ferme-Neuve","timezone":{"dstOffset":-4,"gmtOffset":-5,"timeZoneId":"America/Toronto"},"lat":46.70011,"lng":-75.44929,"population":2115},{"id":6172009,"name":"Unity","timezone":{"dstOffset":-6,"gmtOffset":-6,"timeZoneId":"America/Regina"},"lat":52.45014,"lng":-109.16816,"population":2096},{"id":6064202,"name":"Magrath","timezone":{"dstOffset":-6,"gmtOffset":-7,"timeZoneId":"America/Edmonton"},"lat":49.41668,"lng":-112.86856,"population":2095},{"id":6113828,"name":"Provost","timezone":{"dstOffset":-6,"gmtOffset":-7,"timeZoneId":"America/Edmonton"},"lat":52.35014,"lng":-110.26828,"population":2082},{"id":5899982,"name":"Biggar","timezone":{"dstOffset":-6,"gmtOffset":-6,"timeZoneId":"America/Regina"},"lat":52.0668,"lng":-108.00135,"population":2068},{"id":5915098,"name":"Canora","timezone":{"dstOffset":-6,"gmtOffset":-6,"timeZoneId":"America/Regina"},"lat":51.63328,"lng":-102.43425,"population":2055},{"id":5939236,"name":"Digby","timezone":{"dstOffset":-3,"gmtOffset":-4,"timeZoneId":"America/Halifax"},"lat":44.62188,"lng":-65.7586,"population":2052},{"id":5906757,"name":"Bow Island","timezone":{"dstOffset":-6,"gmtOffset":-7,"timeZoneId":"America/Edmonton"},"lat":49.86676,"lng":-111.36843,"population":2025},{"id":6137381,"name":"Saint-Ambroise","timezone":{"dstOffset":-4,"gmtOffset":-5,"timeZoneId":"America/Toronto"},"lat":48.55009,"lng":-71.33238,"population":2015},{"id":5961417,"name":"Gimli","timezone":{"dstOffset":-5,"gmtOffset":-6,"timeZoneId":"America/Winnipeg"},"lat":50.63362,"lng":-96.99066,"population":2009},{"id":6076690,"name":"Montague","timezone":{"dstOffset":-3,"gmtOffset":-4,"timeZoneId":"America/Halifax"},"lat":46.16681,"lng":-62.64866,"population":2005},{"id":5913601,"name":"Calmar","timezone":{"dstOffset":-6,"gmtOffset":-7,"timeZoneId":"America/Edmonton"},"lat":53.26683,"lng":-113.81874,"population":2000},{"id":5922281,"name":"Chute-aux-Outardes","timezone":{"dstOffset":-4,"gmtOffset":-5,"timeZoneId":"America/Toronto"},"lat":49.11679,"lng":-68.39896,"population":2000},{"id":6088677,"name":"Niverville","timezone":{"dstOffset":-5,"gmtOffset":-6,"timeZoneId":"America/Winnipeg"},"lat":49.60559,"lng":-97.04234,"population":2000},{"id":6175108,"name":"Wakefield","timezone":{"dstOffset":-4,"gmtOffset":-5,"timeZoneId":"America/Toronto"},"lat":45.6668,"lng":-75.83265,"population":2000},{"id":7116273,"name":"Fossambault-sur-lac","timezone":{"dstOffset":-4,"gmtOffset":-5,"timeZoneId":"America/Toronto"},"lat":46.87662,"lng":-71.61541,"population":2000},{"id":6095416,"name":"Outlook","timezone":{"dstOffset":-6,"gmtOffset":-6,"timeZoneId":"America/Regina"},"lat":51.50008,"lng":-107.05128,"population":1989},{"id":6086590,"name":"Neebing","timezone":{"dstOffset":-4,"gmtOffset":-5,"timeZoneId":"America/Toronto"},"lat":48.1668,"lng":-89.41683,"population":1986},{"id":6067747,"name":"Matagami","timezone":{"dstOffset":-4,"gmtOffset":-5,"timeZoneId":"America/Toronto"},"lat":49.75018,"lng":-77.63277,"population":1966},{"id":6173220,"name":"Valleyview","timezone":{"dstOffset":-6,"gmtOffset":-7,"timeZoneId":"America/Edmonton"},"lat":55.06673,"lng":-117.28585,"population":1951},{"id":6145887,"name":"Shelburne","timezone":{"dstOffset":-3,"gmtOffset":-4,"timeZoneId":"America/Halifax"},"lat":43.76325,"lng":-65.32355,"population":1939},{"id":6085892,"name":"Nanton","timezone":{"dstOffset":-6,"gmtOffset":-7,"timeZoneId":"America/Edmonton"},