[{"id":2657896,"name":"Zurich","timezone":{"dstOffset":2,"gmtOffset":1,"timeZoneId":"Europe/Zurich"},"lat":47.36667,"lng":8.55,"population":341730},{"id":2660646,"name":"Geneva","timezone":{"dstOffset":2,"gmtOffset":1,"timeZoneId":"Europe/Zurich"},"lat":46.20222,"lng":6.14569,"population":183981},{"id":2661604,"name":"Basel","timezone":{"dstOffset":2,"gmtOffset":1,"timeZoneId":"Europe/Zurich"},"lat":47.5584,"lng":7.57327,"population":164488},{"id":2661552,"name":"Bern","timezone":{"dstOffset":2,"gmtOffset":1,"timeZoneId":"Europe/Zurich"},"lat":46.94809,"lng":7.44744,"population":121631},{"id":2659994,"name":"Lausanne","timezone":{"dstOffset":2,"gmtOffset":1,"timeZoneId":"Europe/Zurich"},"lat":46.516,"lng":6.63282,"population":116751},{"id":2657970,"name":"Winterthur","timezone":{"dstOffset":2,"gmtOffset":1,"timeZoneId":"Europe/Zurich"},"lat":47.50004,"lng":8.7251,"population":91908},{"id":2658822,"name":"St. Gallen","timezone":{"dstOffset":2,"gmtOffset":1,"timeZoneId":"Europe/Zurich"},"lat":47.42391,"lng":9.37477,"population":70572},{"id":2659811,"name":"Lucerne","timezone":{"dstOffset":2,"gmtOffset":1,"timeZoneId":"Europe/Zurich"},"lat":47.05048,"lng":8.30635,"population":57066},{"id":6295533,"name":"Zürich (Kreis 11)","timezone":{"dstOffset":2,"gmtOffset":1,"timeZoneId":"Europe/Zurich"},"lat":47.42326,"lng":8.52166,"population":54260},{"id":2661513,"name":"Biel/Bienne","timezone":{"dstOffset":2,"gmtOffset":1,"timeZoneId":"Europe/Zurich"},"lat":47.13713,"lng":7.24608,"population":48614},{"id":6295532,"name":"Zürich (Kreis 3)","timezone":{"dstOffset":2,"gmtOffset":1,"timeZoneId":"Europe/Zurich"},"lat":47.35785,"lng":8.50296,"population":46018},{"id":6295534,"name":"Zürich (Kreis 9)","timezone":{"dstOffset":2,"gmtOffset":1,"timeZoneId":"Europe/Zurich"},"lat":47.38245,"lng":8.47993,"population":44878},{"id":2658377,"name":"Thun","timezone":{"dstOffset":2,"gmtOffset":1,"timeZoneId":"Europe/Zurich"},"lat":46.75118,"lng":7.62166,"population":42136},{"id":2660119,"name":"Köniz","timezone":{"dstOffset":2,"gmtOffset":1,"timeZoneId":"Europe/Zurich"},"lat":46.92436,"lng":7.41457,"population":37196},{"id":2660076,"name":"La Chaux-de-Fonds","timezone":{"dstOffset":2,"gmtOffset":1,"timeZoneId":"Europe/Zurich"},"lat":47.09993,"lng":6.82586,"population":36825},{"id":6295539,"name":"Zürich (Kreis 10)","timezone":{"dstOffset":2,"gmtOffset":1,"timeZoneId":"Europe/Zurich"},"lat":47.40773,"lng":8.5005,"population":36216},{"id":2659099,"name":"Rapperswil","timezone":{"dstOffset":2,"gmtOffset":1,"timeZoneId":"Europe/Zurich"},"lat":47.22557,"lng":8.82228,"population":34776},{"id":2658761,"name":"Schaffhausen","timezone":{"dstOffset":2,"gmtOffset":1,"timeZoneId":"Europe/Zurich"},"lat":47.69732,"lng":8.63493,"population":33863},{"id":6295548,"name":"Zürich (Kreis 7)","timezone":{"dstOffset":2,"gmtOffset":1,"timeZoneId":"Europe/Zurich"},"lat":47.37328,"lng":8.58038,"population":33820},{"id":2660718,"name":"Fribourg","timezone":{"dstOffset":2,"gmtOffset":1,"timeZoneId":"Europe/Zurich"},"lat":46.80237,"lng":7.15128,"population":32827},{"id":2661169,"name":"Chur","timezone":{"dstOffset":2,"gmtOffset":1,"timeZoneId":"Europe/Zurich"},"lat":46.84986,"lng":9.53287,"population":32429},{"id":2659496,"name":"Neuchâtel","timezone":{"dstOffset":2,"gmtOffset":1,"timeZoneId":"Europe/Zurich"},"lat":46.99179,"lng":6.931,"population":31270},{"id":2658154,"name":"Vernier","timezone":{"dstOffset":2,"gmtOffset":1,"timeZoneId":"Europe/Zurich"},"lat":46.21702,"lng":6.08497,"population":30086},{"id":6295550,"name":"Zürich (Kreis 6)","timezone":{"dstOffset":2,"gmtOffset":1,"timeZoneId":"Europe/Zurich"},"lat":47.39223,"lng":8.54381,"population":29951},{"id":6295540,"name":"Zürich (Kreis 2)","timezone":{"dstOffset":2,"gmtOffset":1,"timeZoneId":"Europe/Zurich"},"lat":47.33756,"lng":8.5211,"population":29215},{"id":6295513,"name":"Zürich (Kreis 9) / Altstetten","timezone":{"dstOffset":2,"gmtOffset":1,"timeZoneId":"Europe/Zurich"},"lat":47.38946,"lng":8.48533,"population":28307},{"id":6295523,"name":"Zürich (Kreis 12)","timezone":{"dstOffset":2,"gmtOffset":1,"timeZoneId":"Europe/Zurich"},"lat":47.40372,"lng":8.57608,"population":28189},{"id":2658576,"name":"Sion","timezone":{"dstOffset":2,"gmtOffset":1,"timeZoneId":"Europe/Zurich"},"lat":46.22908,"lng":7.35942,"population":28045},{"id":6691640,"name":"Lancy","timezone":{"dstOffset":2,"gmtOffset":1,"timeZoneId":"Europe/Zurich"},"lat":46.18981,"lng":6.11441,"population":27291},{"id":2661666,"name":"Zürich (Kreis 4)","timezone":{"dstOffset":2,"gmtOffset":1,"timeZoneId":"Europe/Zurich"},"lat":47.37752,"lng":8.52127,"population":27273},{"id":2660911,"name":"Emmen","timezone":{"dstOffset":2,"gmtOffset":1,"timeZoneId":"Europe/Zurich"},"lat":47.07772,"lng":8.27888,"population":26889},{"id":2659836,"name":"Lugano","timezone":{"dstOffset":2,"gmtOffset":1,"timeZoneId":"Europe/Zurich"},"lat":46.01008,"lng":8.96004,"population":26365},{"id":2660104,"name":"Kriens","timezone":{"dstOffset":2,"gmtOffset":1,"timeZoneId":"Europe/Zurich"},"lat":47.03537,"lng":8.27631,"population":25010},{"id":2657941,"name":"Yverdon-les-Bains","timezone":{"dstOffset":2,"gmtOffset":1,"timeZoneId":"Europe/Zurich"},"lat":46.77852,"lng":6.64115,"population":23702},{"id":2657908,"name":"Zug","timezone":{"dstOffset":2,"gmtOffset":1,"timeZoneId":"Europe/Zurich"},"lat":47.17242,"lng":8.51744,"population":23435},{"id":2658216,"name":"Uster","timezone":{"dstOffset":2,"gmtOffset":1,"timeZoneId":"Europe/Zurich"},"lat":47.34713,"lng":8.72091,"population":23279},{"id":2659977,"name":"Le Châtelard","timezone":{"dstOffset":2,"gmtOffset":1,"timeZoneId":"Europe/Zurich"},"lat":46.44527,"lng":6.89908,"population":23192},{"id":2659601,"name":"Montreux","timezone":{"dstOffset":2,"gmtOffset":1,"timeZoneId":"Europe/Zurich"},"lat":46.43301,"lng":6.91143,"population":22897},{"id":2660727,"name":"Frauenfeld","timezone":{"dstOffset":2,"gmtOffset":1,"timeZoneId":"Europe/Zurich"},"lat":47.55816,"lng":8.89854,"population":21979},{"id":6295498,"name":"Zürich (Kreis 3) / Sihlfeld","timezone":{"dstOffset":2,"gmtOffset":1,"timeZoneId":"Europe/Zurich"},"lat":47.37382,"lng":8.51164,"population":20977},{"id":2661015,"name":"Dietikon","timezone":{"dstOffset":2,"gmtOffset":1,"timeZoneId":"Europe/Zurich"},"lat":47.40165,"lng":8.40015,"population":20893},{"id":2661653,"name":"Baar","timezone":{"dstOffset":2,"gmtOffset":1,"timeZoneId":"Europe/Zurich"},"lat":47.19625,"lng":8.52954,"population":20546},{"id":6295504,"name":"Zürich (Kreis 6) / Unterstrass","timezone":{"dstOffset":2,"gmtOffset":1,"timeZoneId":"Europe/Zurich"},"lat":47.3953,"lng":8.53721,"population":20045},{"id":3206590,"name":"Riehen","timezone":{"dstOffset":2,"gmtOffset":1,"timeZoneId":"Europe/Zurich"},"lat":47.57884,"lng":7.64683,"population":20000},{"id":2660971,"name":"Dübendorf","timezone":{"dstOffset":2,"gmtOffset":1,"timeZoneId":"Europe/Zurich"},"lat":47.39724,"lng":8.61872,"population":19882},{"id":2659667,"name":"Meyrin","timezone":{"dstOffset":2,"gmtOffset":1,"timeZoneId":"Europe/Zurich"},"lat":46.23424,"lng":6.08025,"population":19772},{"id":2661265,"name":"Carouge","timezone":{"dstOffset":2,"gmtOffset":1,"timeZoneId":"Europe/Zurich"},"lat":46.18096,"lng":6.13921,"population":19344},{"id":2658011,"name":"Wettingen","timezone":{"dstOffset":2,"gmtOffset":1,"timeZoneId":"Europe/Zurich"},"lat":47.4705,"lng":8.31636,"population":18191},{"id":2661810,"name":"Allschwil","timezone":{"dstOffset":2,"gmtOffset":1,"timeZoneId":"Europe/Zurich"},"lat":47.55074,"lng":7.53599,"population":18189},{"id":2659310,"name":"Zürich (Kreis 11) / Oerlikon","timezone":{"dstOffset":2,"gmtOffset":1,"timeZoneId":"Europe/Zurich"},"lat":47.40823,"lng":8.54258,"population":17922},{"id":2658656,"name":"Zürich (Kreis 11) / Seebach","timezone":{"dstOffset":2,"gmtOffset":1,"timeZoneId":"Europe/Zurich"},"lat":47.42181,"lng":8.54779,"population":17851},{"id":2659070,"name":"Renens","timezone":{"dstOffset":2,"gmtOffset":1,"timeZoneId":"Europe/Zurich"},"lat":46.53989,"lng":6.5881,"population":17811},{"id":2660108,"name":"Kreuzlingen","timezone":{"dstOffset":2,"gmtOffset":1,"timeZoneId":"Europe/Zurich"},"lat":47.65,"lng":9.18333,"population":17655},{"id":2660221,"name":"Jona","timezone":{"dstOffset":2,"gmtOffset":1,"timeZoneId":"Europe/Zurich"},"lat":47.22983,"lng":8.83884,"population":17655},{"id":2659296,"name":"Onex","timezone":{"dstOffset":2,"gmtOffset":1,"timeZoneId":"Europe/Zurich"},"lat":46.18391,"lng":6.10181,"population":17302},{"id":6295484,"name":"Zürich (Kreis 11) / Affoltern","timezone":{"dstOffset":2,"gmtOffset":1,"timeZoneId":"Europe/Zurich"},"lat":47.41814,"lng":8.5122,"population":17241},{"id":2660306,"name":"Zürich (Kreis 10) / Höngg","timezone":{"dstOffset":2,"gmtOffset":1,"timeZoneId":"Europe/Zurich"},"lat":47.40313,"lng":8.4971,"population":17117},{"id":2660549,"name":"Gossau","timezone":{"dstOffset":2,"gmtOffset":1,"timeZoneId":"Europe/Zurich"},"lat":47.41694,"lng":9.25125,"population":17043},{"id":2659522,"name":"Muttenz","timezone":{"dstOffset":2,"gmtOffset":1,"timeZoneId":"Europe/Zurich"},"lat":47.52271,"lng":7.64511,"population":16927},{"id":2657996,"name":"Wil","timezone":{"dstOffset":2,"gmtOffset":1,"timeZoneId":"Europe/Zurich"},"lat":47.46152,"lng":9.04552,"population":16808},{"id":2659422,"name":"Nyon","timezone":{"dstOffset":2,"gmtOffset":1,"timeZoneId":"Europe/Zurich"},"lat":46.38318,"lng":6.23955,"population":16797},{"id":2661567,"name":"Bellinzona","timezone":{"dstOffset":2,"gmtOffset":1,"timeZoneId":"Europe/Zurich"},"lat":46.19278,"lng":9.01703,"population":16572},{"id":6295512,"name":"Zürich (Kreis 9) / Albisrieden","timezone":{"dstOffset":2,"gmtOffset":1,"timeZoneId":"Europe/Zurich"},"lat":47.37398,"lng":8.49007,"population":16480},{"id":2659297,"name":"Olten","timezone":{"dstOffset":2,"gmtOffset":1,"timeZoneId":"Europe/Zurich"},"lat":47.34999,"lng":7.90329,"population":16411},{"id":6295536,"name":"Oberwinterthur (Kreis 2)","timezone":{"dstOffset":2,"gmtOffset":1,"timeZoneId":"Europe/Zurich"},"lat":47.51692,"lng":8.76863,"population":16356},{"id":2660127,"name":"Kloten","timezone":{"dstOffset":2,"gmtOffset":1,"timeZoneId":"Europe/Zurich"},"lat":47.45152,"lng":8.58491,"population":16289},{"id":2659127,"name":"Pully","timezone":{"dstOffset":2,"gmtOffset":1,"timeZoneId":"Europe/Zurich"},"lat":46.51027,"lng":6.66183,"population":16263},{"id":6295520,"name":"Stadt Winterthur (Kreis 1)","timezone":{"dstOffset":2,"gmtOffset":1,"timeZoneId":"Europe/Zurich"},"lat":47.49494,"lng":8.71954,"population":16182},{"id":2659873,"name":"Littau","timezone":{"dstOffset":2,"gmtOffset":1,"timeZoneId":"Europe/Zurich"},"lat":47.05,"lng":8.26274,"population":16121},{"id":2661646,"name":"Baden","timezone":{"dstOffset":2,"gmtOffset":1,"timeZoneId":"Europe/Zurich"},"lat":47.47333,"lng":8.30592,"population":16118},{"id":6295495,"name":"Zürich (Kreis 2) / Wollishofen","timezone":{"dstOffset":2,"gmtOffset":1,"timeZoneId":"Europe/Zurich"},"lat":47.3401,"lng":8.53134,"population":16073},{"id":2660305,"name":"Horgen","timezone":{"dstOffset":2,"gmtOffset":1,"timeZoneId":"Europe/Zurich"},"lat":47.25579,"lng":8.60027,"population":15973},{"id":2660512,"name":"Grenchen","timezone":{"dstOffset":2,"gmtOffset":1,"timeZoneId":"Europe/Zurich"},"lat":47.1921,"lng":7.39586,"population":15927},{"id":2658145,"name":"Vevey","timezone":{"dstOffset":2,"gmtOffset":1,"timeZoneId":"Europe/Zurich"},"lat":46.46299,"lng":6.84345,"population":15812},{"id":2658606,"name":"Sierre","timezone":{"dstOffset":2,"gmtOffset":1,"timeZoneId":"Europe/Zurich"},"lat":46.29192,"lng":7.53559,"population":15752},{"id":6295475,"name":"Zürich (Kreis 10) / Wipkingen","timezone":{"dstOffset":2,"gmtOffset":1,"timeZoneId":"Europe/Zurich"},"lat":47.39503,"lng":8.52529,"population":15718},{"id":6295542,"name":"Zürich (Kreis 8)","timezone":{"dstOffset":2,"gmtOffset":1,"timeZoneId":"Europe/Zurich"},"lat":47.3548,"lng":8.56097,"population":15519},{"id":2661881,"name":"Aarau","timezone":{"dstOffset":2,"gmtOffset":1,"timeZoneId":"Europe/Zurich"},"lat":47.39254,"lng":8.04422,"population":15501},{"id":2660365,"name":"Herisau","timezone":{"dstOffset":2,"gmtOffset":1,"timeZoneId":"Europe/Zurich"},"lat":47.38615,"lng":9.27916,"population":15438},{"id":6295531,"name":"Seen (Kreis 3)","timezone":{"dstOffset":2,"gmtOffset":1,"timeZoneId":"Europe/Zurich"},"lat":47.47646,"lng":8.76996,"population":15434},{"id":2661861,"name":"Adliswil","timezone":{"dstOffset":2,"gmtOffset":1,"timeZoneId":"Europe/Zurich"},"lat":47.30997,"lng":8.52462,"population":15230},{"id":2658494,"name":"Steffisburg","timezone":{"dstOffset":2,"gmtOffset":1,"timeZoneId":"Europe/Zurich"},"lat":46.77807,"lng":7.63249,"population":15191},{"id":2659613,"name":"Monthey","timezone":{"dstOffset":2,"gmtOffset":1,"timeZoneId":"Europe/Zurich"},"lat":46.25546,"lng":6.96066,"population":15106},{"id":2658007,"name":"Zürich (Kreis 3) / Alt-Wiedikon","timezone":{"dstOffset":2,"gmtOffset":1,"timeZoneId":"Europe/Zurich"},"lat":47.36201,"lng":8.51497,"population":14931},{"id":2659147,"name":"Pratteln","timezone":{"dstOffset":2,"gmtOffset":1,"timeZoneId":"Europe/Zurich"},"lat":47.52071,"lng":7.69356,"population":14877},{"id":2658564,"name":"Solothurn","timezone":{"dstOffset":2,"gmtOffset":1,"timeZoneId":"Europe/Zurich"},"lat":47.20791,"lng":7.53714,"population":14853},{"id":2661321,"name":"Burgdorf","timezone":{"dstOffset":2,"gmtOffset":1,"timeZoneId":"Europe/Zurich"},"lat":47.05901,"lng":7.62786,"population":14788},{"id":2659748,"name":"Martigny-Ville","timezone":{"dstOffset":2,"gmtOffset":1,"timeZoneId":"Europe/Zurich"},"lat":46.10276,"lng":7.07245,"population":14768},{"id":2659869,"name":"Locarno","timezone":{"dstOffset":2,"gmtOffset":1,"timeZoneId":"Europe/Zurich"},"lat":46.17086,"lng":8.79953,"population":14509},{"id":2660721,"name":"Freienbach","timezone":{"dstOffset":2,"gmtOffset":1,"timeZoneId":"Europe/Zurich"},"lat":47.20534,"lng":8.75842,"population":14302},{"id":2660034,"name":"Langenthal","timezone":{"dstOffset":2,"gmtOffset":1,"timeZoneId":"Europe/Zurich"},"lat":47.21526,"lng":7.79607,"population":14184},{"id":2658665,"name":"Schwyz","timezone":{"dstOffset":2,"gmtOffset":1,"timeZoneId":"Europe/Zurich"},"lat":47.02076,"lng":8.65414,"population":14177},{"id":2661499,"name":"Binningen","timezone":{"dstOffset":2,"gmtOffset":1,"timeZoneId":"Europe/Zurich"},"lat":47.54021,"lng":7.56932,"population":14130},{"id":2659587,"name":"Morges","timezone":{"dstOffset":2,"gmtOffset":1,"timeZoneId":"Europe/Zurich"},"lat":46.51127,"lng":6.49854,"population":14117},{"id":2657963,"name":"Wohlen","timezone":{"dstOffset":2,"gmtOffset":1,"timeZoneId":"Europe/Zurich"},"lat":47.35236,"lng":8.27877,"population":13875},{"id":2661228,"name":"Cham","timezone":{"dstOffset":2,"gmtOffset":1,"timeZoneId":"Europe/Zurich"},"lat":47.18213,"lng":8.46358,"population":13495},{"id":2658388,"name":"Thalwil","timezone":{"dstOffset":2,"gmtOffset":1,"timeZoneId":"Europe/Zurich"},"lat":47.29175,"lng":8.56351,"population":13296},{"id":2658082,"name":"Wädenswil","timezone":{"dstOffset":2,"gmtOffset":1,"timeZoneId":"Europe/Zurich"},"lat":47.22683,"lng":8.6687,"population":13269},{"id":2661338,"name":"Bülach","timezone":{"dstOffset":2,"gmtOffset":1,"timeZoneId":"Europe/Zurich"},"lat":47.52197,"lng":8.54049,"population":13172},{"id":2660925,"name":"Einsiedeln","timezone":{"dstOffset":2,"gmtOffset":1,"timeZoneId":"Europe/Zurich"},"lat":47.12849,"lng":8.74735,"population":13148},{"id":3209505,"name":"Thônex","timezone":{"dstOffset":2,"gmtOffset":1,"timeZoneId":"Europe/Zurich"},"lat":46.18815,"lng":6.19904,"population":13057},{"id":6295501,"name":"Zürich (Kreis 4) / Hard","timezone":{"dstOffset":2,"gmtOffset":1,"timeZoneId":"Europe/Zurich"},"lat":47.38311,"lng":8.50942,"population":12976},{"id":2658010,"name":"Wetzikon","timezone":{"dstOffset":2,"gmtOffset":1,"timeZoneId":"Europe/Zurich"},"lat":47.3264,"lng":8.79779,"population":12969},{"id":2661731,"name":"Arbon","timezone":{"dstOffset":2,"gmtOffset":1,"timeZoneId":"Europe/Zurich"},"lat":47.51667,"lng":9.43333,"population":12933},{"id":2659891,"name":"Liestal","timezone":{"dstOffset":2,"gmtOffset":1,"timeZoneId":"Europe/Zurich"},"lat":47.48455,"lng":7.73446,"population":12832},{"id":2658724,"name":"Schlieren","timezone":{"dstOffset":2,"gmtOffset":1,"timeZoneId":"Europe/Zurich"},"lat":47.39668,"lng":8.44763,"population":12695},{"id":6295524,"name":"Wülflingen (Kreis 6)","timezone":{"dstOffset":2,"gmtOffset":1,"timeZoneId":"Europe/Zurich"},"lat":47.51036,"lng":8.68333,"population":12598},{"id":2658536,"name":"Spiez","timezone":{"dstOffset":2,"gmtOffset":1,"timeZoneId":"Europe/Zurich"},"lat":46.68473,"lng":7.69111,"population":12594},{"id":2659532,"name":"Muri bei Bern","timezone":{"dstOffset":2,"gmtOffset":1,"timeZoneId":"Europe/Zurich"},"lat":46.93122,"lng":7.48658,"population":12374},{"id":2660298,"name":"Horw","timezone":{"dstOffset":2,"gmtOffset":1,"timeZoneId":"Europe/Zurich"},"lat":47.01692,"lng":8.30956,"population":12348},{"id":2658209,"name":"Uzwil","timezone":{"dstOffset":2,"gmtOffset":1,"timeZoneId":"Europe/Zurich"},"lat":47.43813,"lng":9.13922,"population":12111},{"id":2661337,"name":"Bulle","timezone":{"dstOffset":2,"gmtOffset":1,"timeZoneId":"Europe/Zurich"},"lat":46.6195,"lng":7.05674,"population":12095},{"id":2660088,"name":"Küssnacht","timezone":{"dstOffset":2,"gmtOffset":1,"timeZoneId":"Europe/Zurich"},"lat":47.08557,"lng":8.44206,"population":11777},{"id":6295521,"name":"Zürich (Kreis 5)","timezone":{"dstOffset":2,"gmtOffset":1,"timeZoneId":"Europe/Zurich"},"lat":47.38767,"lng":8.52152,"population":11737},{"id":2658060,"name":"Wallisellen","timezone":{"dstOffset":2,"gmtOffset":1,"timeZoneId":"Europe/Zurich"},"lat":47.41499,"lng":8.59672,"population":11705},{"id":2659551,"name":"Münchenstein","timezone":{"dstOffset":2,"gmtOffset":1,"timeZoneId":"Europe/Zurich"},"lat":47.51848,"lng":7.60966,"population":11644},{"id":2660089,"name":"Küsnacht","timezone":{"dstOffset":2,"gmtOffset":1,"timeZoneId":"Europe/Zurich"},"lat":47.31805,"lng":8.58401,"population":11525},{"id":2660953,"name":"Ebikon","timezone":{"dstOffset":2,"gmtOffset":1,"timeZoneId":"Europe/Zurich"},"lat":47.07937,"lng":8.34041,"population":11471},{"id":2658151,"name":"Versoix","timezone":{"dstOffset":2,"gmtOffset":1,"timeZoneId":"Europe/Zurich"},"lat":46.28402,"lng":6.16166,"population":11467},{"id":2657915,"name":"Zofingen","timezone":{"dstOffset":2,"gmtOffset":1,"timeZoneId":"Europe/Zurich"},"lat":47.28779,"lng":7.94586,"population":11451},{"id":2661756,"name":"Amriswil","timezone":{"dstOffset":2,"gmtOffset":1,"timeZoneId":"Europe/Zurich"},"lat":47.54699,"lng":9.29836,"population":11351},{"id":6295492,"name":"Zürich (Kreis 12) / Hirzenbach","timezone":{"dstOffset":2,"gmtOffset":1,"timeZoneId":"Europe/Zurich"},"lat":47.40187,"lng":8.58633,"population":11335},{"id":2661035,"name":"Delémont","timezone":{"dstOffset":2,"gmtOffset":1,"timeZoneId":"Europe/Zurich"},"lat":47.36493,"lng":7.34453,"population":11315},{"id":2657954,"name":"Worb","timezone":{"dstOffset":2,"gmtOffset":1,"timeZoneId":"Europe/Zurich"},"lat":46.92984,"lng":7.56306,"population":11053},{"id":6295547,"name":"Mattenbach (Kreis 7)","timezone":{"dstOffset":2,"gmtOffset":1,"timeZoneId":"Europe/Zurich"},"lat":47.48705,"lng":8.74681,"population":11043},{"id":2661039,"name":"Davos","timezone":{"dstOffset":2,"gmtOffset":1,"timeZoneId":"Europe/Zurich"},"lat":46.80429,"lng":9.83723,"population":11024},{"id":2659808,"name":"Lyss","timezone":{"dstOffset":2,"gmtOffset":1,"timeZoneId":"Europe/Zurich"},"lat":47.0741,"lng":7.30655,"population":10937},{"id":2659546,"name":"Münsingen","timezone":{"dstOffset":2,"gmtOffset":1,"timeZoneId":"Europe/Zurich"},"lat":46.87298,"lng":7.561,"population":10928},{"id":2659060,"name":"Rheinfelden","timezone":{"dstOffset":2,"gmtOffset":1,"timeZoneId":"Europe/Zurich"},"lat":47.55437,"lng":7.79403,"population":10733},{"id":2660600,"name":"Gland","timezone":{"dstOffset":2,"gmtOffset":1,"timeZoneId":"Europe/Zurich"},"lat":46.42082,"lng":6.2701,"population":10641},{"id":2661766,"name":"Altstätten","timezone":{"dstOffset":2,"gmtOffset":1,"timeZoneId":"Europe/Zurich"},"lat":47.37766,"lng":9.54746,"population":10574},{"id":2658524,"name":"Spreitenbach","timezone":{"dstOffset":2,"gmtOffset":1,"timeZoneId":"Europe/Zurich"},"lat":47.42016,"lng":8.36301,"population":10562},{"id":2659190,"name":"Plan-les-Ouates","timezone":{"dstOffset":2,"gmtOffset":1,"timeZoneId":"Europe/Zurich"},"lat":46.16762,"lng":6.11912,"population":10540},{"id":2659136,"name":"Prilly","timezone":{"dstOffset":2,"gmtOffset":1,"timeZoneId":"Europe/Zurich"},"lat":46.53938,"lng":6.59266,"population":10524},{"id":2660008,"name":"La Tour-de-Peilz","timezone":{"dstOffset":2,"gmtOffset":1,"timeZoneId":"Europe/Zurich"},"lat":46.45312,"lng":6.85856,"population":10522},{"id":3209498,"name":"Chêne-Bougeries","timezone":{"dstOffset":2,"gmtOffset":1,"timeZoneId":"Europe/Zurich"},"lat":46.19843,"lng":6.18642,"population":10487},{"id":6295491,"name":"Zürich (Kreis 12) / Schwamendingen-Mitte","timezone":{"dstOffset":2,"gmtOffset":1,"timeZoneId":"Europe/Zurich"},"lat":47.4063,"lng":8.57242,"population":10476},{"id":6294547,"name":"Uster / Kirch-Uster","timezone":{"dstOffset":2,"gmtOffset":1,"timeZoneId":"Europe/Zurich"},"lat":47.34579,"lng":8.71839,"population":10428},{"id":2661349,"name":"Buchs","timezone":{"dstOffset":2,"gmtOffset":1,"timeZoneId":"Europe/Zurich"},"lat":47.16743,"lng":9.47794,"population":10418},{"id":2659303,"name":"Oftringen","timezone":{"dstOffset":2,"gmtOffset":1,"timeZoneId":"Europe/Zurich"},"lat":47.31382,"lng":7.92533,"population":10390},{"id":6295500,"name":"Zürich (Kreis 4) / Langstrasse","timezone":{"dstOffset":2,"gmtOffset":1,"timeZoneId":"Europe/Zurich"},"lat":47.37767,"lng":8.52854,"population":10386},{"id":2659960,"name":"Le Locle","timezone":{"dstOffset":2,"gmtOffset":1,"timeZoneId":"Europe/Zurich"},"lat":47.05953,"lng":6.75228,"population":10279},{"id":6285791,"name":"Écublens","timezone":{"dstOffset":2,"gmtOffset":1,"timeZoneId":"Europe/Zurich"},"lat":46.52899,"lng":6.56261,"population":10262},{"id":2661490,"name":"Birsfelden","timezone":{"dstOffset":2,"gmtOffset":1,"timeZoneId":"Europe/Zurich"},"lat":47.5529,"lng":7.62322,"population":10232},{"id":2659321,"name":"Oberwil","timezone":{"dstOffset":2,"gmtOffset":1,"timeZoneId":"Europe/Zurich"},"lat":47.51407,"lng":7.55786,"population":10187},{"id":2661852,"name":"Aesch","timezone":{"dstOffset":2,"gmtOffset":1,"timeZoneId":"Europe/Zurich"},"lat":47.47104,"lng":7.5973,"population":10138},{"id":2660944,"name":"Effretikon","timezone":{"dstOffset":2,"gmtOffset":1,"timeZoneId":"Europe/Zurich"},"lat":47.42575,"lng":8.69094,"population":10119},{"id":2660947,"name":"Ecublens","timezone":{"dstOffset":2,"gmtOffset":1,"timeZoneId":"Europe/Zurich"},"lat":46.60735,"lng":6.80895,"population":10065},{"id":2658128,"name":"Villars-sur-Glâne","timezone":{"dstOffset":2,"gmtOffset":1,"timeZoneId":"Europe/Zurich"},"lat":46.79054,"lng":7.11717,"population":10021},{"id":2659485,"name":"Neuhausen","timezone":{"dstOffset":2,"gmtOffset":1,"timeZoneId":"Europe/Zurich"},"lat":47.68579,"lng":8.61474,"population":10019},{"id":6295507,"name":"Zürich (Kreis 7) / Hottingen","timezone":{"dstOffset":2,"gmtOffset":1,"timeZoneId":"Europe/Zurich"},"lat":47.37011,"lng":8.56306,"population":9934},{"id":6295497,"name":"Zürich (Kreis 3) / Friesenberg","timezone":{"dstOffset":2,"gmtOffset":1,"timeZoneId":"Europe/Zurich"},"lat":47.36372,"lng":8.50417,"population":9909},{"id":6295505,"name":"Zürich (Kreis 6) / Oberstrass","timezone":{"dstOffset":2,"gmtOffset":1,"timeZoneId":"Europe/Zurich"},"lat":47.38917,"lng":8.5504,"population":9906},{"id":6295502,"name":"Zürich (Kreis 5) / Gewerbeschule","timezone":{"dstOffset":2,"gmtOffset":1,"timeZoneId":"Europe/Zurich"},"lat":47.38481,"lng":8.53011,"population":9891},{"id":2661708,"name":"Arth","timezone":{"dstOffset":2,"gmtOffset":1,"timeZoneId":"Europe/Zurich"},"lat":47.06337,"lng":8.52348,"population":9850},{"id":2659552,"name":"Münchenbuchsee","timezone":{"dstOffset":2,"gmtOffset":1,"timeZoneId":"Europe/Zurich"},"lat":47.02175,"lng":7.45036,"population":9801},{"id":2658143,"name":"Veyrier","timezone":{"dstOffset":2,"gmtOffset":1,"timeZoneId":"Europe/Zurich"},"lat":46.16699,"lng":6.18436,"population":9800},{"id":2660532,"name":"Le Grand-Saconnex","timezone":{"dstOffset":2,"gmtOffset":1,"timeZoneId":"Europe/Zurich"},"lat":46.22642,"lng":6.1233,"population":9781},{"id":2661547,"name":"Bernex","timezone":{"dstOffset":2,"gmtOffset":1,"timeZoneId":"Europe/Zurich"},"lat":46.1765,"lng":6.07544,"population":9759},{"id":2660762,"name":"Flawil","timezone":{"dstOffset":2,"gmtOffset":1,"timeZoneId":"Europe/Zurich"},"lat":47.41461,"lng":9.18284,"population":9739},{"id":2658386,"name":"Therwil","timezone":{"dstOffset":2,"gmtOffset":1,"timeZoneId":"Europe/Zurich"},"lat":47.50117,"lng":7.55286,"population":9595},{"id":2658909,"name":"Rüti","timezone":{"dstOffset":2,"gmtOffset":1,"timeZoneId":"Europe/Zurich"},"lat":47.25603,"lng":8.85552,"population":9576},{"id":2658036,"name":"Weinfelden","timezone":{"dstOffset":2,"gmtOffset":1,"timeZoneId":"Europe/Zurich"},"lat":47.56667,"lng":9.1,"population":9414},{"id":2658786,"name":"Sarnen","timezone":{"dstOffset":2,"gmtOffset":1,"timeZoneId":"Europe/Zurich"},"lat":46.89851,"lng":8.25068,"population":9410},{"id":2659645,"name":"Möhlin","timezone":{"dstOffset":2,"gmtOffset":1,"timeZoneId":"Europe/Zurich"},"lat":47.55915,"lng":7.84329,"population":9382},{"id":2658457,"name":"Suhr","timezone":{"dstOffset":2,"gmtOffset":1,"timeZoneId":"Europe/Zurich"},"lat":47.37172,"lng":8.07967,"population":9374},{"id":2661563,"name":"Belp","timezone":{"dstOffset":2,"gmtOffset":1,"timeZoneId":"Europe/Zurich"},"lat":46.89129,"lng":7.49825,"population":9307},{"id":2661719,"name":"Arlesheim","timezone":{"dstOffset":2,"gmtOffset":1,"timeZoneId":"Europe/Zurich"},"lat":47.49412,"lng":7.61979,"population":9301},{"id":2661144,"name":"Colombier","timezone":{"dstOffset":2,"gmtOffset":1,"timeZoneId":"Europe/Zurich"},"lat":46.55709,"lng":6.47284,"population":9297},{"id":2657910,"name":"Zuchwil","timezone":{"dstOffset":2,"gmtOffset":1,"timeZoneId":"Europe/Zurich"},"lat":47.20173,"lng":7.56649,"population":9268},{"id":2659332,"name":"Urdorf","timezone":{"dstOffset":2,"gmtOffset":1,"timeZoneId":"Europe/Zurich"},"lat":47.38507,"lng":8.42581,"population":9205},{"id":2660461,"name":"Gstaad","timezone":{"dstOffset":2,"gmtOffset":1,"timeZoneId":"Europe/Zurich"},"lat":46.47215,"lng":7.28685,"population":9200},{"id":2661374,"name":"Brugg","timezone":{"dstOffset":2,"gmtOffset":1,"timeZoneId":"Europe/Zurich"},"lat":47.48096,"lng":8.20869,"population":9196},{"id":2660860,"name":"Eschenbach","timezone":{"dstOffset":2,"gmtOffset":1,"timeZoneId":"Europe/Zurich"},"lat":47.23981,"lng":8.92156,"population":9175},{"id":2657964,"name":"Wohlen","timezone":{"dstOffset":2,"gmtOffset":1,"timeZoneId":"Europe/Zurich"},"lat":46.97118,"lng":7.35685,"population":9159},{"id":2657913,"name":"Zollikofen","timezone":{"dstOffset":2,"gmtOffset":1,"timeZoneId":"Europe/Zurich"},"lat":46.99905,"lng":7.45809,"population":9121},{"id":2657969,"name":"Zürich (Kreis 7) / Witikon","timezone":{"dstOffset":2,"gmtOffset":1,"timeZoneId":"Europe/Zurich"},"lat":47.35751,"lng":8.59105,"population":9099},{"id":2660575,"name":"Goldach","timezone":{"dstOffset":2,"gmtOffset":1,"timeZoneId":"Europe/Zurich"},"lat":47.47511,"lng":9.46846,"population":9094},{"id":2660292,"name":"Hünenberg","timezone":{"dstOffset":2,"gmtOffset":1,"timeZoneId":"Europe/Zurich"},"lat":47.17536,"lng":8.42497,"population":9032},{"id":2658969,"name":"Rorschach","timezone":{"dstOffset":2,"gmtOffset":1,"timeZoneId":"Europe/Zurich"},"lat":47.478,"lng":9.4903,"population":9000},{"id":2658985,"name":"Romanshorn","timezone":{"dstOffset":2,"gmtOffset":1,"timeZoneId":"Europe/Zurich"},"lat":47.56586,"lng":9.37869,"population":8956},{"id":2661842,"name":"Affoltern am Albis","timezone":{"dstOffset":2,"gmtOffset":1,"timeZoneId":"Europe/Zurich"},"lat":47.27743,"lng":8.45128,"population":8928},{"id":2658172,"name":"Veltheim (Kreis 5)","timezone":{"dstOffset":2,"gmtOffset":1,"timeZoneId":"Europe/Zurich"},"lat":47.51419,"lng":8.717,"population":8901},{"id":2660032,"name":"Langnau","timezone":{"dstOffset":2,"gmtOffset":1,"timeZoneId":"Europe/Zurich"},"lat":46.93936,"lng":7.78738,"population":8784},{"id":2659819,"name":"Lutry","timezone":{"dstOffset":2,"gmtOffset":1,"timeZoneId":"Europe/Zurich"},"lat":46.50241,"lng":6.68647,"population":8774},{"id":2661780,"name":"Altdorf","timezone":{"dstOffset":2,"gmtOffset":1,"timeZoneId":"Europe/Zurich"},"lat":46.88042,"lng":8.64441,"population":8678},{"id":2658344,"name":"Töss (Kreis 4)","timezone":{"dstOffset":2,"gmtOffset":1,"timeZoneId":"Europe/Zurich"},"lat":47.4789,"lng":8.70215,"population":8672},{"id":2657968,"name":"Wittenbach","timezone":{"dstOffset":2,"gmtOffset":1,"timeZoneId":"Europe/Zurich"},"lat":47.46308,"lng":9.37761,"population":8542},{"id":2658483,"name":"Steinhausen","timezone":{"dstOffset":2,"gmtOffset":1,"timeZoneId":"Europe/Zurich"},"lat":47.1951,"lng":8.48581,"population":8509},{"id":6295496,"name":"Zürich (Kreis 2) / Enge","timezone":{"dstOffset":2,"gmtOffset":1,"timeZoneId":"Europe/Zurich"},"lat":47.3605,"lng":8.53127,"population":8253},{"id":2660332,"name":"Hochdorf","timezone":{"dstOffset":2,"gmtOffset":1,"timeZoneId":"Europe/Zurich"},"lat":47.16841,"lng":8.29179,"population":8192},{"id":2660155,"name":"Kirchberg","timezone":{"dstOffset":2,"gmtOffset":1,"timeZoneId":"Europe/Zurich"},"lat":47.41159,"lng":9.0402,"population":8127},{"id":2658042,"name":"Wattwil","timezone":{"dstOffset":2,"gmtOffset":1,"timeZoneId":"Europe/Zurich"},"lat":47.30225,"lng":9.08757,"population":8089},{"id":2661176,"name":"Chiasso","timezone":{"dstOffset":2,"gmtOffset":1,"timeZoneId":"Europe/Zurich"},"lat":45.83203,"lng":9.03119,"population":8060},{"id":2658440,"name":"Sursee","timezone":{"dstOffset":2,"gmtOffset":1,"timeZoneId":"Europe/Zurich"},"lat":47.17088,"lng":8.11113,"population":8014},{"id":2659219,"name":"Pfaeffikon","timezone":{"dstOffset":2,"gmtOffset":1,"timeZoneId":"Europe/Zurich"},"lat":47.36453,"lng":8.79202,"population":7994},{"id":2659344,"name":"Obersiggenthal","timezone":{"dstOffset":2,"gmtOffset":1,"timeZoneId":"Europe/Zurich"},"lat":47.4875,"lng":8.29652,"population":7990},{"id":2658264,"name":"Unterägeri","timezone":{"dstOffset":2,"gmtOffset":1,"timeZoneId":"Europe/Zurich"},"lat":47.13644,"lng":8.5853,"population":7973},{"id":2660261,"name":"Ingenbohl","timezone":{"dstOffset":2,"gmtOffset":1,"timeZoneId":"Europe/Zurich"},"lat":47.00464,"lng":8.61477,"population":7967},{"id":6295517,"name":"Hegnau","timezone":{"dstOffset":2,"gmtOffset":1,"timeZoneId":"Europe/Zurich"},"lat":47.39227,"lng":8.66988,"population":7961},{"id":2661191,"name":"Chêne-Bourg","timezone":{"dstOffset":2,"gmtOffset":1,"timeZoneId":"Europe/Zurich"},"lat":46.19534,"lng":6.19406,"population":7959},{"id":2659490,"name":"Neuenhof","timezone":{"dstOffset":2,"gmtOffset":1,"timeZoneId":"Europe/Zurich"},"lat":47.4526,"lng":8.32577,"population":7957},{"id":2659772,"name":"Männedorf","timezone":{"dstOffset":2,"gmtOffset":1,"timeZoneId":"Europe/Zurich"},"lat":47.25686,"lng":8.69893,"population":7951},{"id":2661519,"name":"Biberist","timezone":{"dstOffset":2,"gmtOffset":1,"timeZoneId":"Europe/Zurich"},"lat":47.18009,"lng":7.56246,"population":7889},{"id":2659076,"name":"Reinach","timezone":{"dstOffset":2,"gmtOffset":1,"timeZoneId":"Europe/Zurich"},"lat":47.25944,"lng":8.18845,"population":7845},{"id":2660603,"name":"Giubiasco","timezone":{"dstOffset":2,"gmtOffset":1,"timeZoneId":"Europe/Zurich"},"lat":46.17246,"lng":9.00793,"population":7752},{"id":2658696,"name":"Schübelbach","timezone":{"dstOffset":2,"gmtOffset":1,"timeZoneId":"Europe/Zurich"},"lat":47.17326,"lng":8.92811,"population":7745},{"id":2661834,"name":"Aigle","timezone":{"dstOffset":2,"gmtOffset":1,"timeZoneId":"Europe/Zurich"},"lat":46.3181,"lng":6.96457,"population":7723},{"id":2659568,"name":"Moutier","timezone":{"dstOffset":2,"gmtOffset":1,"timeZoneId":"Europe/Zurich"},"lat":47.27818,"lng":7.36951,"population":7721},{"id":2660884,"name":"Epalinges","timezone":{"dstOffset":2,"gmtOffset":1,"timeZoneId":"Europe/Zurich"},"lat":46.55178,"lng":6.66829,"population":7706},{"id":2659357,"name":"Oberriet","timezone":{"dstOffset":2,"gmtOffset":1,"timeZoneId":"Europe/Zurich"},"lat":47.31988,"lng":9.56608,"population":7675},{"id":2659243,"name":"Payerne","timezone":{"dstOffset":2,"gmtOffset":1,"timeZoneId":"Europe/Zurich"},"lat":46.82201,"lng":6.93608,"population":7655},{"id":2659758,"name":"Marly","timezone":{"dstOffset":2,"gmtOffset":1,"timeZoneId":"Europe/Zurich"},"lat":46.77611,"lng":7.16459,"population":7653},{"id":2661882,"name":"Aadorf","timezone":{"dstOffset":2,"gmtOffset":1,"timeZoneId":"Europe/Zurich"},"lat":47.49204,"lng":8.90099,"population":7620},{"id":2659391,"name":"Oberentfelden","timezone":{"dstOffset":2,"gmtOffset":1,"timeZoneId":"Europe/Zurich"},"lat":47.35639,"lng":8.04594,"population":7553},{"id":2659510,"name":"Naters","timezone":{"dstOffset":2,"gmtOffset":1,"timeZoneId":"Europe/Zurich"},"lat":46.32536,"lng":7.98912,"population":7552},{"id":2659142,"name":"Pregassona","timezone":{"dstOffset":2,"gmtOffset":1,"timeZoneId":"Europe/Zurich"},"lat":46.02021,"lng":8.97429,"population":7548},{"id":2659083,"name":"Regensdorf","timezone":{"dstOffset":2,"gmtOffset":1,"timeZoneId":"Europe/Zurich"},"lat":47.4341,"lng":8.46874,"population":7531},{"id":2658504,"name":"Stans","timezone":{"dstOffset":2,"gmtOffset":1,"timeZoneId":"Europe/Zurich"},"lat":46.95805,"lng":8.36609,"population":7475},{"id":2658952,"name":"Rothrist","timezone":{"dstOffset":2,"gmtOffset":1,"timeZoneId":"Europe/Zurich"},"lat":47.30508,"lng":7.89196,"population":7423},{"id":2661305,"name":"Bussigny","timezone":{"dstOffset":2,"gmtOffset":1,"timeZoneId":"Europe/Zurich"},"lat":46.5511,"lng":6.55597,"population":7408},{"id":2659952,"name":"Lenzburg","timezone":{"dstOffset":2,"gmtOffset":1,"timeZoneId":"Europe/Zurich"},"lat":47.38853,"lng":8.17503,"population":7392},{"id":2659957,"name":"Lengnau","timezone":{"dstOffset":2,"gmtOffset":1,"timeZoneId":"Europe/Zurich"},"lat":47.18155,"lng":7.36814,"population":7336},{"id":2659689,"name":"Mendrisio","timezone":{"dstOffset":2,"gmtOffset":1,"timeZoneId":"Europe/Zurich"},"lat":45.86741,"lng":8.9821,"population":7310},{"id":2660970,"name":"Düdingen","timezone":{"dstOffset":2,"gmtOffset":1,"timeZoneId":"Europe/Zurich"},"lat":46.84915,"lng":7.18848,"population":7155},{"id":2659050,"name":"Richterswil","timezone":{"dstOffset":2,"gmtOffset":1,"timeZoneId":"Europe/Zurich"},"lat":47.20622,"lng":8.69686,"population":7103},{"id":2660913,"name":"Embrach","timezone":{"dstOffset":2,"gmtOffset":1,"timeZoneId":"Europe/Zurich"},"lat":47.50561,"lng":8.59406,"population":7088},{"id":2661599,"name":"Bassersdorf","timezone":{"dstOffset":2,"gmtOffset":1,"timeZoneId":"Europe/Zurich"},"lat":47.44342,"lng":8.62851,"population":7010},{"id":6295506,"name":"Zürich (Kreis 7) / Fluntern","timezone":{"dstOffset":2,"gmtOffset":1,"timeZoneId":"Europe/Zurich"},"lat":47.38013,"lng":8.56133,"population":7009},{"id":6640317,"name":"Langnau am Albis","timezone":{"dstOffset":2,"gmtOffset":1,"timeZoneId":"Europe/Zurich"},"lat":47.28885,"lng":8.5411,"population":7000},{"id":2657955,"name":"Wollerau","timezone":{"dstOffset":2,"gmtOffset":1,"timeZoneId":"Europe/Zurich"},"lat":47.19478,"lng":8.71903,"population":6883},{"id":6293080,"name":"Thalwil / Dorfkern","timezone":{"dstOffset":2,"gmtOffset":1,"timeZoneId":"Europe/Zurich"},"lat":47.29047,"lng":8.56633,"population":6829},{"id":2660277,"name":"Igis","timezone":{"dstOffset":2,"gmtOffset":1,"timeZoneId":"Europe/Zurich"},"lat":46.94531,"lng":9.57218,"population":6828},{"id":2661879,"name":"Aarburg","timezone":{"dstOffset":2,"gmtOffset":1,"timeZoneId":"Europe/Zurich"},"lat":47.32067,"lng":7.89986,"population":6828},{"id":2661001,"name":"Domat","timezone":{"dstOffset":2,"gmtOffset":1,"timeZoneId":"Europe/Zurich"},"lat":46.83483,"lng":9.45075,"population":6817},{"id":6295508,"name":"Zürich (Kreis 7) / Hirslanden","timezone":{"dstOffset":2,"gmtOffset":1,"timeZoneId":"Europe/Zurich"},"lat":47.3624,"lng":8.56755,"population":6769},{"id":2659474,"name":"Nidau","timezone":{"dstOffset":2,"gmtOffset":1,"timeZoneId":"Europe/Zurich"},"lat":47.12545,"lng":7.24033,"population":6696},{"id":2657976,"name":"Windisch","timezone":{"dstOffset":2,"gmtOffset":1,"timeZoneId":"Europe/Zurich"},"lat":47.47899,"lng":8.21842,"population":6689},{"id":2660075,"name":"Lachen","timezone":{"dstOffset":2,"gmtOffset":1,"timeZoneId":"Europe/Zurich"},"lat":47.19152,"lng":8.8562,"population":6685},{"id":2661689,"name":"Au","timezone":{"dstOffset":2,"gmtOffset":1,"timeZoneId":"Europe/Zurich"},"lat":47.43221,"lng":9.63387,"population":6673},{"id":2660707,"name":"Frutigen","timezone":{"dstOffset":2,"gmtOffset":1,"timeZoneId":"Europe/Zurich"},"lat":46.58782,"lng":7.64751,"population":6671},{"id":2659298,"name":"Ollon","timezone":{"dstOffset":2,"gmtOffset":1,"timeZoneId":"Europe/Zurich"},"lat":46.29524,"lng":6.99314,"population":6665},{"id":2659658,"name":"Minusio","timezone":{"dstOffset":2,"gmtOffset":1,"timeZoneId":"Europe/Zurich"},"lat":46.17769,"lng":8.81473,"population":6653},{"id":2661129,"name":"Conthey","timezone":{"dstOffset":2,"gmtOffset":1,"timeZoneId":"Europe/Zurich"},"lat":46.22528,"lng":7.30372,"population":6634},{"id":2657928,"name":"Zermatt","timezone":{"dstOffset":2,"gmtOffset":1,"timeZoneId":"Europe/Zurich"},"lat":46.02126,"lng":7.74912,"population":6629},{"id":2661641,"name":"Bagnes","timezone":{"dstOffset":2,"gmtOffset":1,"timeZoneId":"Europe/Zurich"},"lat":46.08333,"lng":7.21667,"population":6626},{"id":2658904,"name":"Saanen","timezone":{"dstOffset":2,"gmtOffset":1,"timeZoneId":"Europe/Zurich"},"lat":46.48956,"lng":7.25961,"population":6621},{"id":2661072,"name":"Crissier","timezone":{"dstOffset":2,"gmtOffset":1,"timeZoneId":"Europe/Zurich"},"lat":46.55165,"lng":6.57125,"population":6612},{"id":2661348,"name":"Buchs","timezone":{"dstOffset":2,"gmtOffset":1,"timeZoneId":"Europe/Zurich"},"lat":47.39358,"lng":8.08233,"population":6599},{"id":2658112,"name":"Visp","timezone":{"dstOffset":2,"gmtOffset":1,"timeZoneId":"Europe/Zurich"},"lat":46.2937,"lng":7.88149,"population":6576},{"id":2660523,"name":"Gränichen","timezone":{"dstOffset":2,"gmtOffset":1,"timeZoneId":"Europe/Zurich"},"lat":47.3593,"lng":8.10243,"population":6557},{"id":2661407,"name":"Bremgarten","timezone":{"dstOffset":2,"gmtOffset":1,"timeZoneId":"Europe/Zurich"},"lat":47.35109,"lng":8.34214,"population":6543},{"id":2659708,"name":"Meggen","timezone":{"dstOffset":2,"gmtOffset":1,"timeZoneId":"Europe/Zurich"},"lat":47.04691,"lng":8.37467,"population":6533},{"id":2659171,"name":"Porrentruy","timezone":{"dstOffset":2,"gmtOffset":1,"timeZoneId":"Europe/Zurich"},"lat":47.41533,"lng":7.07522,"population":6521},{"id":8521688,"name":"Blécherette","timezone":{"dstOffset":2,"gmtOffset":1,"timeZoneId":"Europe/Zurich"},"lat":46.53932,"lng":6.62227,"population":6516},{"id":2660161,"name":"Kilchberg","timezone":{"dstOffset":2,"gmtOffset":1,"timeZoneId":"Europe/Zurich"},"lat":47.32438,"lng":8.54548,"population":6511},{"id":2658575,"name":"Sirnach","timezone":{"dstOffset":2,"gmtOffset":1,"timeZoneId":"Europe/Zurich"},"lat":47.46222,"lng":8.99763,"population":6463},{"id":2659531,"name":"Muri","timezone":{"dstOffset":2,"gmtOffset":1,"timeZoneId":"Europe/Zurich"},"lat":47.27428,"lng":8.33854,"population":6463},{"id":2660989,"name":"Dornach","timezone":{"dstOffset":2,"gmtOffset":1,"timeZoneId":"Europe/Zurich"},"lat":47.48038,"lng":7.61644,"population":6449},{"id":2658914,"name":"Ruswil","timezone":{"dstOffset":2,"gmtOffset":1,"timeZoneId":"Europe/Zurich"},"lat":47.08425,"lng":8.12645,"population":6432},{"id":2660543,"name":"Grabs","timezone":{"dstOffset":2,"gmtOffset":1,"timeZoneId":"Europe/Zurich"},"lat":47.18248,"lng":9.44395,"population":6384},{"id":2658135,"name":"Viganello","timezone":{"dstOffset":2,"gmtOffset":1,"timeZoneId":"Europe/Zurich"},"lat":46.01342,"lng":8.96879,"population":6375},{"id":2658237,"name":"Untersiggenthal","timezone":{"dstOffset":2,"gmtOffset":1,"timeZoneId":"Europe/Zurich"},"lat":47.50213,"lng":8.25554,"population":6344},{"id":2658076,"name":"Wahlern","timezone":{"dstOffset":2,"gmtOffset":1,"timeZoneId":"Europe/Zurich"},"lat":46.82806,"lng":7.35318,"population":6225},{"id":2658312,"name":"Trimbach","timezone":{"dstOffset":2,"gmtOffset":1,"timeZoneId":"Europe/Zurich"},"lat":47.3656,"lng":7.8868,"population":6220},{"id":6295546,"name":"Zürich (Kreis 1)","timezone":{"dstOffset":2,"gmtOffset":1,"timeZoneId":"Europe/Zurich"},"lat":47.37055,"lng":8.54177,"population":6185},{"id":2659776,"name":"Malters","timezone":{"dstOffset":2,"gmtOffset":1,"timeZoneId":"Europe/Zurich"},"lat":47.03628,"lng":8.18193,"population":6181},{"id":2660719,"name":"Frenkendorf","timezone":{"dstOffset":2,"gmtOffset":1,"timeZoneId":"Europe/Zurich"},"lat":47.50686,"lng":7.71648,"population":6180},{"id":2661014,"name":"Dietlikon / Dietlikon (Dorf)","timezone":{"dstOffset":2,"gmtOffset":1,"timeZoneId":"Europe/Zurich"},"lat":47.41827,"lng":8.6188,"population":6149},{"id":6292757,"name":"Horgen / Horgen (Dorfkern)","timezone":{"dstOffset":2,"gmtOffset":1,"timeZoneId":"Europe/Zurich"},"lat":47.25604,"lng":8.60159,"population":6140},{"id":2661030,"name":"Derendingen","timezone":{"dstOffset":2,"gmtOffset":1,"timeZoneId":"Europe/Zurich"},"lat":47.1985,"lng":7.58844,"population":6093},{"id":2661456,"name":"Bolligen","timezone":{"dstOffset":2,"gmtOffset":1,"timeZoneId":"Europe/Zurich"},"lat":46.9751,"lng":7.49697,"population":6086},{"id":2659853,"name":"Losone","timezone":{"dstOffset":2,"gmtOffset":1,"timeZoneId":"Europe/Zurich"},"lat":46.16866,"lng":8.75928,"population":6070},{"id":2659489,"name":"Neuenkirch","timezone":{"dstOffset":2,"gmtOffset":1,"timeZoneId":"Europe/Zurich"},"lat":47.09989,"lng":8.20416,"population":5963},{"id":2661527,"name":"Bex","timezone":{"dstOffset":2,"gmtOffset":1,"timeZoneId":"Europe/Zurich"},"lat":46.25214,"lng":7.01141,"population":5956},{"id":6295183,"name":"Mattenbach (Kreis 7) / Deutweg","timezone":{"dstOffset":2,"gmtOffset":1,"timeZoneId":"Europe/Zurich"},"lat":47.49419,"lng":8.73948,"population":5930},{"id":2661148,"name":"Collombey","timezone":{"dstOffset":2,"gmtOffset":1,"timeZoneId":"Europe/Zurich"},"lat":46.27008,"lng":6.94835,"population":5926},{"id":2660700,"name":"Fully","timezone":{"dstOffset":2,"gmtOffset":1,"timeZoneId":"Europe/Zurich"},"lat":46.13851,"lng":7.11468,"population":5922},{"id":2661432,"name":"Bottmingen","timezone":{"dstOffset":2,"gmtOffset":1,"timeZoneId":"Europe/Zurich"},"lat":47.52343,"lng":7.57211,"population":5912},{"id":2661524,"name":"Biasca","timezone":{"dstOffset":2,"gmtOffset":1,"timeZoneId":"Europe/Zurich"},"lat":46.35972,"lng":8.96965,"population":5885},{"id":2658572,"name":"Sissach","timezone":{"dstOffset":2,"gmtOffset":1,"timeZoneId":"Europe/Zurich"},"lat":47.46408,"lng":7.80888,"population":5873},{"id":2661626,"name":"Balsthal","timezone":{"dstOffset":2,"gmtOffset":1,"timeZoneId":"Europe/Zurich"},"lat":47.31613,"lng":7.69318,"population":5863},{"id":2657912,"name":"Zollikon","timezone":{"dstOffset":2,"gmtOffset":1,"timeZoneId":"Europe/Zurich"},"lat":47.34019,"lng":8.57407,"population":5812},{"id":2659392,"name":"Oberengstringen","timezone":{"dstOffset":2,"gmtOffset":1,"timeZoneId":"Europe/Zurich"},"lat":47.40841,"lng":8.46515,"population":5805},{"id":2659529,"name":"Murten","timezone":{"dstOffset":2,"gmtOffset":1,"timeZoneId":"Europe/Zurich"},"lat":46.92827,"lng":7.11715,"population":5800},{"id":2659739,"name":"Massagno","timezone":{"dstOffset":2,"gmtOffset":1,"timeZoneId":"Europe/Zurich"},"lat":46.01562,"lng":8.94534,"population":5774},{"id":2658518,"name":"Stäfa","timezone":{"dstOffset":2,"gmtOffset":1,"timeZoneId":"Europe/Zurich"},"lat":47.24254,"lng":8.72342,"population":5737},{"id":7779000,"name":"Les Avanchets","timezone":{"dstOffset":2,"gmtOffset":1,"timeZoneId":"Europe/Zurich"},"lat":46.22168,"lng":6.10814,"population":5730},{"id":2659227,"name":"Peseux","timezone":{"dstOffset":2,"gmtOffset":1,"timeZoneId":"Europe/Zurich"},"lat":46.98704,"lng":6.88903,"population":5716},{"id":2660656,"name":"Gelterkinden","timezone":{"dstOffset":2,"gmtOffset":1,"timeZoneId":"Europe/Zurich"},"lat":47.46497,"lng":7.85174,"population":5709},{"id":2658397,"name":"Teufen AR","timezone":{"dstOffset":2,"gmtOffset":1,"timeZoneId":"Europe/Zurich"},"lat":47.3908,"lng":9.38644,"population":5683},{"id":2660594,"name":"Glarus","timezone":{"dstOffset":2,"gmtOffset":1,"timeZoneId":"Europe/Zurich"},"lat":47.04057,"lng":9.06804,"population":5681},{"id":2658277,"name":"Uetendorf","timezone":{"dstOffset":2,"gmtOffset":1,"timeZoneId":"Europe/Zurich"},"lat":46.77392,"lng":7.57251,"population":5654},{"id":2661740,"name":"Appenzell","timezone":{"dstOffset":2,"gmtOffset":1,"timeZoneId":"Europe/Zurich"},"lat":47.33103,"lng":9.40996,"population":5649},{"id":2659331,"name":"Oberuzwil","timezone":{"dstOffset":2,"gmtOffset":1,"timeZoneId":"Europe/Zurich"},"lat":47.43076,"lng":9.12724,"population":5616},{"id":6293977,"name":"Pfäffikon / Pfäffikon (Dorfkern)","timezone":{"dstOffset":2,"gmtOffset":1,"timeZoneId":"Europe/Zurich"},"lat":47.36943,"lng":8.78309,"population":5595},{"id":2661862,"name":"Adligenswil","timezone":{"dstOffset":2,"gmtOffset":1,"timeZoneId":"Europe/Zurich"},"lat":47.06521,"lng":8.36124,"population":5576},{"id":2658775,"name":"Savièse","timezone":{"dstOffset":2,"gmtOffset":1,"timeZoneId":"Europe/Zurich"},"lat":46.25115,"lng":7.34558,"population":5575},{"id":6295510,"name":"Zürich (Kreis 8) / Mühlebach","timezone":{"dstOffset":2,"gmtOffset":1,"timeZoneId":"Europe/Zurich"},"lat":47.35727,"lng":8.55744,"population":5570},{"id":2658210,"name":"Uznach","timezone":{"dstOffset":2,"gmtOffset":1,"timeZoneId":"Europe/Zurich"},"lat":47.22421,"lng":8.98263,"population":5561},{"id":2661328,"name":"Buochs","timezone":{"dstOffset":2,"gmtOffset":1,"timeZoneId":"Europe/Zurich"},"lat":46.97398,"lng":8.42279,"population":5524},{"id":2660355,"name":"Herzogenbuchsee","timezone":{"dstOffset":2,"gmtOffset":1,"timeZoneId":"Europe/Zurich"},"lat":47.18795,"lng":7.7062,"population":5522},{"id":2660390,"name":"Heimberg","timezone":{"dstOffset":2,"gmtOffset":1,"timeZoneId":"Europe/Zurich"},"lat":46.79482,"lng":7.60433,"population":5501},{"id":2657947,"name":"Würenlos","timezone":{"dstOffset":2,"gmtOffset":1,"timeZoneId":"Europe/Zurich"},"lat":47.44208,"lng":8.36439,"population":5497},{"id":2658119,"name":"Villmergen","timezone":{"dstOffset":2,"gmtOffset":1,"timeZoneId":"Europe/Zurich"},"lat":47.34917,"lng":8.24583,"population":5489},{"id":2660338,"name":"Hinwil","timezone":{"dstOffset":2,"gmtOffset":1,"timeZoneId":"Europe/Zurich"},"lat":47.29426,"lng":8.84393,"population":5488},{"id":2661197,"name":"Chavannes","timezone":{"dstOffset":2,"gmtOffset":1,"timeZoneId":"Europe/Zurich"},"lat":46.53005,"lng":6.57068,"population":5454},{"id":2660367,"name":"Hergiswil","timezone":{"dstOffset":2,"gmtOffset":1,"timeZoneId":"Europe/Zurich"},"lat":46.98429,"lng":8.30944,"population":5437},{"id":2659687,"name":"Menziken","timezone":{"dstOffset":2,"gmtOffset":1,"timeZoneId":"Europe/Zurich"},"lat":47.24249,"lng":8.19047,"population":5415},{"id":2661600,"name":"Basse-Nendaz","timezone":{"dstOffset":2,"gmtOffset":1,"timeZoneId":"Europe/Zurich"},"lat":46.18993,"lng":7.31209,"population":5410},{"id":2661021,"name":"Diepoldsau","timezone":{"dstOffset":2,"gmtOffset":1,"timeZoneId":"Europe/Zurich"},"lat":47.386,"lng":9.65558,"population":5401},{"id":2658816,"name":"Sankt Margrethen","timezone":{"dstOffset":2,"gmtOffset":1,"timeZoneId":"Europe/Zurich"},"lat":47.45253,"lng":9.63741,"population":5395},{"id":6295102,"name":"Oberwinterthur (Kreis 2) / Guggenbühl","timezone":{"dstOffset":2,"gmtOffset":1,"timeZoneId":"Europe/Zurich"},"lat":47.51339,"lng":8.75998,"population":5376},{"id":6295092,"name":"Oberwinterthur (Kreis 2) / Talacker","timezone":{"dstOffset":2,"gmtOffset":1,"timeZoneId":"Europe/Zurich"},"lat":47.50596,"lng":8.7515,"population":5375},{"id":2661350,"name":"Buchrain","timezone":{"dstOffset":2,"gmtOffset":1,"timeZoneId":"Europe/Zurich"},"lat":47.09625,"lng":8.34729,"population":5341},{"id":2660156,"name":"Kirchberg","timezone":{"dstOffset":2,"gmtOffset":1,"timeZoneId":"Europe/Zurich"},"lat":47.08538,"lng":7.58288,"population":5335},{"id":2660573,"name":"Goldau","timezone":{"dstOffset":2,"gmtOffset":1,"timeZoneId":"Europe/Zurich"},"lat":47.04761,"lng":8.54616,"population":5285},{"id":2661776,"name":"Altendorf","timezone":{"dstOffset":2,"gmtOffset":1,"timeZoneId":"Europe/Zurich"},"lat":47.19137,"lng":8.82944,"population":5280},{"id":2659959,"name":"Le Mont-sur-Lausanne","timezone":{"dstOffset":2,"gmtOffset":1,"timeZoneId":"Europe/Zurich"},"lat":46.55815,"lng":6.63145,"population":5270},{"id":2658217,"name":"Urtenen","timezone":{"dstOffset":2,"gmtOffset":1,"timeZoneId":"Europe/Zurich"},"lat":47.02667,"lng":7.50081,"population":5258},{"id":2661468,"name":"Blonay","timezone":{"dstOffset":2,"gmtOffset":1,"timeZoneId":"Europe/Zurich"},"lat":46.46778,"lng":6.89615,"population":5244},{"id":2660086,"name":"Küttigen","timezone":{"dstOffset":2,"gmtOffset":1,"timeZoneId":"Europe/Zurich"},"lat":47.41566,"lng":8.04767,"population":5234},{"id":2658871,"name":"Saint-Imier","timezone":{"dstOffset":2,"gmtOffset":1,"timeZoneId":"Europe/Zurich"},"lat":47.15284,"lng":6.99692,"population":5220},{"id":2661789,"name":"Alpnach","timezone":{"dstOffset":2,"gmtOffset":1,"timeZoneId":"Europe/Zurich"},"lat":46.94227,"lng":8.2718,"population":5218},{"id":2660171,"name":"Kerns","timezone":{"dstOffset":2,"gmtOffset":1,"timeZoneId":"Europe/Zurich"},"lat":46.90134,"lng":8.27528,"population":5217},{"id":2660001,"name":"Laufen","timezone":{"dstOffset":2,"gmtOffset":1,"timeZoneId":"Europe/Zurich"},"lat":47.42193,"lng":7.49946,"population":5210},{"id":6295490,"name":"Zürich (Kreis 12) / Saatlen","timezone":{"dstOffset":2,"gmtOffset":1,"timeZoneId":"Europe/Zurich"},"lat":47.41127,"lng":8.5648,"population":5209},{"id":2658449,"name":"Sumiswald","timezone":{"dstOffset":2,"gmtOffset":1,"timeZoneId":"Europe/Zurich"},"lat":47.02747,"lng":7.74526,"population":5159},{"id":2658240,"name":"Unterseen","timezone":{"dstOffset":2,"gmtOffset":1,"timeZoneId":"Europe/Zurich"},"lat":46.6853,"lng":7.84722,"population":5150},{"id":2658927,"name":"Rümlang","timezone":{"dstOffset":2,"gmtOffset":1,"timeZoneId":"Europe/Zurich"},"lat":47.45041,"lng":8.52993,"population":5144},{"id":2659289,"name":"Orbe","timezone":{"dstOffset":2,"gmtOffset":1,"timeZoneId":"Europe/Zurich"},"lat":46.72504,"lng":6.53069,"population":5132},{"id":6294550,"name":"Uster / Ober-Uster","timezone":{"dstOffset":2,"gmtOffset":1,"timeZoneId":"Europe/Zurich"},"lat":47.34874,"lng":8.73319,"population":5100},{"id":2661202,"name":"Châtel-Saint-Denis","timezone":{"dstOffset":2,"gmtOffset":1,"timeZoneId":"Europe/Zurich"},"lat":46.52691,"lng":6.90083,"population":5094},{"id":2661698,"name":"Ascona","timezone":{"dstOffset":2,"gmtOffset":1,"timeZoneId":"Europe/Zurich"},"lat":46.15451,"lng":8.77327,"population":5084},{"id":2660253,"name":"Interlaken","timezone":{"dstOffset":2,"gmtOffset":1,"timeZoneId":"Europe/Zurich"},"lat":46.68387,"lng":7.86638,"population":5067},{"id":2661644,"name":"Bad Ragaz","timezone":{"dstOffset":2,"gmtOffset":1,"timeZoneId":"Europe/Zurich"},"lat":47.00601,"lng":9.50266,"population":5063},{"id":2660851,"name":"Estavayer-le-Lac","timezone":{"dstOffset":2,"gmtOffset":1,"timeZoneId":"Europe/Zurich"},"lat":46.84876,"lng":6.8465,"population":5061},{"id":2658793,"name":"Sargans","timezone":{"dstOffset":2,"gmtOffset":1,"timeZoneId":"Europe/Zurich"},"lat":47.04896,"lng":9.44103,"population":5045},{"id":2660515,"name":"Greifensee","timezone":{"dstOffset":2,"gmtOffset":1,"timeZoneId":"Europe/Zurich"},"lat":47.36717,"lng":8.68115,"population":5032},{"id":6291374,"name":"Wallisellen / Wallisellen-Ost","timezone":{"dstOffset":2,"gmtOffset":1,"timeZoneId":"Europe/Zurich"},"lat":47.41446,"lng":8.59727,"population":5031},{"id":2660359,"name":"Herrliberg","timezone":{"dstOffset":2,"gmtOffset":1,"timeZoneId":"Europe/Zurich"},"lat":47.29064,"lng":8.61464,"population":5025},{"id":2658061,"name":"Walenstadt","timezone":{"dstOffset":2,"gmtOffset":1,"timeZoneId":"Europe/Zurich"},"lat":47.12411,"lng":9.31194,"population":5000},{"id":2661394,"name":"Brig","timezone":{"dstOffset":2,"gmtOffset":1,"timeZoneId":"Europe/Zurich"},"lat":46.31667,"lng":7.98333,"population":5000},{"id":6295509,"name":"Zürich (Kreis 8) / Seefeld","timezone":{"dstOffset":2,"gmtOffset":1,"timeZoneId":"Europe/Zurich"},"lat":47.35462,"lng":8.55537,"population":4998},{"id":2660849,"name":"Ettingen","timezone":{"dstOffset":2,"gmtOffset":1,"timeZoneId":"Europe/Zurich"},"lat":47.48268,"lng":7.54982,"population":4980},{"id":2660950,"name":"Échallens","timezone":{"dstOffset":2,"gmtOffset":1,"timeZoneId":"Europe/Zurich"},"lat":46.6413,"lng":6.63317,"population":4972},{"id":2658813,"name":"Saint Moritz","timezone":{"dstOffset":2,"gmtOffset":1,"timeZoneId":"Europe/Zurich"},"lat":46.4984,"lng":9.83909,"population":4952},{"id":6295511,"name":"Zürich (Kreis 8) / Weinegg","timezone":{"dstOffset":2,"gmtOffset":1,"timeZoneId":"Europe/Zurich"},"lat":47.3525,"lng":8.57011,"population":4951},{"id":2659307,"name":"Oetwil","timezone":{"dstOffset":2,"gmtOffset":1,"timeZoneId":"Europe/Zurich"},"lat":47.27049,"lng":8.72023,"population":4925},{"id":2660764,"name":"Flamatt","timezone":{"dstOffset":2,"gmtOffset":1,"timeZoneId":"Europe/Zurich"},"lat":46.88994,"lng":7.32204,"population":4922},{"id":6293356,"name":"Männedorf / Dorfkern","timezone":{"dstOffset":2,"gmtOffset":1,"timeZoneId":"Europe/Zurich"},"lat":47.25612,"lng":8.69161,"population":4893},{"id":2659993,"name":"Lausen","timezone":{"dstOffset":2,"gmtOffset":1,"timeZoneId":"Europe/Zurich"},"lat":47.47139,"lng":7.7603,"population":4892},{"id":2661429,"name":"Boudry","timezone":{"dstOffset":2,"gmtOffset":1,"timeZoneId":"Europe/Zurich"},"lat":46.94991,"lng":6.83757,"population":4886},{"id":2660637,"name":"Gerlafingen","timezone":{"dstOffset":2,"gmtOffset":1,"timeZoneId":"Europe/Zurich"},"lat":47.16978,"lng":7.57505,"population":4864},{"id":2658749,"name":"Schattdorf","timezone":{"dstOffset":2,"gmtOffset":1,"timeZoneId":"Europe/Zurich"},"lat":46.8655,"lng":8.65466,"population":4860},{"id":2660951,"name":"Ebnat-Kappel","timezone":{"dstOffset":2,"gmtOffset":1,"timeZoneId":"Europe/Zurich"},"lat":47.26195,"lng":9.12473,"population":4852},{"id":2660747,"name":"Flums","timezone":{"dstOffset":2,"gmtOffset":1,"timeZoneId":"Europe/Zurich"},"lat":47.09058,"lng":9.34301,"population":4848},{"id":2661691,"name":"Au","timezone":{"dstOffset":2,"gmtOffset":1,"timeZoneId":"Europe/Zurich"},"lat":47.24185,"lng":8.64406,"population":4844},{"id":2661533,"name":"Bettlach","timezone":{"dstOffset":2,"gmtOffset":1,"timeZoneId":"Europe/Zurich"},"lat":47.20062,"lng":7.42405,"population":4834},{"id":2661496,"name":"Birmensdorf","timezone":{"dstOffset":2,"gmtOffset":1,"timeZoneId":"Europe/Zurich"},"lat":47.35515,"lng":8.44256,"population":4772},{"id":2658626,"name":"Sennwald","timezone":{"dstOffset":2,"gmtOffset":1,"timeZoneId":"Europe/Zurich"},"lat":47.26053,"lng":9.50268,"population":4768},{"id":2660309,"name":"Hombrechtikon","timezone":{"dstOffset":2,"gmtOffset":1,"timeZoneId":"Europe/Zurich"},"lat":47.25298,"lng":8.77212,"population":4767},{"id":6295147,"name":"Veltheim (Kreis 5) / Rosenberg","timezone":{"dstOffset":2,"gmtOffset":1,"timeZoneId":"Europe/Zurich"},"lat":47.51386,"lng":8.71583,"population":4765},{"id":2660030,"name":"Langnau / Langnau (Dorf)","timezone":{"dstOffset":2,"gmtOffset":1,"timeZoneId":"Europe/Zurich"},"lat":47.28643,"lng":8.53627,"population":4745},{"id":2658706,"name":"Schönenwerd","timezone":{"dstOffset":2,"gmtOffset":1,"timeZoneId":"Europe/Zurich"},"lat":47.3691,"lng":8.00167,"population":4732},{"id":6639664,"name":"Préverenges","timezone":{"dstOffset":2,"gmtOffset":1,"timeZoneId":"Europe/Zurich"},"lat":46.51854,"lng":6.52682,"population":4695},{"id":2658053,"name":"Wangen","timezone":{"dstOffset":2,"gmtOffset":1,"timeZoneId":"Europe/Zurich"},"lat":47.34365,"lng":7.86982,"population":4686},{"id":2661024,"name":"Dielsdorf","timezone":{"dstOffset":2,"gmtOffset":1,"timeZoneId":"Europe/Zurich"},"lat":47.48146,"lng":8.4585,"population":4671},{"id":2658919,"name":"Rüschlikon","timezone":{"dstOffset":2,"gmtOffset":1,"timeZoneId":"Europe/Zurich"},"lat":47.30688,"lng":8.55135,"population":4653},{"id":2659700,"name":"Meiringen","timezone":{"dstOffset":2,"gmtOffset":1,"timeZoneId":"Europe/Zurich"},"lat":46.72709,"lng":8.1872,"population":4652},{"id":2660281,"name":"Huttwil","timezone":{"dstOffset":2,"gmtOffset":1,"timeZoneId":"Europe/Zurich"},"lat":47.11502,"lng":7.86209,"population":4643},{"id":2658176,"name":"Vechigen","timezone":{"dstOffset":2,"gmtOffset":1,"timeZoneId":"Europe/Zurich"},"lat":46.94616,"lng":7.56065,"population":4619},{"id":6295078,"name":"Stadt Winterthur (Kreis 1) / Lind","timezone":{"dstOffset":2,"gmtOffset":1,"timeZoneId":"Europe/Zurich"},"lat":47.50571,"lng":8.73372,"population":4617},{"id":2659550,"name":"Münchwilen","timezone":{"dstOffset":2,"gmtOffset":1,"timeZoneId":"Europe/Zurich"},"lat":47.47719,"lng":8.99677,"population":4612},{"id":2659311,"name":"Oensingen","timezone":{"dstOffset":2,"gmtOffset":1,"timeZoneId":"Europe/Zurich"},"lat":47.28639,"lng":7.72305,"population":4609},{"id":2660716,"name":"Frick","timezone":{"dstOffset":2,"gmtOffset":1,"timeZoneId":"Europe/Zurich"},"lat":47.51169,"lng":8.02471,"population":4583},{"id":2660117,"name":"Konolfingen","timezone":{"dstOffset":2,"gmtOffset":1,"timeZoneId":"Europe/Zurich"},"lat":46.87909,"lng":7.62013,"population":4562},{"id":2661360,"name":"Bubendorf","timezone":{"dstOffset":2,"gmtOffset":1,"timeZoneId":"Europe/Zurich"},"lat":47.44586,"lng":7.73759,"population":4543},{"id":2661555,"name":"Berikon","timezone":{"dstOffset":2,"gmtOffset":1,"timeZoneId":"Europe/Zurich"},"lat":47.35137,"lng":8.37209,"population":4527},{"id":2660872,"name":"Erlenbach","timezone":{"dstOffset":2,"gmtOffset":1,"timeZoneId":"Europe/Zurich"},"lat":47.30298,"lng":8.59743,"population":4519},{"id":2658894,"name":"Sachseln","timezone":{"dstOffset":2,"gmtOffset":1,"timeZoneId":"Europe/Zurich"},"lat":46.86718,"lng":8.23344,"population":4511},{"id":2661380,"name":"Bronschhofen","timezone":{"dstOffset":2,"gmtOffset":1,"timeZoneId":"Europe/Zurich"},"lat":47.47835,"lng":9.03454,"population":4489},{"id":2658982,"name":"Romont","timezone":{"dstOffset":2,"gmtOffset":1,"timeZoneId":"Europe/Zurich"},"lat":46.69652,"lng":6.91898,"population":4483},{"id":2658502,"name":"Stansstad","timezone":{"dstOffset":2,"gmtOffset":1,"timeZoneId":"Europe/Zurich"},"lat":46.9768,"lng":8.33553,"population":4471},{"id":2658862,"name":"Saint-Prex","timezone":{"dstOffset":2,"gmtOffset":1,"timeZoneId":"Europe/Zurich"},"lat":46.47963,"lng":6.45992,"population":4461},{"id":2660170,"name":"Kerzers","timezone":{"dstOffset":2,"gmtOffset":1,"timeZoneId":"Europe/Zurich"},"lat":46.97586,"lng":7.1957,"population":4459},{"id":2660701,"name":"Füllinsdorf","timezone":{"dstOffset":2,"gmtOffset":1,"timeZoneId":"Europe/Zurich"},"lat":47.50688,"lng":7.73129,"population":4442},{"id":2658989,"name":"Rolle","timezone":{"dstOffset":2,"gmtOffset":1,"timeZoneId":"Europe/Zurich"},"lat":46.4582,"lng":6.33499,"population":4425},{"id":2657900,"name":"Zumikon","timezone":{"dstOffset":2,"gmtOffset":1,"timeZoneId":"Europe/Zurich"},"lat":47.33158,"lng":8.62271,"population":4424},{"id":2659703,"name":"Meilen","timezone":{"dstOffset":2,"gmtOffset":1,"timeZoneId":"Europe/Zurich"},"lat":47.27232,"lng":8.64617,"population":4419},{"id":2659358,"name":"Oberrieden","timezone":{"dstOffset":2,"gmtOffset":1,"timeZoneId":"Europe/Zurich"},"lat":47.27444,"lng":8.57838,"population":4413},{"id":2661110,"name":"Cortaillod","timezone":{"dstOffset":2,"gmtOffset":1,"timeZoneId":"Europe/Zurich"},"lat":46.94306,"lng":6.8444,"population":4410},{"id":2658623,"name":"Seon","timezone":{"dstOffset":2,"gmtOffset":1,"timeZoneId":"Europe/Zurich"},"lat":47.3449,"lng":8.15607,"population":4407},{"id":2658613,"name":"Sevelen","timezone":{"dstOffset":2,"gmtOffset":1,"timeZoneId":"Europe/Zurich"},"lat":47.12213,"lng":9.48601,"population":4392},{"id":6292591,"name":"Wetzikon / Kempten","timezone":{"dstOffset":2,"gmtOffset":1,"timeZoneId":"Europe/Zurich"},"lat":47.33319,"lng":8.80982,"population":4377},{"id":2658123,"name":"Villeneuve","timezone":{"dstOffset":2,"gmtOffset":1,"timeZoneId":"Europe/Zurich"},"lat":46.39869,"lng":6.92654,"population":4349},{"id":2658469,"name":"Strengelbach","timezone":{"dstOffset":2,"gmtOffset":1,"timeZoneId":"Europe/Zurich"},"lat":47.27917,"lng":7.92895,"population":4349},{"id":2659569,"name":"Moudon","timezone":{"dstOffset":2,"gmtOffset":1,"timeZoneId":"Europe/Zurich"},"lat":46.66948,"lng":6.80127,"population":4343},{"id":2658597,"name":"Sigriswil","timezone":{"dstOffset":2,"gmtOffset":1,"timeZoneId":"Europe/Zurich"},"lat":46.71656,"lng":7.71335,"population":4341},{"id":2660426,"name":"Hägendorf","timezone":{"dstOffset":2,"gmtOffset":1,"timeZoneId":"Europe/Zurich"},"lat":47.33436,"lng":7.84192,"population":4338},{"id":2659597,"name":"Morbio Inferiore","timezone":{"dstOffset":2,"gmtOffset":1,"timeZoneId":"Europe/Zurich"},"lat":45.85341,"lng":9.01644,"population":4331},{"id":6295166,"name":"Wülflingen (Kreis 6) / Oberfeld","timezone":{"dstOffset":2,"gmtOffset":1,"timeZoneId":"Europe/Zurich"},"lat":47.49873,"lng":8.69897,"population":4288},{"id":2660550,"name":"Gossau","timezone":{"dstOffset":2,"gmtOffset":1,"timeZoneId":"Europe/Zurich"},"lat":47.3051,"lng":8.75831,"population":4287},{"id":2659963,"name":"Le Landeron","timezone":{"dstOffset":2,"gmtOffset":1,"timeZoneId":"Europe/Zurich"},"lat":47.0562,"lng":7.07184,"population":4278},{"id":2657889,"name":"Zuzwil","timezone":{"dstOffset":2,"gmtOffset":1,"timeZoneId":"Europe/Zurich"},"lat":47.47452,"lng":9.11196,"population":4226},{"id":2660892,"name":"Ennetbürgen","timezone":{"dstOffset":2,"gmtOffset":1,"timeZoneId":"Europe/Zurich"},"lat":46.98423,"lng":8.41003,"population":4226},{"id":2659691,"name":"Mellingen","timezone":{"dstOffset":2,"gmtOffset":1,"timeZoneId":"Europe/Zurich"},"lat":47.41903,"lng":8.27331,"population":4224},{"id":2658874,"name":"Sainte-Croix","timezone":{"dstOffset":2,"gmtOffset":1,"timeZoneId":"Europe/Zurich"},"lat":46.82203,"lng":6.50283,"population":4214},{"id":2657891,"name":"Bad Zurzach","timezone":{"dstOffset":2,"gmtOffset":1,"timeZoneId":"Europe/Zurich"},"lat":47.58764,"lng":8.29365,"population":4213},{"id":2660787,"name":"Feusisberg","timezone":{"dstOffset":2,"gmtOffset":1,"timeZoneId":"Europe/Zurich"},"lat":47.18707,"lng":8.74724,"population":4210},{"id":2658315,"name":"Triengen","timezone":{"dstOffset":2,"gmtOffset":1,"timeZoneId":"Europe/Zurich"},"lat":47.23375,"lng":8.07729,"population":4193},{"id":6293731,"name":"Zollikerberg","timezone":{"dstOffset":2,"gmtOffset":1,"timeZoneId":"Europe/Zurich"},"lat":47.3451,"lng":8.60088,"population":4187},{"id":2658331,"name":"Tramelan","timezone":{"dstOffset":2,"gmtOffset":1,"timeZoneId":"Europe/Zurich"},"lat":47.22393,"lng":7.0995,"population":4186},{"id":6295514,"name":"Schwerzenbach","timezone":{"dstOffset":2,"gmtOffset":1,"timeZoneId":"Europe/Zurich"},"lat":47.38213,"lng":8.65727,"population":4180},{"id":2660932,"name":"Egnach","timezone":{"dstOffset":2,"gmtOffset":1,"timeZoneId":"Europe/Zurich"},"lat":47.54264,"lng":9.38,"population":4179},{"id":2661874,"name":"Aarwangen","timezone":{"dstOffset":2,"gmtOffset":1,"timeZoneId":"Europe/Zurich"},"lat":47.23845,"lng":7.76854,"population":4171},{"id":2659089,"name":"Rebstein","timezone":{"dstOffset":2,"gmtOffset":1,"timeZoneId":"Europe/Zurich"},"lat":47.39812,"lng":9.58503,"population":4163},{"id":6295300,"name":"Dietikon / Oberdorf","timezone":{"dstOffset":2,"gmtOffset":1,"timeZoneId":"Europe/Zurich"},"lat":47.40065,"lng":8.39416,"population":4147},{"id":2658146,"name":"Vétroz","timezone":{"dstOffset":2,"gmtOffset":1,"timeZoneId":"Europe/Zurich"},"lat":46.22414,"lng":7.28903,"population":4137},{"id":2658924,"name":"Rupperswil","timezone":{"dstOffset":2,"gmtOffset":1,"timeZoneId":"Europe/Zurich"},"lat":47.40131,"lng":8.12877,"population":4137},{"id":6295148,"name":"Veltheim (Kreis 5) / Blumenau","timezone":{"dstOffset":2,"gmtOffset":1,"timeZoneId":"Europe/Zurich"},"lat":47.50618,"lng":8.71563,"population":4135},{"id":6294548,"name":"Uster / Nieder-Uster","timezone":{"dstOffset":2,"gmtOffset":1,"timeZoneId":"Europe/Zurich"},"lat":47.34743,"lng":8.70088,"population":4128},{"id":2658387,"name":"Thayngen","timezone":{"dstOffset":2,"gmtOffset":1,"timeZoneId":"Europe/Zurich"},"lat":47.74717,"lng":8.70724,"population":4120},{"id":2660659,"name":"Gebenstorf","timezone":{"dstOffset":2,"gmtOffset":1,"timeZoneId":"Europe/Zurich"},"lat":47.48136,"lng":8.23949,"population":4100},{"id":6295121,"name":"Seen (Kreis 3) / Waser","timezone":{"dstOffset":2,"gmtOffset":1,"timeZoneId":"Europe/Zurich"},"lat":47.48913,"lng":8.76034,"population":4088},{"id":2659974,"name":"Le Chenit","timezone":{"dstOffset":2,"gmtOffset":1,"timeZoneId":"Europe/Zurich"},"lat":46.60688,"lng":6.23062,"population":4062},{"id":2660120,"name":"Kölliken","timezone":{"dstOffset":2,"gmtOffset":1,"timeZoneId":"Europe/Zurich"},"lat":47.33882,"lng":8.02644,"population":4059},{"id":2658051,"name":"Wängi","timezone":{"dstOffset":2,"gmtOffset":1,"timeZoneId":"Europe/Zurich"},"lat":47.49761,"lng":8.95356,"population":4051},{"id":2657956,"name":"Wolhusen","timezone":{"dstOffset":2,"gmtOffset":1,"timeZoneId":"Europe/Zurich"},"lat":47.05983,"lng":8.07389,"population":4050},{"id":2660128,"name":"Klosters Serneus","timezone":{"dstOffset":2,"gmtOffset":1,"timeZoneId":"Europe/Zurich"},"lat":46.88918,"lng":9.83826,"population":4044},{"id":2659317,"name":"Obfelden","timezone":{"dstOffset":2,"gmtOffset":1,"timeZoneId":"Europe/Zurich"},"lat":47.26413,"lng":8.4215,"population":4039},{"id":2659814,"name":"Lützelflüh","timezone":{"dstOffset":2,"gmtOffset":1,"timeZoneId":"Europe/Zurich"},"lat":47.00757,"lng":7.69165,"population":4035},{"id":2660228,"name":"Jegenstorf","timezone":{"dstOffset":2,"gmtOffset":1,"timeZoneId":"Europe/Zurich"},"lat":47.04802,"lng":7.50787,"population":4027},{"id":2659461,"name":"Niederlenz","timezone":{"dstOffset":2,"gmtOffset":1,"timeZoneId":"Europe/Zurich"},"lat":47.40079,"lng":8.1764,"population":4022},{"id":2661635,"name":"Balgach","timezone":{"dstOffset":2,"gmtOffset":1,"timeZoneId":"Europe/Zurich"},"lat":47.40544,"lng":9.6095,"population":4019},{"id":2660942,"name":"Egg","timezone":{"dstOffset":2,"gmtOffset":1,"timeZoneId":"Europe/Zurich"},"lat":47.29976,"lng":8.69032,"population":4003},{"id":2660902,"name":"Engelberg","timezone":{"dstOffset":2,"gmtOffset":1,"timeZoneId":"Europe/Zurich"},"lat":46.82107,"lng":8.40133,"population":4001},{"id":2660392,"name":"Heiden","timezone":{"dstOffset":2,"gmtOffset":1,"timeZoneId":"Europe/Zurich"},"lat":47.44255,"lng":9.53293,"population":3999},{"id":2661316,"name":"Bürglen","timezone":{"dstOffset":2,"gmtOffset":1,"timeZoneId":"Europe/Zurich"},"lat":46.87565,"lng":8.66539,"population":3996},{"id":2658537,"name":"Speicher","timezone":{"dstOffset":2,"gmtOffset":1,"timeZoneId":"Europe/Zurich"},"lat":47.4109,"lng":9.44335,"population":3985},{"id":2659516,"name":"Näfels","timezone":{"dstOffset":2,"gmtOffset":1,"timeZoneId":"Europe/Zurich"},"lat":47.09975,"lng":9.06411,"population":3978},{"id":2660559,"name":"Gordola","timezone":{"dstOffset":2,"gmtOffset":1,"timeZoneId":"Europe/Zurich"},"lat":46.18256,"lng":8.86657,"population":3974},{"id":6295545,"name":"Seuzach Dorf","timezone":{"dstOffset":2,"gmtOffset":1,"timeZoneId":"Europe/Zurich"},"lat":47.5356,"lng":8.73209,"population":3969},{"id":2661187,"name":"Cheseaux-sur-Lausanne","timezone":{"dstOffset":2,"gmtOffset":1,"timeZoneId":"Europe/Zurich"},"lat":46.58624,"lng":6.60587,"population":3946},{"id":2659078,"name":"Reiden","timezone":{"dstOffset":2,"gmtOffset":1,"timeZoneId":"Europe/Zurich"},"lat":47.24719,"lng":7.97135,"population":3926},{"id":2658521,"name":"Stabio","timezone":{"dstOffset":2,"gmtOffset":1,"timeZoneId":"Europe/Zurich"},"lat":45.85099,"lng":8.93918,"population":3917},{"id":2661880,"name":"Aarberg","timezone":{"dstOffset":2,"gmtOffset":1,"timeZoneId":"Europe/Zurich"},"lat":47.04439,"lng":7.27578,"population":3911},{"id":6295499,"name":"Zürich (Kreis 4) / Werd","timezone":{"dstOffset":2,"gmtOffset":1,"timeZoneId":"Europe/Zurich"},"lat":47.37178,"lng":8.52584,"population":3911},{"id":2658976,"name":"Root","timezone":{"dstOffset":2,"gmtOffset":1,"timeZoneId":"Europe/Zurich"},"lat":47.11458,"lng":8.39021,"population":3886},{"id":2661493,"name":"Birr","timezone":{"dstOffset":2,"gmtOffset":1,"timeZoneId":"Europe/Zurich"},"lat":47.43587,"lng":8.20801,"population":3884},{"id":2659686,"name":"Menzingen","timezone":{"dstOffset":2,"gmtOffset":1,"timeZoneId":"Europe/Zurich"},"lat":47.17764,"lng":8.59215,"population":3878},{"id":2660863,"name":"Erstfeld","timezone":{"dstOffset":2,"gmtOffset":1,"timeZoneId":"Europe/Zurich"},"lat":46.81885,"lng":8.65052,"population":3876},{"id":2658306,"name":"Troistorrents","timezone":{"dstOffset":2,"gmtOffset":1,"timeZoneId":"Europe/Zurich"},"lat":46.2289,"lng":6.91589,"population":3873},{"id":6291053,"name":"Bülach / Niederflachs","timezone":{"dstOffset":2,"gmtOffset":1,"timeZoneId":"Europe/Zurich"},"lat":47.51426,"lng":8.53267,"population":3870},{"id":2661375,"name":"Brügg","timezone":{"dstOffset":2,"gmtOffset":1,"timeZoneId":"Europe/Zurich"},"lat":47.1237,"lng":7.27887,"population":3868},{"id":2661531,"name":"Bevaix","timezone":{"dstOffset":2,"gmtOffset":1,"timeZoneId":"Europe/Zurich"},"lat":46.92958,"lng":6.8147,"population":3866},{"id":2658038,"name":"Weggis","timezone":{"dstOffset":2,"gmtOffset":1,"timeZoneId":"Europe/Zurich"},"lat":47.03208,"lng":8.43219,"population":3863},{"id":2659470,"name":"Niederbipp","timezone":{"dstOffset":2,"gmtOffset":1,"timeZoneId":"Europe/Zurich"},"lat":47.26613,"lng":7.69461,"population":3862},{"id":2659325,"name":"Wetzikon / Ober-Wetzikon","timezone":{"dstOffset":2,"gmtOffset":1,"timeZoneId":"Europe/Zurich"},"lat":47.32514,"lng":8.80005,"population":3858},{"id":2659464,"name":"Niedergösgen","timezone":{"dstOffset":2,"gmtOffset":1,"timeZoneId":"Europe/Zurich"},"lat":47.37217,"lng":7.99122,"population":3847},{"id":2659447,"name":"Wichtrach","timezone":{"dstOffset":2,"gmtOffset":1,"timeZoneId":"Europe/Zurich"},"lat":46.8501,"lng":7.57748,"population":3843},{"id":2660351,"name":"Hilterfingen","timezone":{"dstOffset":2,"gmtOffset":1,"timeZoneId":"Europe/Zurich"},"lat":46.73521,"lng":7.66185,"population":3841},{"id":6292759,"name":"Horgen / Allmend","timezone":{"dstOffset":2,"gmtOffset":1,"timeZoneId":"Europe/Zurich"},"lat":47.24729,"lng":8.6066,"population":3809},{"id":2660194,"name":"Kaltbrunn","timezone":{"dstOffset":2,"gmtOffset":1,"timeZoneId":"Europe/Zurich"},"lat":47.21367,"lng":9.0259,"population":3803},{"id":2661038,"name":"Degersheim","timezone":{"dstOffset":2,"gmtOffset":1,"timeZoneId":"Europe/Zurich"},"lat":47.37429,"lng":9.20019,"population":3802},{"id":2658937,"name":"Rudolfstetten","timezone":{"dstOffset":2,"gmtOffset":1,"timeZoneId":"Europe/Zurich"},"lat":47.37101,"lng":8.38083,"population":3800},{"id":2660812,"name":"Fehraltorf","timezone":{"dstOffset":2,"gmtOffset":1,"timeZoneId":"Europe/Zurich"},"lat":47.38775,"lng":8.75149,"population":3767},{"id":2658631,"name":"Sempach","timezone":{"dstOffset":2,"gmtOffset":1,"timeZoneId":"Europe/Zurich"},"lat":47.13577,"lng":8.19149,"population":3754},{"id":2659851,"name":"Lostorf","timezone":{"dstOffset":2,"gmtOffset":1,"timeZoneId":"Europe/Zurich"},"lat":47.38445,"lng":7.94849,"population":3749},{"id":2657948,"name":"Würenlingen","timezone":{"dstOffset":2,"gmtOffset":1,"timeZoneId":"Europe/Zurich"},"lat":47.53356,"lng":8.25666,"population":3741},{"id":2661384,"name":"Brittnau","timezone":{"dstOffset":2,"gmtOffset":1,"timeZoneId":"Europe/Zurich"},"lat":47.25954,"lng":7.94689,"population":3735},{"id":2660805,"name":"Feldmeilen","timezone":{"dstOffset":2,"gmtOffset":1,"timeZoneId":"Europe/Zurich"},"lat":47.27873,"lng":8.62165,"population":3732},{"id":2660498,"name":"Grindelwald","timezone":{"dstOffset":2,"gmtOffset":1,"timeZoneId":"Europe/Zurich"},"lat":46.62396,"lng":8.03601,"population":3730},{"id":2658690,"name":"Schüpfheim","timezone":{"dstOffset":2,"gmtOffset":1,"timeZoneId":"Europe/Zurich"},"lat":46.95161,"lng":8.01724,"population":3723},{"id":2658864,"name":"Saint-Maurice","timezone":{"dstOffset":2,"gmtOffset":1,"timeZoneId":"Europe/Zurich"},"lat":46.21826,"lng":7.0032,"population":3701},{"id":2661361,"name":"Brüttisellen","timezone":{"dstOffset":2,"gmtOffset":1,"timeZoneId":"Europe/Zurich"},"lat":47.42173,"lng":8.63263,"population":3697},{"id":2660007,"name":"La Tour-de-Trême","timezone":{"dstOffset":2,"gmtOffset":1,"timeZoneId":"Europe/Zurich"},"lat":46.61061,"lng":7.06496,"population":3686},{"id":2660758,"name":"Fleurier","timezone":{"dstOffset":2,"gmtOffset":1,"timeZoneId":"Europe/Zurich"},"lat":46.90224,"lng":6.58253,"population":3681},{"id":6295537,"name":"Geroldswil","timezone":{"dstOffset":2,"gmtOffset":1,"timeZoneId":"Europe/Zurich"},"lat":47.42213,"lng":8.41085,"population":3681},{"id":2659731,"name":"Matten bei Interlaken","timezone":{"dstOffset":2,"gmtOffset":1,"timeZoneId":"Europe/Zurich"},"lat":46.67833,"lng":7.86889,"population":3676},{"id":2661568,"name":"Bellevue","timezone":{"dstOffset":2,"gmtOffset":1,"timeZoneId":"Europe/Zurich"},"lat":46.25739,"lng":6.15475,"population":3674},{"id":2658994,"name":"Roggwil","timezone":{"dstOffset":2,"gmtOffset":1,"timeZoneId":"Europe/Zurich"},"lat":47.24119,"lng":7.82141,"population":3673},{"id":2659451,"name":"Niederurnen","timezone":{"dstOffset":2,"gmtOffset":1,"timeZoneId":"Europe/Zurich"},"lat":47.12598,"lng":9.05428,"population":3657},{"id":2661260,"name":"Caslano","timezone":{"dstOffset":2,"gmtOffset":1,"timeZoneId":"Europe/Zurich"},"lat":45.97153,"lng":8.88261,"population":3655},{"id":2661836,"name":"Agno","timezone":{"dstOffset":2,"gmtOffset":1,"timeZoneId":"Europe/Zurich"},"lat":45.99863,"lng":8.9003,"population":3639},{"id":2660177,"name":"Kehrsatz","timezone":{"dstOffset":2,"gmtOffset":1,"timeZoneId":"Europe/Zurich"},"lat":46.91035,"lng":7.47096,"population":3636},{"id":6295528,"name":"Niederglatt","timezone":{"dstOffset":2,"gmtOffset":1,"timeZoneId":"Europe/Zurich"},"lat":47.49066,"lng":8.49987,"population":3632},{"id":6295145,"name":"Töss (Kreis 4) / Eichliacker","timezone":{"dstOffset":2,"gmtOffset":1,"timeZoneId":"Europe/Zurich"},"lat":47.48727,"lng":8.7074,"population":3626},{"id":2658211,"name":"Utzenstorf","timezone":{"dstOffset":2,"gmtOffset":1,"timeZoneId":"Europe/Zurich"},"lat":47.12981,"lng":7.55838,"population":3625},{"id":6292397,"name":"Rüti / Dorfzentrum, Südl. Teil","timezone":{"dstOffset":2,"gmtOffset":1,"timeZoneId":"Europe/Zurich"},"lat":47.25368,"lng":8.85654,"population":3618},{"id":6252010,"name":"Wettswil / Wettswil (Dorf)","timezone":{"dstOffset":2,"gmtOffset":1,"timeZoneId":"Europe/Zurich"},"lat":47.34152,"lng":8.47149,"population":3605},{"id":2658577,"name":"Sins","timezone":{"dstOffset":2,"gmtOffset":1,"timeZoneId":"Europe/Zurich"},"lat":47.19216,"lng":8.39578,"population":3600},{"id":2660204,"name":"Kaiseraugst","timezone":{"dstOffset":2,"gmtOffset":1,"timeZoneId":"Europe/Zurich"},"lat":47.53966,"lng":7.72605,"population":3600},{"id":2659385,"name":"Oberglatt","timezone":{"dstOffset":2,"gmtOffset":1,"timeZoneId":"Europe/Zurich"},"lat":47.47576,"lng":8.51896,"population":3564},{"id":2660604,"name":"Giswil","timezone":{"dstOffset":2,"gmtOffset":1,"timeZoneId":"Europe/Zurich"},"lat":46.83333,"lng":8.18065,"population":3563},{"id":2659538,"name":"Muotathal","timezone":{"dstOffset":2,"gmtOffset":1,"timeZoneId":"Europe/Zurich"},"lat":46.97676,"lng":8.76499,"population":3548},{"id":2661863,"name":"Adelboden","timezone":{"dstOffset":2,"gmtOffset":1,"timeZoneId":"Europe/Zurich"},"lat":46.49142,"lng":7.56031,"population":3541},{"id":6291716,"name":"Rümlang / Rümlang (Dorfkern)","timezone":{"dstOffset":2,"gmtOffset":1,"timeZoneId":"Europe/Zurich"},"lat":47.4494,"lng":8.53255,"population":3528},{"id":6691324,"name":"Langendorf","timezone":{"dstOffset":2,"gmtOffset":1,"timeZoneId":"Europe/Zurich"},"lat":47.21974,"lng":7.51469,"population":3518},{"id":6291373,"name":"Wallisellen / Wallisellen-West","timezone":{"dstOffset":2,"gmtOffset":1,"timeZoneId":"Europe/Zurich"},"lat":47.41906,"lng":8.58586,"population":3511},{"id":2660279,"name":"Ibach","timezone":{"dstOffset":2,"gmtOffset":1,"timeZoneId":"Europe/Zurich"},"lat":47.01105,"lng":8.64538,"population":3500},{"id":2659954,"name":"Lens","timezone":{"dstOffset":2,"gmtOffset":1,"timeZoneId":"Europe/Zurich"},"lat":46.27965,"lng":7.44596,"population":3497},{"id":2659579,"name":"Mörschwil","timezone":{"dstOffset":2,"gmtOffset":1,"timeZoneId":"Europe/Zurich"},"lat":47.46867,"lng":9.42178,"population":3496},{"id":2660038,"name":"La Neuveville","timezone":{"dstOffset":2,"gmtOffset":1,"timeZoneId":"Europe/Zurich"},"lat":47.0684,"lng":7.09955,"population":3495},{"id":2658769,"name":"Saxon","timezone":{"dstOffset":2,"gmtOffset":1,"timeZoneId":"Europe/Zurich"},"lat":46.15005,"lng":7.18074,"population":3477},{"id":2661637,"name":"Balerna","timezone":{"dstOffset":2,"gmtOffset":1,"timeZoneId":"Europe/Zurich"},"lat":45.84638,"lng":9.00724,"population":3456},{"id":2658774,"name":"Savigny","timezone":{"dstOffset":2,"gmtOffset":1,"timeZoneId":"Europe/Zurich"},"lat":46.53844,"lng":6.73222,"population":3440},{"id":2659798,"name":"Magden","timezone":{"dstOffset":2,"gmtOffset":1,"timeZoneId":"Europe/Zurich"},"lat":47.52868,"lng":7.81128,"population":3433},{"id":2658276,"name":"Uetikon","timezone":{"dstOffset":2,"gmtOffset":1,"timeZoneId":"Europe/Zurich"},"lat":47.26441,"lng":8.67925,"population":3431},{"id":2659165,"name":"Poschiavo","timezone":{"dstOffset":2,"gmtOffset":1,"timeZoneId":"Europe/Zurich"},"lat":46.3244,"lng":10.05721,"population":3428},{"id":2660857,"name":"Eschlikon","timezone":{"dstOffset":2,"gmtOffset":1,"timeZoneId":"Europe/Zurich"},"lat":47.46361,"lng":8.96381,"population":3425},{"id":2661132,"name":"Confignon","timezone":{"dstOffset":2,"gmtOffset":1,"timeZoneId":"Europe/Zurich"},"lat":46.17341,"lng":6.08437,"population":3425},{"id":2659564,"name":"Muhen","timezone":{"dstOffset":2,"gmtOffset":1,"timeZoneId":"Europe/Zurich"},"lat":47.33671,"lng":8.05408,"population":3419},{"id":2658432,"name":"Tägerwilen","timezone":{"dstOffset":2,"gmtOffset":1,"timeZoneId":"Europe/Zurich"},"lat":47.65594,"lng":9.13167,"population":3414},{"id":2658754,"name":"Schänis","timezone":{"dstOffset":2,"gmtOffset":1,"timeZoneId":"Europe/Zurich"},"lat":47.15799,"lng":9.04736,"population":3404},{"id":2658718,"name":"Schmitten","timezone":{"dstOffset":2,"gmtOffset":1,"timeZoneId":"Europe/Zurich"},"lat":46.8575,"lng":7.25031,"population":3403},{"id":2661302,"name":"Bütschwil","timezone":{"dstOffset":2,"gmtOffset":1,"timeZoneId":"Europe/Zurich"},"lat":47.36022,"lng":9.07213,"population":3393},{"id":2659908,"name":"Leuk","timezone":{"dstOffset":2,"gmtOffset":1,"timeZoneId":"Europe/Zurich"},"lat":46.31736,"lng":7.63412,"population":3386},{"id":2658415,"name":"Tavannes","timezone":{"dstOffset":2,"gmtOffset":1,"timeZoneId":"Europe/Zurich"},"lat":47.22079,"lng":7.19759,"population":3367},{"id":2658455,"name":"Sulgen","timezone":{"dstOffset":2,"gmtOffset":1,"timeZoneId":"Europe/Zurich"},"lat":47.5377,"lng":9.18497,"population":3367},{"id":6295481,"name":"Zürich (Kreis 10) / Rütihof","timezone":{"dstOffset":2,"gmtOffset":1,"timeZoneId":"Europe/Zurich"},"lat":47.41444,"lng":8.47928,"population":3326},{"id":2659203,"name":"Pieterlen","timezone":{"dstOffset":2,"gmtOffset":1,"timeZoneId":"Europe/Zurich"},"lat":47.17501,"lng":7.33791,"population":3317},{"id":2658714,"name":"Schöftland","timezone":{"dstOffset":2,"gmtOffset":1,"timeZoneId":"Europe/Zurich"},"lat":47.30572,"lng":8.05138,"population":3310},{"id":2658720,"name":"Schmerikon","timezone":{"dstOffset":2,"gmtOffset":1,"timeZoneId":"Europe/Zurich"},"lat":47.22538,"lng":8.94836,"population":3307},{"id":2661601,"name":"Bassecourt","timezone":{"dstOffset":2,"gmtOffset":1,"timeZoneId":"Europe/Zurich"},"lat":47.33829,"lng":7.24494,"population":3305},{"id":2661057,"name":"Dagmersellen","timezone":{"dstOffset":2,"gmtOffset":1,"timeZoneId":"Europe/Zurich"},"lat":47.21366,"lng":7.98466,"population":3300},{"id":2659062,"name":"Rheineck","timezone":{"dstOffset":2,"gmtOffset":1,"timeZoneId":"Europe/Zurich"},"lat":47.4663,"lng":9.59028,"population":3298},{"id":2658093,"name":"Vouvry","timezone":{"dstOffset":2,"gmtOffset":1,"timeZoneId":"Europe/Zurich"},"lat":46.33625,"lng":6.89053,"population":3296},{"id":2660887,"name":"Entlebuch","timezone":{"dstOffset":2,"gmtOffset":1,"timeZoneId":"Europe/Zurich"},"lat":46.99559,"lng":8.06354,"population":3293},{"id":2659822,"name":"Luterbach","timezone":{"dstOffset":2,"gmtOffset":1,"timeZoneId":"Europe/Zurich"},"lat":47.21426,"lng":7.58463,"population":3292},{"id":6292920,"name":"Richterswil / Richterswil (Dorfkern)","timezone":{"dstOffset":2,"gmtOffset":1,"timeZoneId":"Europe/Zurich"},"lat":47.20323,"lng":8.70516,"population":3292},{"id":2658649,"name":"Seengen","timezone":{"dstOffset":2,"gmtOffset":1,"timeZoneId":"Europe/Zurich"},"lat":47.32852,"lng":8.20509,"population":3288},{"id":2658269,"name":"Uitikon","timezone":{"dstOffset":2,"gmtOffset":1,"timeZoneId":"Europe/Zurich"},"lat":47.36911,"lng":8.45699,"population":3282},{"id":2660920,"name":"Elgg","timezone":{"dstOffset":2,"gmtOffset":1,"timeZoneId":"Europe/Zurich"},"lat":47.49715,"lng":8.86523,"population":3282},{"id":2658075,"name":"Walchwil","timezone":{"dstOffset":2,"gmtOffset":1,"timeZoneId":"Europe/Zurich"},"lat":47.10169,"lng":8.51693,"population":3268},{"id":2660400,"name":"Hausen am Albis / Hausen (Dorf)","timezone":{"dstOffset":2,"gmtOffset":1,"timeZoneId":"Europe/Zurich"},"lat":47.24496,"lng":8.53299,"population":3253},{"id":6294605,"name":"Hegnau / Sunnebüel-Eich","timezone":{"dstOffset":2,"gmtOffset":1,"timeZoneId":"Europe/Zurich"},"lat":47.39246,"lng":8.6791,"population":3250},{"id":2658691,"name":"Schüpfen","timezone":{"dstOffset":2,"gmtOffset":1,"timeZoneId":"Europe/Zurich"},"lat":47.03661,"lng":7.37723,"population":3248},{"id":2661655,"name":"Ayent","timezone":{"dstOffset":2,"gmtOffset":1,"timeZoneId":"Europe/Zurich"},"lat":46.28249,"lng":7.41028,"population":3243},{"id":2661412,"name":"Breitenbach","timezone":{"dstOffset":2,"gmtOffset":1,"timeZoneId":"Europe/Zurich"},"lat":47.40564,"lng":7.54382,"population":3241},{"id":2660688,"name":"Gachnang","timezone":{"dstOffset":2,"gmtOffset":1,"timeZoneId":"Europe/Zurich"},"lat":47.53893,"lng":8.85245,"population":3235},{"id":2659113,"name":"Rafz","timezone":{"dstOffset":2,"gmtOffset":1,"timeZoneId":"Europe/Zurich"},"lat":47.60438,"lng":8.54305,"population":3233},{"id":2658701,"name":"Schötz","timezone":{"dstOffset":2,"gmtOffset":1,"timeZoneId":"Europe/Zurich"},"lat":47.16896,"lng":7.9887,"population":3231},{"id":2658495,"name":"Steckborn","timezone":{"dstOffset":2,"gmtOffset":1,"timeZoneId":"Europe/Zurich"},"lat":47.66667,"lng":8.98333,"population":3229},{"id":2659372,"name":"Oberkirch","timezone":{"dstOffset":2,"gmtOffset":1,"timeZoneId":"Europe/Zurich"},"lat":47.15642,"lng":8.11567,"population":3228},{"id":6293334,"name":"Küsnacht / Heslibach","timezone":{"dstOffset":2,"gmtOffset":1,"timeZoneId":"Europe/Zurich"},"lat":47.31307,"lng":8.58849,"population":3228},{"id":2658489,"name":"Stein am Rhein","timezone":{"dstOffset":2,"gmtOffset":1,"timeZoneId":"Europe/Zurich"},"lat":47.65933,"lng":8.85964,"population":3224},{"id":2660219,"name":"Jonschwil","timezone":{"dstOffset":2,"gmtOffset":1,"timeZoneId":"Europe/Zurich"},"lat":47.42402,"lng":9.08689,"population":3221},{"id":2661554,"name":"Beringen","timezone":{"dstOffset":2,"gmtOffset":1,"timeZoneId":"Europe/Zurich"},"lat":47.69763,"lng":8.57431,"population":3216},{"id":2658892,"name":"Safenwil","timezone":{"dstOffset":2,"gmtOffset":1,"timeZoneId":"Europe/Zurich"},"lat":47.3214,"lng":7.98122,"population":3201},{"id":2660856,"name":"Escholzmatt","timezone":{"dstOffset":2,"gmtOffset":1,"timeZoneId":"Europe/Zurich"},"lat":46.91259,"lng":7.93418,"population":3192},{"id":2658734,"name":"Schindellegi","timezone":{"dstOffset":2,"gmtOffset":1,"timeZoneId":"Europe/Zurich"},"lat":47.1746,"lng":8.71345,"population":3174},{"id":2659152,"name":"Prangins","timezone":{"dstOffset":2,"gmtOffset":1,"timeZoneId":"Europe/Zurich"},"lat":46.39396,"lng":6.24948,"population":3172},{"id":2659504,"name":"Neftenbach / Dorf Neftenbach","timezone":{"dstOffset":2,"gmtOffset":1,"timeZoneId":"Europe/Zurich"},"lat":47.52764,"lng":8.6649,"population":3171},{"id":2659105,"name":"Randogne","timezone":{"dstOffset":2,"gmtOffset":1,"timeZoneId":"Europe/Zurich"},"lat":46.31303,"lng":7.49113,"population":3157},{"id":2660361,"name":"Hermiswil","timezone":{"dstOffset":2,"gmtOffset":1,"timeZoneId":"Europe/Zurich"},"lat":46.83125,"lng":7.47775,"population":3156},{"id":2661315,"name":"Bürglen","timezone":{"dstOffset":2,"gmtOffset":1,"timeZoneId":"Europe/Zurich"},"lat":47.55036,"lng":9.15235,"population":3149},{"id":6295082,"name":"Stadt Winterthur (Kreis 1) / Neuwiesen","timezone":{"dstOffset":2,"gmtOffset":1,"timeZoneId":"Europe/Zurich"},"lat":47.50207,"lng":8.71625,"population":3149},{"id":2658067,"name":"Waldkirch","timezone":{"dstOffset":2,"gmtOffset":1,"timeZoneId":"Europe/Zurich"},"lat":47.46859,"lng":9.28605,"population":3137},{"id":2657978,"name":"Willisau","timezone":{"dstOffset":2,"gmtOffset":1,"timeZoneId":"Europe/Zurich"},"lat":47.12183,"lng":7.99418,"population":3125},{"id":2660986,"name":"Dottikon","timezone":{"dstOffset":2,"gmtOffset":1,"timeZoneId":"Europe/Zurich"},"lat":47.38437,"lng":8.23981,"population":3125},{"id":2658986,"name":"Romanel","timezone":{"dstOffset":2,"gmtOffset":1,"timeZoneId":"Europe/Zurich"},"lat":46.56667,"lng":6.60453,"population":3123},{"id":2661437,"name":"Bösingen","timezone":{"dstOffset":2,"gmtOffset":1,"timeZoneId":"Europe/Zurich"},"lat":46.89229,"lng":7.2277,"population":3118},{"id":2658289,"name":"Turbenthal","timezone":{"dstOffset":2,"gmtOffset":1,"timeZoneId":"Europe/Zurich"},"lat":47.43633,"lng":8.84629,"population":3109},{"id":2660607,"name":"Gipf-Oberfrick","timezone":{"dstOffset":2,"gmtOffset":1,"timeZoneId":"Europe/Zurich"},"lat":47.49875,"lng":8.00498,"population":3102},{"id":2658248,"name":"Unterkulm","timezone":{"dstOffset":2,"gmtOffset":1,"timeZoneId":"Europe/Zurich"},"lat":47.30998,"lng":8.11371,"population":3099},{"id":2658194,"name":"Vallorbe","timezone":{"dstOffset":2,"gmtOffset":1,"timeZoneId":"Europe/Zurich"},"lat":46.71256,"lng":6.37894,"population":3098},{"id":6295483,"name":"Zürich (Kreis 1) / Rathaus","timezone":{"dstOffset":2,"gmtOffset":1,"timeZoneId":"Europe/Zurich"},"lat":47.37161,"lng":8.54501,"population":3091},{"id":2658878,"name":"Saint-Blaise","timezone":{"dstOffset":2,"gmtOffset":1,"timeZoneId":"Europe/Zurich"},"lat":47.01323,"lng":6.98472,"population":3089},{"id":2661095,"name":"Courroux","timezone":{"dstOffset":2,"gmtOffset":1,"timeZoneId":"Europe/Zurich"},"lat":47.36069,"lng":7.37371,"population":3085},{"id":6292396,"name":"Rüti / Westlicher Dorfteil","timezone":{"dstOffset":2,"gmtOffset":1,"timeZoneId":"Europe/Zurich"},"lat":47.25548,"lng":8.8449,"population":3083},{"id":2660135,"name":"Klingnau","timezone":{"dstOffset":2,"gmtOffset":1,"timeZoneId":"Europe/Zurich"},"lat":47.57998,"lng":8.25048,"population":3069},{"id":2659900,"name":"Leysin","timezone":{"dstOffset":2,"gmtOffset":1,"timeZoneId":"Europe/Zurich"},"lat":46.34183,"lng":7.01151,"population":3066},{"id":2658073,"name":"Wald","timezone":{"dstOffset":2,"gmtOffset":1,"timeZoneId":"Europe/Zurich"},"lat":47.27595,"lng":8.91405,"population":3061},{"id":2660873,"name":"Erlen","timezone":{"dstOffset":2,"gmtOffset":1,"timeZoneId":"Europe/Zurich"},"lat":47.54832,"lng":9.23366,"population":3057},{"id":2658782,"name":"Satigny","timezone":{"dstOffset":2,"gmtOffset":1,"timeZoneId":"Europe/Zurich"},"lat":46.21462,"lng":6.03553,"population":3055},{"id":2661585,"name":"Beckenried","timezone":{"dstOffset":2,"gmtOffset":1,"timeZoneId":"Europe/Zurich"},"lat":46.96653,"lng":8.47575,"population":3050},{"id":2659533,"name":"Murgenthal","timezone":{"dstOffset":2,"gmtOffset":1,"timeZoneId":"Europe/Zurich"},"lat":47.26667,"lng":7.81667,"population":3044},{"id":2658488,"name":"Steinen","timezone":{"dstOffset":2,"gmtOffset":1,"timeZoneId":"Europe/Zurich"},"lat":47.04976,"lng":8.61214,"population":3041},{"id":2658424,"name":"Tann","timezone":{"dstOffset":2,"gmtOffset":1,"timeZoneId":"Europe/Zurich"},"lat":47.26898,"lng":8.85024,"population":3034},{"id":2661205,"name":"Chateau-d'Oex","timezone":{"dstOffset":2,"gmtOffset":1,"timeZoneId":"Europe/Zurich"},"lat":46.47455,"lng":7.13155,"population":3034},{"id":6295079,"name":"Stadt Winterthur (Kreis 1) / Heiligberg","timezone":{"dstOffset":2,"gmtOffset":1,"timeZoneId":"Europe/Zurich"},"lat":47.49409,"lng":8.72334,"population":3034},{"id":2659636,"name":"Mollis","timezone":{"dstOffset":2,"gmtOffset":1,"timeZoneId":"Europe/Zurich"},"lat":47.09418,"lng":9.07542,"population":3014},{"id":6941590,"name":"Givisiez","timezone":{"dstOffset":2,"gmtOffset":1,"timeZoneId":"Europe/Zurich"},"lat":46.81201,"lng":7.12639,"population":3010},{"id":2657916,"name":"Zizers","timezone":{"dstOffset":2,"gmtOffset":1,"timeZoneId":"Europe/Zurich"},"lat":46.93575,"lng":9.56491,"population":3009},{"id":2661564,"name":"Belmont-sur-Lausanne","timezone":{"dstOffset":2,"gmtOffset":1,"timeZoneId":"Europe/Zurich"},"lat":46.51891,"lng":6.67636,"population":3007},{"id":2661651,"name":"Bachenbülach","timezone":{"dstOffset":2,"gmtOffset":1,"timeZoneId":"Europe/Zurich"},"lat":47.50317,"lng":8.54556,"population":2985},{"id":2658288,"name":"Turgi","timezone":{"dstOffset":2,"gmtOffset":1,"timeZoneId":"Europe/Zurich"},"lat":47.49201,"lng":8.25412,"population":2982},{"id":2660670,"name":"Gams","timezone":{"dstOffset":2,"gmtOffset":1,"timeZoneId":"Europe/Zurich"},"lat":47.20429,"lng":9.44172,"population":2971},{"id":2660269,"name":"Illnau","timezone":{"dstOffset":2,"gmtOffset":1,"timeZoneId":"Europe/Zurich"},"lat":47.4113,"lng":8.72125,"population":2964},{"id":6291134,"name":"Embrach / Embrach (Dorfkern)","timezone":{"dstOffset":2,"gmtOffset":1,"timeZoneId":"Europe/Zurich"},"lat":47.504,"lng":8.59477,"population":2960},{"id":2661557,"name":"Berg","timezone":{"dstOffset":2,"gmtOffset":1,"timeZoneId":"Europe/Zurich"},"lat":47.5797,"lng":9.16635,"population":2942},{"id":2660474,"name":"Grosswangen","timezone":{"dstOffset":2,"gmtOffset":1,"timeZoneId":"Europe/Zurich"},"lat":47.13282,"lng":8.04781,"population":2941},{"id":2659574,"name":"Mosnang","timezone":{"dstOffset":2,"gmtOffset":1,"timeZoneId":"Europe/Zurich"},"lat":47.36252,"lng":9.04296,"population":2936},{"id":2660943,"name":"Egerkingen","timezone":{"dstOffset":2,"gmtOffset":1,"timeZoneId":"Europe/Zurich"},"lat":47.31957,"lng":7.78424,"population":2923},{"id":6295184,"name":"Mattenbach (Kreis 7) / Gutschick","timezone":{"dstOffset":2,"gmtOffset":1,"timeZoneId":"Europe/Zurich"},"lat":47.49104,"lng":8.75258,"population":2923},{"id":2658653,"name":"Seedorf","timezone":{"dstOffset":2,"gmtOffset":1,"timeZoneId":"Europe/Zurich"},"lat":47.03445,"lng":7.31249,"population":2920},{"id":2659436,"name":"Nottwil","timezone":{"dstOffset":2,"gmtOffset":1,"timeZoneId":"Europe/Zurich"},"lat":47.13569,"lng":8.13712,"population":2911},{"id":2659404,"name":"Oberburg","timezone":{"dstOffset":2,"gmtOffset":1,"timeZoneId":"Europe/Zurich"},"lat":47.03774,"lng":7.62652,"population":2901},{"id":2658634,"name":"Selzach","timezone":{"dstOffset":2,"gmtOffset":1,"timeZoneId":"Europe/Zurich"},"lat":47.20531,"lng":7.45521,"population":2900},{"id":2659497,"name":"Netstal","timezone":{"dstOffset":2,"gmtOffset":1,"timeZoneId":"Europe/Zurich"},"lat":47.06197,"lng":9.05534,"population":2900},{"id":2661398,"name":"Brienz","timezone":{"dstOffset":2,"gmtOffset":1,"timeZoneId":"Europe/Zurich"},"lat":46.7545,"lng":8.03847,"population":2899},{"id":2661300,"name":"Buttisholz","timezone":{"dstOffset":2,"gmtOffset":1,"timeZoneId":"Europe/Zurich"},"lat":47.11442,"lng":8.09425,"population":2890},{"id":2658478,"name":"Stettlen","timezone":{"dstOffset":2,"gmtOffset":1,"timeZoneId":"Europe/Zurich"},"lat":46.95835,"lng":7.52508,"population":2884},{"id":6956026,"name":"Hausen","timezone":{"dstOffset":2,"gmtOffset":1,"timeZoneId":"Europe/Zurich"},"lat":47.46396,"lng":8.20988,"population":2881},{"id":2659079,"name":"Reichenburg","timezone":{"dstOffset":2,"gmtOffset":1,"timeZoneId":"Europe/Zurich"},"lat":47.16747,"lng":8.98304,"population":2876},{"id":2661542,"name":"Beromünster","timezone":{"dstOffset":2,"gmtOffset":1,"timeZoneId":"Europe/Zurich"},"lat":47.20612,"lng":8.19265,"population":2876},{"id":6292398,"name":"Rüti / Oberdorf","timezone":{"dstOffset":2,"gmtOffset":1,"timeZoneId":"Europe/Zurich"},"lat":47.25894,"lng":8.86512,"population":2875},{"id":6295549,"name":"Obermeilen","timezone":{"dstOffset":2,"gmtOffset":1,"timeZoneId":"Europe/Zurich"},"lat":47.2679,"lng":8.66391,"population":2871},{"id":2659402,"name":"Oberdiessbach","timezone":{"dstOffset":2,"gmtOffset":1,"timeZoneId":"Europe/Zurich"},"lat":46.84117,"lng":7.6173,"population":2860},{"id":2658464,"name":"Subingen","timezone":{"dstOffset":2,"gmtOffset":1,"timeZoneId":"Europe/Zurich"},"lat":47.19852,"lng":7.61949,"population":2852},{"id":2658992,"name":"Rohr","timezone":{"dstOffset":2,"gmtOffset":1,"timeZoneId":"Europe/Zurich"},"lat":47.41029,"lng":7.95333,"population":2849},{"id":6291558,"name":"Niederhasli","timezone":{"dstOffset":2,"gmtOffset":1,"timeZoneId":"Europe/Zurich"},"lat":47.48012,"lng":8.48576,"population":2848},{"id":2661194,"name":"Chavornay","timezone":{"dstOffset":2,"gmtOffset":1,"timeZoneId":"Europe/Zurich"},"lat":46.70244,"lng":6.5694,"population":2841},{"id":6290434,"name":"Hedingen","timezone":{"dstOffset":2,"gmtOffset":1,"timeZoneId":"Europe/Zurich"},"lat":47.29794,"lng":8.44833,"population":2835},{"id":2658433,"name":"Tafers","timezone":{"dstOffset":2,"gmtOffset":1,"timeZoneId":"Europe/Zurich"},"lat":46.81483,"lng":7.21852,"population":2833},{"id":2658311,"name":"Trimmis","timezone":{"dstOffset":2,"gmtOffset":1,"timeZoneId":"Europe/Zurich"},"lat":46.89907,"lng":9.56236,"population":2831},{"id":2658188,"name":"Vandœuvres","timezone":{"dstOffset":2,"gmtOffset":1,"timeZoneId":"Europe/Zurich"},"lat":46.22179,"lng":6.20285,"population":2826},{"id":2660254,"name":"Ins","timezone":{"dstOffset":2,"gmtOffset":1,"timeZoneId":"Europe/Zurich"},"lat":47.00584,"lng":7.10609,"population":2826},{"id":6295305,"name":"Dietikon / Hofacker","timezone":{"dstOffset":2,"gmtOffset":1,"timeZoneId":"Europe/Zurich"},"lat":47.39718,"lng":8.41609,"population":2826},{"id":2658600,"name":"Signau","timezone":{"dstOffset":2,"gmtOffset":1,"timeZoneId":"Europe/Zurich"},"lat":46.91944,"lng":7.72418,"population":2821},{"id":2659166,"name":"Port-Valais","timezone":{"dstOffset":2,"gmtOffset":1,"timeZoneId":"Europe/Zurich"},"lat":46.37156,"lng":6.87263,"population":2821},{"id":6294614,"name":"Hegnau / Dammboden-Grindel","timezone":{"dstOffset":2,"gmtOffset":1,"timeZoneId":"Europe/Zurich"},"lat":47.38713,"lng":8.66657,"population":2817},{"id":2657887,"name":"Zweisimmen","timezone":{"dstOffset":2,"gmtOffset":1,"timeZoneId":"Europe/Zurich"},"lat":46.55452,"lng":7.37385,"population":2813},{"id":2661086,"name":"Couvet","timezone":{"dstOffset":2,"gmtOffset":1,"timeZoneId":"Europe/Zurich"},"lat":46.92613,"lng":6.63415,"population":2811},{"id":2660491,"name":"Grossaffoltern","timezone":{"dstOffset":2,"gmtOffset":1,"timeZoneId":"Europe/Zurich"},"lat":47.06595,"lng":7.36232,"population":2810},{"id":2659670,"name":"Mettmenstetten","timezone":{"dstOffset":2,"gmtOffset":1,"timeZoneId":"Europe/Zurich"},"lat":47.24529,"lng":8.46347,"population":2798},{"id":2661104,"name":"Cossonay","timezone":{"dstOffset":2,"gmtOffset":1,"timeZoneId":"Europe/Zurich"},"lat":46.61443,"lng":6.50631,"population":2795},{"id":2658043,"name":"Wattenwil","timezone":{"dstOffset":2,"gmtOffset":1,"timeZoneId":"Europe/Zurich"},"lat":46.76973,"lng":7.50835,"population":2788},{"id":2659456,"name":"Niederrohrdorf","timezone":{"dstOffset":2,"gmtOffset":1,"timeZoneId":"Europe/Zurich"},"lat":47.42352,"lng":8.30643,"population":2784},{"id":2660568,"name":"Gommiswald","timezone":{"dstOffset":2,"gmtOffset":1,"timeZoneId":"Europe/Zurich"},"lat":47.23128,"lng":9.02355,"population":2781},{"id":2659631,"name":"Mönchaltorf","timezone":{"dstOffset":2,"gmtOffset":1,"timeZoneId":"Europe/Zurich"},"lat":47.30958,"lng":8.72029,"population":2779},{"id":2660681,"name":"Gais","timezone":{"dstOffset":2,"gmtOffset":1,"timeZoneId":"Europe/Zurich"},"lat":47.3615,"lng":9.45356,"population":2778},{"id":6295447,"name":"Zürich (Kreis 2) / Unter-Leimbach","timezone":{"dstOffset":2,"gmtOffset":1,"timeZoneId":"Europe/Zurich"},"lat":47.33362,"lng":8.51433,"population":2778},{"id":2659998,"name":"Laupen","timezone":{"dstOffset":2,"gmtOffset":1,"timeZoneId":"Europe/Zurich"},"lat":46.90214,"lng":7.23973,"population":2774},{"id":2661188,"name":"Chermignon-d’en Haut","timezone":{"dstOffset":2,"gmtOffset":1,"timeZoneId":"Europe/Zurich"},"lat":46.28844,"lng":7.47487,"population":2773},{"id":6295143,"name":"Töss (Kreis 4) / Schlosstal","timezone":{"dstOffset":2,"gmtOffset":1,"timeZoneId":"Europe/Zurich"},"lat":47.49279,"lng":8.70223,"population":2762},{"id":2658759,"name":"Schafisheim","timezone":{"dstOffset":2,"gmtOffset":1,"timeZoneId":"Europe/Zurich"},"lat":47.37529,"lng":8.14076,"population":2758},{"id":2661661,"name":"Avenches","timezone":{"dstOffset":2,"gmtOffset":1,"timeZoneId":"Europe/Zurich"},"lat":46.88004,"lng":7.04071,"population":2758},{"id":2661596,"name":"Bätterkinden","timezone":{"dstOffset":2,"gmtOffset":1,"timeZoneId":"Europe/Zurich"},"lat":47.13363,"lng":7.54104,"population":2748},{"id":2659561,"name":"Mühleberg","timezone":{"dstOffset":2,"gmtOffset":1,"timeZoneId":"Europe/Zurich"},"lat":46.95466,"lng":7.26102,"population":2739},{"id":2660529,"name":"Grandson","timezone":{"dstOffset":2,"gmtOffset":1,"timeZoneId":"Europe/Zurich"},"lat":46.80946,"lng":6.646,"population":2735},{"id":2659281,"name":"Orsières","timezone":{"dstOffset":2,"gmtOffset":1,"timeZoneId":"Europe/Zurich"},"lat":46.02903,"lng":7.14437,"population":2725},{"id":2658105,"name":"Volketswil / Volketswil (Dorf)","timezone":{"dstOffset":2,"gmtOffset":1,"timeZoneId":"Europe/Zurich"},"lat":47.39016,"lng":8.69085,"population":2723},{"id":2659122,"name":"Quarten","timezone":{"dstOffset":2,"gmtOffset":1,"timeZoneId":"Europe/Zurich"},"lat":47.107,"lng":9.24199,"population":2715},{"id":6293102,"name":"Wädenswil / Büelen","timezone":{"dstOffset":2,"gmtOffset":1,"timeZoneId":"Europe/Zurich"},"lat":47.23395,"lng":8.66346,"population":2710},{"id":2661745,"name":"Anières","timezone":{"dstOffset":2,"gmtOffset":1,"timeZoneId":"Europe/Zurich"},"lat":46.27673,"lng":6.22204,"population":2706},{"id":2661687,"name":"Aubonne","timezone":{"dstOffset":2,"gmtOffset":1,"timeZoneId":"Europe/Zurich"},"lat":46.49514,"lng":6.39155,"population":2703},{"id":2658846,"name":"Samedan","timezone":{"dstOffset":2,"gmtOffset":1,"timeZoneId":"Europe/Zurich"},"lat":46.53417,"lng":9.87122,"population":2700},{"id":2659996,"name":"Lauperswil","timezone":{"dstOffset":2,"gmtOffset":1,"timeZoneId":"Europe/Zurich"},"lat":46.96564,"lng":7.74214,"population":2700},{"id":2660893,"name":"Ennenda","timezone":{"dstOffset":2,"gmtOffset":1,"timeZoneId":"Europe/Zurich"},"lat":47.03465,"lng":9.07725,"population":2699},{"id":2658632,"name":"Sementina","timezone":{"dstOffset":2,"gmtOffset":1,"timeZoneId":"Europe/Zurich"},"lat":46.18363,"lng":8.99162,"population":2695},{"id":6292760,"name":"Horgen / Scheller-Stockerstrasse","timezone":{"dstOffset":2,"gmtOffset":1,"timeZoneId":"Europe/Zurich"},"lat":47.26584,"lng":8.5876,"population":2690},{"id":2658253,"name":"Unterengstringen","timezone":{"dstOffset":2,"gmtOffset":1,"timeZoneId":"Europe/Zurich"},"lat":47.41396,"lng":8.44761,"population":2675},