[{"id":3871336,"name":"Santiago","timezone":{"dstOffset":-3,"gmtOffset":-3,"timeZoneId":"America/Santiago"},"lat":-33.45694,"lng":-70.64827,"population":4837295},{"id":3875024,"name":"Puente Alto","timezone":{"dstOffset":-3,"gmtOffset":-3,"timeZoneId":"America/Santiago"},"lat":-33.61169,"lng":-70.57577,"population":510417},{"id":3899539,"name":"Antofagasta","timezone":{"dstOffset":-3,"gmtOffset":-3,"timeZoneId":"America/Santiago"},"lat":-23.65236,"lng":-70.3954,"population":309832},{"id":3868121,"name":"Viña del Mar","timezone":{"dstOffset":-3,"gmtOffset":-3,"timeZoneId":"America/Santiago"},"lat":-33.02457,"lng":-71.55183,"population":294551},{"id":3868626,"name":"Valparaíso","timezone":{"dstOffset":-3,"gmtOffset":-3,"timeZoneId":"America/Santiago"},"lat":-33.03932,"lng":-71.62725,"population":282448},{"id":3870282,"name":"Talcahuano","timezone":{"dstOffset":-3,"gmtOffset":-3,"timeZoneId":"America/Santiago"},"lat":-36.72494,"lng":-73.11684,"population":252968},{"id":3872348,"name":"San Bernardo","timezone":{"dstOffset":-3,"gmtOffset":-3,"timeZoneId":"America/Santiago"},"lat":-33.59218,"lng":-70.6996,"population":249858},{"id":3870011,"name":"Temuco","timezone":{"dstOffset":-3,"gmtOffset":-3,"timeZoneId":"America/Santiago"},"lat":-38.73965,"lng":-72.59842,"population":238129},{"id":3887127,"name":"Iquique","timezone":{"dstOffset":-3,"gmtOffset":-3,"timeZoneId":"America/Santiago"},"lat":-20.22036,"lng":-70.13913,"population":227499},{"id":3893894,"name":"Concepción","timezone":{"dstOffset":-3,"gmtOffset":-3,"timeZoneId":"America/Santiago"},"lat":-36.82699,"lng":-73.04977,"population":215413},{"id":3873775,"name":"Rancagua","timezone":{"dstOffset":-3,"gmtOffset":-3,"timeZoneId":"America/Santiago"},"lat":-34.17083,"lng":-70.74444,"population":212695},{"id":7281017,"name":"La Pintana","timezone":{"dstOffset":-3,"gmtOffset":-3,"timeZoneId":"America/Santiago"},"lat":-33.58331,"lng":-70.63419,"population":201178},{"id":3870294,"name":"Talca","timezone":{"dstOffset":-3,"gmtOffset":-3,"timeZoneId":"America/Santiago"},"lat":-35.4264,"lng":-71.65542,"population":197479},{"id":3899361,"name":"Arica","timezone":{"dstOffset":-3,"gmtOffset":-3,"timeZoneId":"America/Santiago"},"lat":-18.4746,"lng":-70.29792,"population":185999},{"id":3893629,"name":"Coquimbo","timezone":{"dstOffset":-3,"gmtOffset":-3,"timeZoneId":"America/Santiago"},"lat":-29.95332,"lng":-71.33947,"population":161317},{"id":3874960,"name":"Port Montt","timezone":{"dstOffset":-3,"gmtOffset":-3,"timeZoneId":"America/Santiago"},"lat":-41.46574,"lng":-72.94289,"population":160054},{"id":3884373,"name":"La Serena","timezone":{"dstOffset":-3,"gmtOffset":-3,"timeZoneId":"America/Santiago"},"lat":-29.90453,"lng":-71.24894,"population":154521},{"id":3895088,"name":"Chillán","timezone":{"dstOffset":-3,"gmtOffset":-3,"timeZoneId":"America/Santiago"},"lat":-36.60664,"lng":-72.10344,"population":150396},{"id":3897347,"name":"Calama","timezone":{"dstOffset":-3,"gmtOffset":-3,"timeZoneId":"America/Santiago"},"lat":-22.45591,"lng":-68.93015,"population":143084},{"id":3877949,"name":"Osorno","timezone":{"dstOffset":-3,"gmtOffset":-3,"timeZoneId":"America/Santiago"},"lat":-40.57395,"lng":-73.13348,"population":135773},{"id":3868707,"name":"Valdivia","timezone":{"dstOffset":-3,"gmtOffset":-3,"timeZoneId":"America/Santiago"},"lat":-39.81422,"lng":-73.24589,"population":133419},{"id":3874096,"name":"Quilpué","timezone":{"dstOffset":-3,"gmtOffset":-3,"timeZoneId":"America/Santiago"},"lat":-33.04752,"lng":-71.44249,"population":130263},{"id":3893656,"name":"Copiapó","timezone":{"dstOffset":-3,"gmtOffset":-3,"timeZoneId":"America/Santiago"},"lat":-27.36679,"lng":-70.3314,"population":129280},{"id":3882428,"name":"Los Ángeles","timezone":{"dstOffset":-3,"gmtOffset":-3,"timeZoneId":"America/Santiago"},"lat":-37.46973,"lng":-72.35366,"population":125430},{"id":3874787,"name":"Punta Arenas","timezone":{"dstOffset":-3,"gmtOffset":-3,"timeZoneId":"America/Santiago"},"lat":-53.15483,"lng":-70.91129,"population":117430},{"id":7281020,"name":"Lo Prado","timezone":{"dstOffset":-3,"gmtOffset":-3,"timeZoneId":"America/Santiago"},"lat":-33.4443,"lng":-70.72552,"population":104316},{"id":3892870,"name":"Curicó","timezone":{"dstOffset":-3,"gmtOffset":-3,"timeZoneId":"America/Santiago"},"lat":-34.98279,"lng":-71.23943,"population":102438},{"id":3868192,"name":"Villa Alemana","timezone":{"dstOffset":-3,"gmtOffset":-3,"timeZoneId":"America/Santiago"},"lat":-33.04222,"lng":-71.37333,"population":97320},{"id":3893532,"name":"Coronel","timezone":{"dstOffset":-3,"gmtOffset":-3,"timeZoneId":"America/Santiago"},"lat":-37.03386,"lng":-73.14019,"population":92940},{"id":3872395,"name":"San Antonio","timezone":{"dstOffset":-3,"gmtOffset":-3,"timeZoneId":"America/Santiago"},"lat":-33.59473,"lng":-71.60746,"population":85651},{"id":3895138,"name":"Chiguayante","timezone":{"dstOffset":-3,"gmtOffset":-3,"timeZoneId":"America/Santiago"},"lat":-36.9256,"lng":-73.02841,"population":82545},{"id":3877918,"name":"Ovalle","timezone":{"dstOffset":-3,"gmtOffset":-3,"timeZoneId":"America/Santiago"},"lat":-30.60106,"lng":-71.19901,"population":77138},{"id":3883167,"name":"Linares","timezone":{"dstOffset":-3,"gmtOffset":-3,"timeZoneId":"America/Santiago"},"lat":-35.84667,"lng":-71.59308,"population":69535},{"id":3874119,"name":"Quillota","timezone":{"dstOffset":-3,"gmtOffset":-3,"timeZoneId":"America/Santiago"},"lat":-32.8834,"lng":-71.24882,"population":67779},{"id":3876685,"name":"Peñaflor","timezone":{"dstOffset":-3,"gmtOffset":-3,"timeZoneId":"America/Santiago"},"lat":-33.60627,"lng":-70.87649,"population":65495},{"id":3880107,"name":"Melipilla","timezone":{"dstOffset":-3,"gmtOffset":-3,"timeZoneId":"America/Santiago"},"lat":-33.68909,"lng":-71.21528,"population":63100},{"id":3872255,"name":"San Felipe","timezone":{"dstOffset":-3,"gmtOffset":-3,"timeZoneId":"America/Santiago"},"lat":-32.74976,"lng":-70.72584,"population":59294},{"id":3882434,"name":"Los Andes","timezone":{"dstOffset":-3,"gmtOffset":-3,"timeZoneId":"America/Santiago"},"lat":-32.83369,"lng":-70.59827,"population":56859},{"id":3897774,"name":"Buin","timezone":{"dstOffset":-3,"gmtOffset":-3,"timeZoneId":"America/Santiago"},"lat":-33.73257,"lng":-70.74281,"population":55441},{"id":3870306,"name":"Talagante","timezone":{"dstOffset":-3,"gmtOffset":-3,"timeZoneId":"America/Santiago"},"lat":-33.66386,"lng":-70.92734,"population":51764},{"id":3881276,"name":"Lota","timezone":{"dstOffset":-3,"gmtOffset":-3,"timeZoneId":"America/Santiago"},"lat":-37.08994,"lng":-73.1577,"population":49763},{"id":3888214,"name":"Hacienda La Calera","timezone":{"dstOffset":-3,"gmtOffset":-3,"timeZoneId":"America/Santiago"},"lat":-32.78333,"lng":-71.21667,"population":49106},{"id":3869657,"name":"Tomé","timezone":{"dstOffset":-3,"gmtOffset":-3,"timeZoneId":"America/Santiago"},"lat":-36.61756,"lng":-72.95593,"population":46698},{"id":3876664,"name":"Penco","timezone":{"dstOffset":-3,"gmtOffset":-3,"timeZoneId":"America/Santiago"},"lat":-36.74075,"lng":-72.99528,"population":46091},{"id":3894426,"name":"Coihaique","timezone":{"dstOffset":-3,"gmtOffset":-3,"timeZoneId":"America/Santiago"},"lat":-45.57524,"lng":-72.06619,"population":45787},{"id":3868633,"name":"Vallenar","timezone":{"dstOffset":-3,"gmtOffset":-3,"timeZoneId":"America/Santiago"},"lat":-28.57617,"lng":-70.75938,"population":44895},{"id":3899629,"name":"Angol","timezone":{"dstOffset":-3,"gmtOffset":-3,"timeZoneId":"America/Santiago"},"lat":-37.79519,"lng":-72.71636,"population":44856},{"id":3873441,"name":"Rengo","timezone":{"dstOffset":-3,"gmtOffset":-3,"timeZoneId":"America/Santiago"},"lat":-34.40639,"lng":-70.85834,"population":38100},{"id":3893726,"name":"Constitución","timezone":{"dstOffset":-3,"gmtOffset":-3,"timeZoneId":"America/Santiago"},"lat":-35.33321,"lng":-72.41156,"population":37917},{"id":3883214,"name":"Limache","timezone":{"dstOffset":-3,"gmtOffset":-3,"timeZoneId":"America/Santiago"},"lat":-33.01667,"lng":-71.26667,"population":35876},{"id":3871616,"name":"Santa Cruz","timezone":{"dstOffset":-3,"gmtOffset":-3,"timeZoneId":"America/Santiago"},"lat":-34.63881,"lng":-71.36576,"population":33283},{"id":3877739,"name":"Paine","timezone":{"dstOffset":-3,"gmtOffset":-3,"timeZoneId":"America/Santiago"},"lat":-33.80796,"lng":-70.74109,"population":32766},{"id":3868158,"name":"Villarrica","timezone":{"dstOffset":-3,"gmtOffset":-3,"timeZoneId":"America/Santiago"},"lat":-39.28569,"lng":-72.2279,"population":31602},{"id":3872326,"name":"San Carlos","timezone":{"dstOffset":-3,"gmtOffset":-3,"timeZoneId":"America/Santiago"},"lat":-36.42477,"lng":-71.958,"population":31517},{"id":3896105,"name":"Cauquenes","timezone":{"dstOffset":-3,"gmtOffset":-3,"timeZoneId":"America/Santiago"},"lat":-35.9671,"lng":-72.32248,"population":31362},{"id":3892892,"name":"Curanilahue","timezone":{"dstOffset":-3,"gmtOffset":-3,"timeZoneId":"America/Santiago"},"lat":-37.47793,"lng":-73.34495,"population":30611},{"id":6458708,"name":"Las Animas","timezone":{"dstOffset":-3,"gmtOffset":-3,"timeZoneId":"America/Santiago"},"lat":-39.80867,"lng":-73.21821,"population":30000},{"id":3896218,"name":"Castro","timezone":{"dstOffset":-3,"gmtOffset":-3,"timeZoneId":"America/Santiago"},"lat":-42.4721,"lng":-73.77319,"population":29926},{"id":3885273,"name":"Lampa","timezone":{"dstOffset":-3,"gmtOffset":-3,"timeZoneId":"America/Santiago"},"lat":-33.2863,"lng":-70.87562,"population":29250},{"id":3879627,"name":"Molina","timezone":{"dstOffset":-3,"gmtOffset":-3,"timeZoneId":"America/Santiago"},"lat":-35.11428,"lng":-71.28232,"population":28775},{"id":3899695,"name":"Ancud","timezone":{"dstOffset":-3,"gmtOffset":-3,"timeZoneId":"America/Santiago"},"lat":-41.8707,"lng":-73.81622,"population":28020},{"id":3881102,"name":"Machalí","timezone":{"dstOffset":-3,"gmtOffset":-3,"timeZoneId":"America/Santiago"},"lat":-34.18082,"lng":-70.64934,"population":27595},{"id":3875070,"name":"Pucón","timezone":{"dstOffset":-3,"gmtOffset":-3,"timeZoneId":"America/Santiago"},"lat":-39.28223,"lng":-71.95427,"population":26953},{"id":3877146,"name":"Parral","timezone":{"dstOffset":-3,"gmtOffset":-3,"timeZoneId":"America/Santiago"},"lat":-36.14311,"lng":-71.82605,"population":26904},{"id":3883629,"name":"La Unión","timezone":{"dstOffset":-3,"gmtOffset":-3,"timeZoneId":"America/Santiago"},"lat":-40.29313,"lng":-73.08167,"population":26298},{"id":3874930,"name":"Puerto Varas","timezone":{"dstOffset":-3,"gmtOffset":-3,"timeZoneId":"America/Santiago"},"lat":-41.31946,"lng":-72.98538,"population":24958},{"id":3885456,"name":"La Ligua","timezone":{"dstOffset":-3,"gmtOffset":-3,"timeZoneId":"America/Santiago"},"lat":-32.45242,"lng":-71.23106,"population":24857},{"id":3899462,"name":"Arauco","timezone":{"dstOffset":-3,"gmtOffset":-3,"timeZoneId":"America/Santiago"},"lat":-37.2463,"lng":-73.31752,"population":24659},{"id":3868326,"name":"Victoria","timezone":{"dstOffset":-3,"gmtOffset":-3,"timeZoneId":"America/Santiago"},"lat":-38.23291,"lng":-72.33292,"population":24555},{"id":3869716,"name":"Tocopilla","timezone":{"dstOffset":-3,"gmtOffset":-3,"timeZoneId":"America/Santiago"},"lat":-22.09198,"lng":-70.19792,"population":24460},{"id":3888749,"name":"Graneros","timezone":{"dstOffset":-3,"gmtOffset":-3,"timeZoneId":"America/Santiago"},"lat":-34.06863,"lng":-70.72747,"population":23301},{"id":3890949,"name":"El Monte","timezone":{"dstOffset":-3,"gmtOffset":-3,"timeZoneId":"America/Santiago"},"lat":-33.67969,"lng":-70.98482,"population":23090},{"id":3887344,"name":"Illapel","timezone":{"dstOffset":-3,"gmtOffset":-3,"timeZoneId":"America/Santiago"},"lat":-31.63349,"lng":-71.16967,"population":22816},{"id":3871286,"name":"San Vicente","timezone":{"dstOffset":-3,"gmtOffset":-3,"timeZoneId":"America/Santiago"},"lat":-34.43333,"lng":-71.08333,"population":22572},{"id":3872154,"name":"San Javier","timezone":{"dstOffset":-3,"gmtOffset":-3,"timeZoneId":"America/Santiago"},"lat":-35.5952,"lng":-71.72924,"population":22427},{"id":3883457,"name":"Lebu","timezone":{"dstOffset":-3,"gmtOffset":-3,"timeZoneId":"America/Santiago"},"lat":-37.60825,"lng":-73.65356,"population":22345},{"id":3879200,"name":"Mulchén","timezone":{"dstOffset":-3,"gmtOffset":-3,"timeZoneId":"America/Santiago"},"lat":-37.71893,"lng":-72.24099,"population":22170},{"id":3874943,"name":"Puerto Quellón","timezone":{"dstOffset":-3,"gmtOffset":-3,"timeZoneId":"America/Santiago"},"lat":-43.11819,"lng":-73.61661,"population":21823},{"id":3883615,"name":"Lautaro","timezone":{"dstOffset":-3,"gmtOffset":-3,"timeZoneId":"America/Santiago"},"lat":-38.53066,"lng":-72.43652,"population":21579},{"id":3879123,"name":"Nacimiento","timezone":{"dstOffset":-3,"gmtOffset":-3,"timeZoneId":"America/Santiago"},"lat":-37.50253,"lng":-72.67307,"population":21220},{"id":3896924,"name":"Cañete","timezone":{"dstOffset":-3,"gmtOffset":-3,"timeZoneId":"America/Santiago"},"lat":-37.80128,"lng":-73.39616,"population":20158},{"id":3874958,"name":"Puerto Natales","timezone":{"dstOffset":-3,"gmtOffset":-3,"timeZoneId":"America/Santiago"},"lat":-51.72363,"lng":-72.48745,"population":20000},{"id":3878456,"name":"Nueva Imperial","timezone":{"dstOffset":-3,"gmtOffset":-3,"timeZoneId":"America/Santiago"},"lat":-38.74451,"lng":-72.95025,"population":18777},{"id":3897557,"name":"Cabrero","timezone":{"dstOffset":-3,"gmtOffset":-3,"timeZoneId":"America/Santiago"},"lat":-37.03394,"lng":-72.40468,"population":18327},{"id":3892454,"name":"Diego de Almagro","timezone":{"dstOffset":-3,"gmtOffset":-3,"timeZoneId":"America/Santiago"},"lat":-26.36667,"lng":-70.05,"population":18137},{"id":3895165,"name":"Chicureo Abajo","timezone":{"dstOffset":-3,"gmtOffset":-3,"timeZoneId":"America/Santiago"},"lat":-33.28379,"lng":-70.65333,"population":18000},{"id":3895061,"name":"Chimbarongo","timezone":{"dstOffset":-3,"gmtOffset":-3,"timeZoneId":"America/Santiago"},"lat":-34.71247,"lng":-71.0434,"population":17356},{"id":3889263,"name":"Frutillar","timezone":{"dstOffset":-3,"gmtOffset":-3,"timeZoneId":"America/Santiago"},"lat":-41.12676,"lng":-73.04372,"population":16939},{"id":3874997,"name":"Puerto Aisén","timezone":{"dstOffset":-3,"gmtOffset":-3,"timeZoneId":"America/Santiago"},"lat":-45.40303,"lng":-72.69184,"population":16936},{"id":3896433,"name":"Cartagena","timezone":{"dstOffset":-3,"gmtOffset":-3,"timeZoneId":"America/Santiago"},"lat":-33.55384,"lng":-71.60761,"population":16875},{"id":3883035,"name":"Llaillay","timezone":{"dstOffset":-3,"gmtOffset":-3,"timeZoneId":"America/Santiago"},"lat":-32.84043,"lng":-70.95623,"population":16646},{"id":3885509,"name":"La Laja","timezone":{"dstOffset":-3,"gmtOffset":-3,"timeZoneId":"America/Santiago"},"lat":-37.28415,"lng":-72.71105,"population":16550},{"id":3894177,"name":"Collipulli","timezone":{"dstOffset":-3,"gmtOffset":-3,"timeZoneId":"America/Santiago"},"lat":-37.95453,"lng":-72.43438,"population":16392},{"id":3877348,"name":"Panguipulli","timezone":{"dstOffset":-3,"gmtOffset":-3,"timeZoneId":"America/Santiago"},"lat":-39.64355,"lng":-72.33269,"population":16312},{"id":3882582,"name":"Loncoche","timezone":{"dstOffset":-3,"gmtOffset":-3,"timeZoneId":"America/Santiago"},"lat":-39.36708,"lng":-72.63087,"population":15590},{"id":3873145,"name":"Río Bueno","timezone":{"dstOffset":-3,"gmtOffset":-3,"timeZoneId":"America/Santiago"},"lat":-40.33494,"lng":-72.95564,"population":15456},{"id":7874740,"name":"Villa Presidente Frei, Ñuñoa, Santiago, Chile","timezone":{"dstOffset":-3,"gmtOffset":-3,"timeZoneId":"America/Santiago"},"lat":-33.46069,"lng":-70.58024,"population":15000},{"id":3869381,"name":"Traiguén","timezone":{"dstOffset":-3,"gmtOffset":-3,"timeZoneId":"America/Santiago"},"lat":-38.2496,"lng":-72.67027,"population":14481},{"id":3879429,"name":"Monte Patria","timezone":{"dstOffset":-3,"gmtOffset":-3,"timeZoneId":"America/Santiago"},"lat":-30.69496,"lng":-70.9577,"population":13945},{"id":3875746,"name":"Pitrufquén","timezone":{"dstOffset":-3,"gmtOffset":-3,"timeZoneId":"America/Santiago"},"lat":-38.98635,"lng":-72.63721,"population":13743},{"id":3872306,"name":"San Clemente","timezone":{"dstOffset":-3,"gmtOffset":-3,"timeZoneId":"America/Santiago"},"lat":-35.53777,"lng":-71.487,"population":13656},{"id":3874579,"name":"Purranque","timezone":{"dstOffset":-3,"gmtOffset":-3,"timeZoneId":"America/Santiago"},"lat":-40.91305,"lng":-73.15913,"population":13619},{"id":3868308,"name":"Vicuña","timezone":{"dstOffset":-3,"gmtOffset":-3,"timeZoneId":"America/Santiago"},"lat":-30.03541,"lng":-70.71274,"population":13496},{"id":3872594,"name":"Salamanca","timezone":{"dstOffset":-3,"gmtOffset":-3,"timeZoneId":"America/Santiago"},"lat":-31.77922,"lng":-70.96389,"population":13265},{"id":3897724,"name":"Bulnes","timezone":{"dstOffset":-3,"gmtOffset":-3,"timeZoneId":"America/Santiago"},"lat":-36.74232,"lng":-72.29854,"population":12715},{"id":3894871,"name":"Chonchi","timezone":{"dstOffset":-3,"gmtOffset":-3,"timeZoneId":"America/Santiago"},"lat":-42.62003,"lng":-73.77674,"population":12572},{"id":3897334,"name":"Calbuco","timezone":{"dstOffset":-3,"gmtOffset":-3,"timeZoneId":"America/Santiago"},"lat":-41.77338,"lng":-73.13049,"population":12490},{"id":3896774,"name":"Carahue","timezone":{"dstOffset":-3,"gmtOffset":-3,"timeZoneId":"America/Santiago"},"lat":-38.71122,"lng":-73.16101,"population":11875},{"id":3867625,"name":"Yumbel","timezone":{"dstOffset":-3,"gmtOffset":-3,"timeZoneId":"America/Santiago"},"lat":-37.0982,"lng":-72.56084,"population":11111},{"id":3870243,"name":"Taltal","timezone":{"dstOffset":-3,"gmtOffset":-3,"timeZoneId":"America/Santiago"},"lat":-25.40872,"lng":-70.48358,"population":10018},{"id":3868210,"name":"Vilcún","timezone":{"dstOffset":-3,"gmtOffset":-3,"timeZoneId":"America/Santiago"},"lat":-38.66875,"lng":-72.22565,"population":9241},{"id":3873668,"name":"Rauco","timezone":{"dstOffset":-3,"gmtOffset":-3,"timeZoneId":"America/Santiago"},"lat":-34.92546,"lng":-71.31722,"population":8566},{"id":3889322,"name":"Freire","timezone":{"dstOffset":-3,"gmtOffset":-3,"timeZoneId":"America/Santiago"},"lat":-38.95252,"lng":-72.62653,"population":7813},{"id":3894406,"name":"Coihueco","timezone":{"dstOffset":-3,"gmtOffset":-3,"timeZoneId":"America/Santiago"},"lat":-36.62786,"lng":-71.83068,"population":7346},{"id":3869979,"name":"Teno","timezone":{"dstOffset":-3,"gmtOffset":-3,"timeZoneId":"America/Santiago"},"lat":-34.87055,"lng":-71.16219,"population":6858},{"id":3882559,"name":"Longaví","timezone":{"dstOffset":-3,"gmtOffset":-3,"timeZoneId":"America/Santiago"},"lat":-35.96496,"lng":-71.6836,"population":6325},{"id":3895642,"name":"Chaitén","timezone":{"dstOffset":-3,"gmtOffset":-3,"timeZoneId":"America/Santiago"},"lat":-42.91596,"lng":-72.70632,"population":4065},{"id":6930873,"name":"Rapa Nui","timezone":{"dstOffset":-5,"gmtOffset":-5,"timeZoneId":"Pacific/Easter"},"lat":-27.11124,"lng":-109.35053,"population":4000},{"id":3874535,"name":"Puyehue","timezone":{"dstOffset":-3,"gmtOffset":-3,"timeZoneId":"America/Santiago"},"lat":-40.65944,"lng":-72.60172,"population":3932},{"id":3894319,"name":"Colbún","timezone":{"dstOffset":-3,"gmtOffset":-3,"timeZoneId":"America/Santiago"},"lat":-35.69494,"lng":-71.40568,"population":3679},{"id":3893516,"name":"Corral","timezone":{"dstOffset":-3,"gmtOffset":-3,"timeZoneId":"America/Santiago"},"lat":-39.8873,"lng":-73.43101,"population":3500},{"id":4030754,"name":"Hanga Roa","timezone":{"dstOffset":-5,"gmtOffset":-5,"timeZoneId":"Pacific/Easter"},"lat":-27.15474,"lng":-109.43241,"population":3304},{"id":3894483,"name":"Cochrane","timezone":{"dstOffset":-3,"gmtOffset":-3,"timeZoneId":"America/Santiago"},"lat":-47.2557,"lng":-72.5695,"population":2867},{"id":3874982,"name":"Puerto Cisnes","timezone":{"dstOffset":-3,"gmtOffset":-3,"timeZoneId":"America/Santiago"},"lat":-44.74736,"lng":-72.69695,"population":2507},{"id":3895113,"name":"Chile Chico","timezone":{"dstOffset":-3,"gmtOffset":-3,"timeZoneId":"America/Santiago"},"lat":-46.541,"lng":-71.72375,"population":2500},{"id":3871781,"name":"San Pedro de Atacama","timezone":{"dstOffset":-3,"gmtOffset":-3,"timeZoneId":"America/Santiago"},"lat":-22.9111,"lng":-68.20113,"population":2000},{"id":3889223,"name":"Futaleufú","timezone":{"dstOffset":-3,"gmtOffset":-3,"timeZoneId":"America/Santiago"},"lat":-43.18492,"lng":-71.86722,"population":1826},{"id":3877644,"name":"Palena","timezone":{"dstOffset":-3,"gmtOffset":-3,"timeZoneId":"America/Santiago"},"lat":-43.61876,"lng":-71.80434,"population":1690},{"id":6458705,"name":"Las Gaviotas","timezone":{"dstOffset":-3,"gmtOffset":-3,"timeZoneId":"America/Santiago"},"lat":-39.86653,"lng":-73.18834,"population":1500},{"id":3886055,"name":"La Ensenada","timezone":{"dstOffset":-3,"gmtOffset":-3,"timeZoneId":"America/Santiago"},"lat":-41.20746,"lng":-72.5384,"population":1300},{"id":3950166,"name":"Puerto Chacabuco","timezone":{"dstOffset":-3,"gmtOffset":-3,"timeZoneId":"America/Santiago"},"lat":-45.46667,"lng":-72.81667,"population":1243},{"id":3969755,"name":"La Junta","timezone":{"dstOffset":-3,"gmtOffset":-3,"timeZoneId":"America/Santiago"},"lat":-43.97434,"lng":-72.40554,"population":1200},{"id":3890338,"name":"El Tabo","timezone":{"dstOffset":-3,"gmtOffset":-3,"timeZoneId":"America/Santiago"},"lat":-33.45,"lng":-71.66667,"population":0},{"id":3874552,"name":"Putre","timezone":{"dstOffset":-3,"gmtOffset":-3,"timeZoneId":"America/Santiago"},"lat":-18.19821,"lng":-69.56071,"population":0},{"id":8259949,"name":"Vallenar","timezone":{"dstOffset":-3,"gmtOffset":-3,"timeZoneId":"America/Santiago"},"lat":-28.51576,"lng":-70.25551,"population":0}]