[{"id":3575635,"name":"Roseau","timezone":{"dstOffset":-4,"gmtOffset":-4,"timeZoneId":"America/Dominica"},"lat":15.30174,"lng":-61.38808,"population":16571},{"id":3575654,"name":"Portsmouth","timezone":{"dstOffset":-4,"gmtOffset":-4,"timeZoneId":"America/Dominica"},"lat":15.58333,"lng":-61.46667,"population":3633},{"id":3575721,"name":"Marigot","timezone":{"dstOffset":-4,"gmtOffset":-4,"timeZoneId":"America/Dominica"},"lat":15.53333,"lng":-61.3,"population":2669},{"id":3575899,"name":"Berekua","timezone":{"dstOffset":-4,"gmtOffset":-4,"timeZoneId":"America/Dominica"},"lat":15.23333,"lng":-61.31667,"population":2608},{"id":3575733,"name":"Mahaut","timezone":{"dstOffset":-4,"gmtOffset":-4,"timeZoneId":"America/Dominica"},"lat":15.36357,"lng":-61.39701,"population":2369},{"id":3575624,"name":"Saint Joseph","timezone":{"dstOffset":-4,"gmtOffset":-4,"timeZoneId":"America/Dominica"},"lat":15.4,"lng":-61.43333,"population":2184},{"id":3575568,"name":"Wesley","timezone":{"dstOffset":-4,"gmtOffset":-4,"timeZoneId":"America/Dominica"},"lat":15.56667,"lng":-61.31667,"population":1933},{"id":3575602,"name":"Soufrière","timezone":{"dstOffset":-4,"gmtOffset":-4,"timeZoneId":"America/Dominica"},"lat":15.23374,"lng":-61.35881,"population":1416},{"id":3575612,"name":"Salisbury","timezone":{"dstOffset":-4,"gmtOffset":-4,"timeZoneId":"America/Dominica"},"lat":15.43333,"lng":-61.45,"population":1413},{"id":3575870,"name":"Castle Bruce","timezone":{"dstOffset":-4,"gmtOffset":-4,"timeZoneId":"America/Dominica"},"lat":15.43333,"lng":-61.26667,"population":1387},{"id":3575755,"name":"La Plaine","timezone":{"dstOffset":-4,"gmtOffset":-4,"timeZoneId":"America/Dominica"},"lat":15.33333,"lng":-61.25,"population":1332},{"id":3575660,"name":"Pointe Michel","timezone":{"dstOffset":-4,"gmtOffset":-4,"timeZoneId":"America/Dominica"},"lat":15.25976,"lng":-61.37452,"population":1202},{"id":3575565,"name":"Woodford Hill","timezone":{"dstOffset":-4,"gmtOffset":-4,"timeZoneId":"America/Dominica"},"lat":15.56667,"lng":-61.33333,"population":1063},{"id":3575882,"name":"Calibishie","timezone":{"dstOffset":-4,"gmtOffset":-4,"timeZoneId":"America/Dominica"},"lat":15.58333,"lng":-61.35,"population":1020},{"id":3575857,"name":"Colihaut","timezone":{"dstOffset":-4,"gmtOffset":-4,"timeZoneId":"America/Dominica"},"lat":15.48478,"lng":-61.46215,"population":890},{"id":3575639,"name":"Rosalie","timezone":{"dstOffset":-4,"gmtOffset":-4,"timeZoneId":"America/Dominica"},"lat":15.36667,"lng":-61.26667,"population":802},{"id":3575656,"name":"Pont Cassé","timezone":{"dstOffset":-4,"gmtOffset":-4,"timeZoneId":"America/Dominica"},"lat":15.36667,"lng":-61.35,"population":702}]