[{"id":2198148,"name":"Suva","timezone":{"dstOffset":12,"gmtOffset":12,"timeZoneId":"Pacific/Fiji"},"lat":-18.14161,"lng":178.44149,"population":77366},{"id":2204506,"name":"Lautoka","timezone":{"dstOffset":12,"gmtOffset":12,"timeZoneId":"Pacific/Fiji"},"lat":-17.61667,"lng":177.46667,"population":52500},{"id":2202064,"name":"Nadi","timezone":{"dstOffset":12,"gmtOffset":12,"timeZoneId":"Pacific/Fiji"},"lat":-17.8,"lng":177.41667,"population":42284},{"id":2204582,"name":"Labasa","timezone":{"dstOffset":12,"gmtOffset":12,"timeZoneId":"Pacific/Fiji"},"lat":-16.41667,"lng":179.38333,"population":27949},{"id":8335413,"name":"Ba","timezone":{"dstOffset":12,"gmtOffset":12,"timeZoneId":"Pacific/Fiji"},"lat":-17.5343,"lng":177.67407,"population":14596},{"id":2204417,"name":"Levuka","timezone":{"dstOffset":12,"gmtOffset":12,"timeZoneId":"Pacific/Fiji"},"lat":-18.06667,"lng":179.31667,"population":8360},{"id":2205310,"name":"Ahau","timezone":{"dstOffset":12,"gmtOffset":12,"timeZoneId":"Pacific/Fiji"},"lat":-12.5,"lng":177.05,"population":0}]