[{"id":2399697,"name":"Libreville","timezone":{"dstOffset":1,"gmtOffset":1,"timeZoneId":"Africa/Libreville"},"lat":0.39241,"lng":9.45356,"population":578156},{"id":2396518,"name":"Port-Gentil","timezone":{"dstOffset":1,"gmtOffset":1,"timeZoneId":"Africa/Libreville"},"lat":-0.71933,"lng":8.78151,"population":109163},{"id":2400555,"name":"Franceville","timezone":{"dstOffset":1,"gmtOffset":1,"timeZoneId":"Africa/Libreville"},"lat":-1.63333,"lng":13.58357,"population":42967},{"id":2396646,"name":"Oyem","timezone":{"dstOffset":1,"gmtOffset":1,"timeZoneId":"Africa/Libreville"},"lat":1.5995,"lng":11.57933,"population":30870},{"id":2398269,"name":"Moanda","timezone":{"dstOffset":1,"gmtOffset":1,"timeZoneId":"Africa/Libreville"},"lat":-1.56652,"lng":13.1987,"population":30151},{"id":2398073,"name":"Mouila","timezone":{"dstOffset":1,"gmtOffset":1,"timeZoneId":"Africa/Libreville"},"lat":-1.86846,"lng":11.05594,"population":22469},{"id":2399888,"name":"Lambaréné","timezone":{"dstOffset":1,"gmtOffset":1,"timeZoneId":"Africa/Libreville"},"lat":-0.7001,"lng":10.24055,"population":20714},{"id":2396253,"name":"Tchibanga","timezone":{"dstOffset":1,"gmtOffset":1,"timeZoneId":"Africa/Libreville"},"lat":-2.93323,"lng":10.98178,"population":19365},{"id":2399959,"name":"Koulamoutou","timezone":{"dstOffset":1,"gmtOffset":1,"timeZoneId":"Africa/Libreville"},"lat":-1.13032,"lng":12.47359,"population":16222},{"id":2399371,"name":"Makokou","timezone":{"dstOffset":1,"gmtOffset":1,"timeZoneId":"Africa/Libreville"},"lat":0.57381,"lng":12.86419,"population":13571},{"id":2401578,"name":"Bitam","timezone":{"dstOffset":1,"gmtOffset":1,"timeZoneId":"Africa/Libreville"},"lat":2.07597,"lng":11.50065,"population":10297},{"id":2400547,"name":"Gamba","timezone":{"dstOffset":1,"gmtOffset":1,"timeZoneId":"Africa/Libreville"},"lat":-2.65,"lng":10,"population":9928},{"id":2397978,"name":"Mounana","timezone":{"dstOffset":1,"gmtOffset":1,"timeZoneId":"Africa/Libreville"},"lat":-1.4085,"lng":13.15857,"population":8780},{"id":2397169,"name":"Ntoum","timezone":{"dstOffset":1,"gmtOffset":1,"timeZoneId":"Africa/Libreville"},"lat":0.39051,"lng":9.76096,"population":8569},{"id":2399870,"name":"Lastoursville","timezone":{"dstOffset":1,"gmtOffset":1,"timeZoneId":"Africa/Libreville"},"lat":-0.81742,"lng":12.70818,"population":8340},{"id":2396898,"name":"Okondja","timezone":{"dstOffset":1,"gmtOffset":1,"timeZoneId":"Africa/Libreville"},"lat":-0.65487,"lng":13.67533,"population":7155},{"id":2397614,"name":"Ndendé","timezone":{"dstOffset":1,"gmtOffset":1,"timeZoneId":"Africa/Libreville"},"lat":-2.40077,"lng":11.35813,"population":6200},{"id":2401495,"name":"Booué","timezone":{"dstOffset":1,"gmtOffset":1,"timeZoneId":"Africa/Libreville"},"lat":-0.09207,"lng":11.93846,"population":5787},{"id":2400578,"name":"Fougamou","timezone":{"dstOffset":1,"gmtOffset":1,"timeZoneId":"Africa/Libreville"},"lat":-1.21544,"lng":10.58378,"population":5649},{"id":2397674,"name":"Ndjolé","timezone":{"dstOffset":1,"gmtOffset":1,"timeZoneId":"Africa/Libreville"},"lat":-0.17827,"lng":10.76488,"population":5098},{"id":2398929,"name":"Mbigou","timezone":{"dstOffset":1,"gmtOffset":1,"timeZoneId":"Africa/Libreville"},"lat":-1.90046,"lng":11.906,"population":4134},{"id":2399001,"name":"Mayumba","timezone":{"dstOffset":1,"gmtOffset":1,"timeZoneId":"Africa/Libreville"},"lat":-3.43198,"lng":10.6554,"population":3996},{"id":2398283,"name":"Mitzic","timezone":{"dstOffset":1,"gmtOffset":1,"timeZoneId":"Africa/Libreville"},"lat":0.78206,"lng":11.54904,"population":3886},{"id":2399831,"name":"Lékoni","timezone":{"dstOffset":1,"gmtOffset":1,"timeZoneId":"Africa/Libreville"},"lat":-1.58431,"lng":14.25905,"population":3583},{"id":2398430,"name":"Mimongo","timezone":{"dstOffset":1,"gmtOffset":1,"timeZoneId":"Africa/Libreville"},"lat":-1.61952,"lng":11.60675,"population":3307},{"id":2396853,"name":"Omboué","timezone":{"dstOffset":1,"gmtOffset":1,"timeZoneId":"Africa/Libreville"},"lat":-1.57464,"lng":9.26184,"population":1667},{"id":2401357,"name":"Cocobeach","timezone":{"dstOffset":1,"gmtOffset":1,"timeZoneId":"Africa/Libreville"},"lat":1.00019,"lng":9.58228,"population":1653}]