[{"id":2422488,"name":"Camayenne","timezone":{"dstOffset":0,"gmtOffset":0,"timeZoneId":"Africa/Conakry"},"lat":9.535,"lng":-13.68778,"population":1871242},{"id":2422465,"name":"Conakry","timezone":{"dstOffset":0,"gmtOffset":0,"timeZoneId":"Africa/Conakry"},"lat":9.53795,"lng":-13.67729,"population":1767200},{"id":2416969,"name":"Nzérékoré","timezone":{"dstOffset":0,"gmtOffset":0,"timeZoneId":"Africa/Conakry"},"lat":7.75624,"lng":-8.8179,"population":132728},{"id":2419533,"name":"Kindia","timezone":{"dstOffset":0,"gmtOffset":0,"timeZoneId":"Africa/Conakry"},"lat":10.05692,"lng":-12.86576,"population":117062},{"id":2419992,"name":"Kankan","timezone":{"dstOffset":0,"gmtOffset":0,"timeZoneId":"Africa/Conakry"},"lat":10.38542,"lng":-9.30568,"population":114009},{"id":2420562,"name":"Gueckedou","timezone":{"dstOffset":0,"gmtOffset":0,"timeZoneId":"Africa/Conakry"},"lat":8.56744,"lng":-10.1336,"population":79140},{"id":2422457,"name":"Coyah","timezone":{"dstOffset":0,"gmtOffset":0,"timeZoneId":"Africa/Conakry"},"lat":9.70643,"lng":-13.38465,"population":77103},{"id":2420056,"name":"Port Kamsar","timezone":{"dstOffset":0,"gmtOffset":0,"timeZoneId":"Africa/Conakry"},"lat":10.66667,"lng":-14.6,"population":61527},{"id":2418362,"name":"Labé","timezone":{"dstOffset":0,"gmtOffset":0,"timeZoneId":"Africa/Conakry"},"lat":11.31823,"lng":-12.28332,"population":58649},{"id":2419472,"name":"Kissidougou","timezone":{"dstOffset":0,"gmtOffset":0,"timeZoneId":"Africa/Conakry"},"lat":9.1848,"lng":-10.09987,"population":47099},{"id":2420884,"name":"Fria","timezone":{"dstOffset":0,"gmtOffset":0,"timeZoneId":"Africa/Conakry"},"lat":10.36676,"lng":-13.58253,"population":44369},{"id":2415703,"name":"Siguiri","timezone":{"dstOffset":0,"gmtOffset":0,"timeZoneId":"Africa/Conakry"},"lat":11.42282,"lng":-9.16852,"population":43601},{"id":2417988,"name":"Macenta","timezone":{"dstOffset":0,"gmtOffset":0,"timeZoneId":"Africa/Conakry"},"lat":8.54351,"lng":-9.47099,"population":43102},{"id":2417833,"name":"Mamou","timezone":{"dstOffset":0,"gmtOffset":0,"timeZoneId":"Africa/Conakry"},"lat":10.37546,"lng":-12.09148,"population":41619},{"id":2414926,"name":"Télimélé","timezone":{"dstOffset":0,"gmtOffset":0,"timeZoneId":"Africa/Conakry"},"lat":10.9,"lng":-13.03333,"population":30311},{"id":2414545,"name":"Tougué","timezone":{"dstOffset":0,"gmtOffset":0,"timeZoneId":"Africa/Conakry"},"lat":11.44503,"lng":-11.66422,"population":25531},{"id":2416443,"name":"Pita","timezone":{"dstOffset":0,"gmtOffset":0,"timeZoneId":"Africa/Conakry"},"lat":11.05915,"lng":-12.39498,"population":20052},{"id":2422924,"name":"Boké","timezone":{"dstOffset":0,"gmtOffset":0,"timeZoneId":"Africa/Conakry"},"lat":10.93217,"lng":-14.29055,"population":15460},{"id":2418437,"name":"Kouroussa","timezone":{"dstOffset":0,"gmtOffset":0,"timeZoneId":"Africa/Conakry"},"lat":10.65,"lng":-9.88333,"population":14223},{"id":2418596,"name":"Koundara","timezone":{"dstOffset":0,"gmtOffset":0,"timeZoneId":"Africa/Conakry"},"lat":12.48333,"lng":-13.3,"population":13990},{"id":2422442,"name":"Dabola","timezone":{"dstOffset":0,"gmtOffset":0,"timeZoneId":"Africa/Conakry"},"lat":10.7433,"lng":-11.10778,"population":13057},{"id":2420985,"name":"Forécariah","timezone":{"dstOffset":0,"gmtOffset":0,"timeZoneId":"Africa/Conakry"},"lat":9.43056,"lng":-13.08806,"population":12358},{"id":2414616,"name":"Tondon","timezone":{"dstOffset":0,"gmtOffset":0,"timeZoneId":"Africa/Conakry"},"lat":10.36667,"lng":-13.35,"population":12235},{"id":2423126,"name":"Beyla","timezone":{"dstOffset":0,"gmtOffset":0,"timeZoneId":"Africa/Conakry"},"lat":8.69011,"lng":-8.64869,"population":11566},{"id":2417795,"name":"Mandiana","timezone":{"dstOffset":0,"gmtOffset":0,"timeZoneId":"Africa/Conakry"},"lat":10.62577,"lng":-8.69413,"population":10609},{"id":2421535,"name":"Dubréka","timezone":{"dstOffset":0,"gmtOffset":0,"timeZoneId":"Africa/Conakry"},"lat":9.79111,"lng":-13.52333,"population":10363},{"id":2418764,"name":"Koubia","timezone":{"dstOffset":0,"gmtOffset":0,"timeZoneId":"Africa/Conakry"},"lat":11.58632,"lng":-11.89485,"population":9909},{"id":2421273,"name":"Faranah","timezone":{"dstOffset":0,"gmtOffset":0,"timeZoneId":"Africa/Conakry"},"lat":10.04036,"lng":-10.74343,"population":9350},{"id":2419538,"name":"Kimbo","timezone":{"dstOffset":0,"gmtOffset":0,"timeZoneId":"Africa/Conakry"},"lat":10.4,"lng":-13.55,"population":9326},{"id":2414055,"name":"Youkounkoun","timezone":{"dstOffset":0,"gmtOffset":0,"timeZoneId":"Africa/Conakry"},"lat":12.5311,"lng":-13.1224,"population":7952},{"id":2420826,"name":"Gaoual","timezone":{"dstOffset":0,"gmtOffset":0,"timeZoneId":"Africa/Conakry"},"lat":11.75,"lng":-13.2,"population":7461},{"id":2419622,"name":"Kérouané","timezone":{"dstOffset":0,"gmtOffset":0,"timeZoneId":"Africa/Conakry"},"lat":9.26667,"lng":-9.01667,"population":7228},{"id":2422383,"name":"Dalaba","timezone":{"dstOffset":0,"gmtOffset":0,"timeZoneId":"Africa/Conakry"},"lat":10.69249,"lng":-12.24967,"population":7036},{"id":2414659,"name":"Tokonou","timezone":{"dstOffset":0,"gmtOffset":0,"timeZoneId":"Africa/Conakry"},"lat":9.65,"lng":-9.78333,"population":6729},{"id":2416061,"name":"Sanguéya","timezone":{"dstOffset":0,"gmtOffset":0,"timeZoneId":"Africa/Conakry"},"lat":10.7,"lng":-14.36667,"population":6117},{"id":2421903,"name":"Dinguiraye","timezone":{"dstOffset":0,"gmtOffset":0,"timeZoneId":"Africa/Conakry"},"lat":11.29062,"lng":-10.7121,"population":6062},{"id":2417886,"name":"Mali","timezone":{"dstOffset":0,"gmtOffset":0,"timeZoneId":"Africa/Conakry"},"lat":12.079,"lng":-12.2982,"population":5479},{"id":2578880,"name":"Lélouma","timezone":{"dstOffset":0,"gmtOffset":0,"timeZoneId":"Africa/Conakry"},"lat":11.42383,"lng":-12.68183,"population":4777},{"id":2414079,"name":"Yomou","timezone":{"dstOffset":0,"gmtOffset":0,"timeZoneId":"Africa/Conakry"},"lat":7.56748,"lng":-9.26283,"population":3614},{"id":2422968,"name":"Boffa","timezone":{"dstOffset":0,"gmtOffset":0,"timeZoneId":"Africa/Conakry"},"lat":10.16667,"lng":-14.03333,"population":2332},{"id":2418092,"name":"Lola","timezone":{"dstOffset":0,"gmtOffset":0,"timeZoneId":"Africa/Conakry"},"lat":7.8,"lng":-8.53333,"population":1982}]