[{"id":264371,"name":"Athens","timezone":{"dstOffset":3,"gmtOffset":2,"timeZoneId":"Europe/Athens"},"lat":37.97945,"lng":23.71622,"population":664046},{"id":734077,"name":"Thessaloniki","timezone":{"dstOffset":3,"gmtOffset":2,"timeZoneId":"Europe/Athens"},"lat":40.64362,"lng":22.93086,"population":354290},{"id":255683,"name":"Pátrai","timezone":{"dstOffset":3,"gmtOffset":2,"timeZoneId":"Europe/Athens"},"lat":38.24444,"lng":21.73444,"population":168034},{"id":255274,"name":"Piraeus","timezone":{"dstOffset":3,"gmtOffset":2,"timeZoneId":"Europe/Athens"},"lat":37.94745,"lng":23.63708,"population":163688},{"id":255524,"name":"Peristeri","timezone":{"dstOffset":3,"gmtOffset":2,"timeZoneId":"Europe/Athens"},"lat":38.01539,"lng":23.69187,"population":139981},{"id":261745,"name":"Heraklion","timezone":{"dstOffset":3,"gmtOffset":2,"timeZoneId":"Europe/Athens"},"lat":35.32787,"lng":25.14341,"population":137154},{"id":258576,"name":"Lárisa","timezone":{"dstOffset":3,"gmtOffset":2,"timeZoneId":"Europe/Athens"},"lat":39.63689,"lng":22.41761,"population":128758},{"id":261414,"name":"Kallithea","timezone":{"dstOffset":3,"gmtOffset":2,"timeZoneId":"Europe/Athens"},"lat":37.95,"lng":23.7,"population":100641},{"id":265488,"name":"Acharnes","timezone":{"dstOffset":3,"gmtOffset":2,"timeZoneId":"Europe/Athens"},"lat":38.08333,"lng":23.73333,"population":99346},{"id":736083,"name":"Kalamaria","timezone":{"dstOffset":3,"gmtOffset":2,"timeZoneId":"Europe/Athens"},"lat":40.5825,"lng":22.95028,"population":91617},{"id":256429,"name":"Nikaia","timezone":{"dstOffset":3,"gmtOffset":2,"timeZoneId":"Europe/Athens"},"lat":37.96667,"lng":23.65,"population":89380},{"id":262036,"name":"Glyfada","timezone":{"dstOffset":3,"gmtOffset":2,"timeZoneId":"Europe/Athens"},"lat":37.86289,"lng":23.75802,"population":87305},{"id":256601,"name":"Nea Liosia","timezone":{"dstOffset":3,"gmtOffset":2,"timeZoneId":"Europe/Athens"},"lat":38.03333,"lng":23.7,"population":84793},{"id":251833,"name":"Volos","timezone":{"dstOffset":3,"gmtOffset":2,"timeZoneId":"Europe/Athens"},"lat":39.37303,"lng":22.94271,"population":84425},{"id":8310138,"name":"Ilioúpoli","timezone":{"dstOffset":3,"gmtOffset":2,"timeZoneId":"Europe/Athens"},"lat":37.93149,"lng":23.76779,"population":78153},{"id":260204,"name":"Keratsini","timezone":{"dstOffset":3,"gmtOffset":2,"timeZoneId":"Europe/Athens"},"lat":37.9625,"lng":23.61972,"population":77077},{"id":260172,"name":"Chalandri","timezone":{"dstOffset":3,"gmtOffset":2,"timeZoneId":"Europe/Athens"},"lat":38.02369,"lng":23.80068,"population":74192},{"id":256575,"name":"Néa Smýrni","timezone":{"dstOffset":3,"gmtOffset":2,"timeZoneId":"Europe/Athens"},"lat":37.94504,"lng":23.71416,"population":73076},{"id":265243,"name":"Marousi","timezone":{"dstOffset":3,"gmtOffset":2,"timeZoneId":"Europe/Athens"},"lat":38.05,"lng":23.8,"population":72333},{"id":263986,"name":"Agios Dimitrios","timezone":{"dstOffset":3,"gmtOffset":2,"timeZoneId":"Europe/Athens"},"lat":37.93333,"lng":23.73333,"population":71294},{"id":8358544,"name":"Zografos","timezone":{"dstOffset":3,"gmtOffset":2,"timeZoneId":"Europe/Athens"},"lat":37.97332,"lng":23.7909,"population":71026},{"id":265533,"name":"Aigáleo","timezone":{"dstOffset":3,"gmtOffset":2,"timeZoneId":"Europe/Athens"},"lat":37.98333,"lng":23.68333,"population":69946},{"id":256614,"name":"Nea Ionia","timezone":{"dstOffset":3,"gmtOffset":2,"timeZoneId":"Europe/Athens"},"lat":38.0357,"lng":23.75733,"population":67134},{"id":261779,"name":"Ioannina","timezone":{"dstOffset":3,"gmtOffset":2,"timeZoneId":"Europe/Athens"},"lat":39.66486,"lng":20.85189,"population":65574},{"id":256075,"name":"Palaio Faliro","timezone":{"dstOffset":3,"gmtOffset":2,"timeZoneId":"Europe/Athens"},"lat":37.92812,"lng":23.70105,"population":64021},{"id":8310183,"name":"Korydallos","timezone":{"dstOffset":3,"gmtOffset":2,"timeZoneId":"Europe/Athens"},"lat":37.98468,"lng":23.64711,"population":63445},{"id":252664,"name":"Trikala","timezone":{"dstOffset":3,"gmtOffset":2,"timeZoneId":"Europe/Athens"},"lat":39.55493,"lng":21.76837,"population":61653},{"id":251948,"name":"Výronas","timezone":{"dstOffset":3,"gmtOffset":2,"timeZoneId":"Europe/Athens"},"lat":37.96105,"lng":23.753,"population":61308},{"id":264194,"name":"Agía Paraskeví","timezone":{"dstOffset":3,"gmtOffset":2,"timeZoneId":"Europe/Athens"},"lat":38.01667,"lng":23.83333,"population":59704},{"id":262135,"name":"Galatsi","timezone":{"dstOffset":3,"gmtOffset":2,"timeZoneId":"Europe/Athens"},"lat":38.01667,"lng":23.75,"population":59345},{"id":260133,"name":"Chalcis","timezone":{"dstOffset":3,"gmtOffset":2,"timeZoneId":"Europe/Athens"},"lat":38.46354,"lng":23.60284,"population":59125},{"id":255377,"name":"Petroúpolis","timezone":{"dstOffset":3,"gmtOffset":2,"timeZoneId":"Europe/Athens"},"lat":38.04187,"lng":23.68494,"population":58979},{"id":734330,"name":"Serres","timezone":{"dstOffset":3,"gmtOffset":2,"timeZoneId":"Europe/Athens"},"lat":41.08499,"lng":23.54757,"population":58287},{"id":400666,"name":"Rhodes","timezone":{"dstOffset":3,"gmtOffset":2,"timeZoneId":"Europe/Athens"},"lat":36.44083,"lng":28.2225,"population":56128},{"id":260114,"name":"Chania","timezone":{"dstOffset":3,"gmtOffset":2,"timeZoneId":"Europe/Athens"},"lat":35.51124,"lng":24.02921,"population":54565},{"id":261604,"name":"Kalamata","timezone":{"dstOffset":3,"gmtOffset":2,"timeZoneId":"Europe/Athens"},"lat":37.03913,"lng":22.11265,"population":54100},{"id":735861,"name":"Kavala","timezone":{"dstOffset":3,"gmtOffset":2,"timeZoneId":"Europe/Athens"},"lat":40.93959,"lng":24.40687,"population":54027},{"id":735914,"name":"Katerini","timezone":{"dstOffset":3,"gmtOffset":2,"timeZoneId":"Europe/Athens"},"lat":40.26956,"lng":22.50608,"population":53293},{"id":736928,"name":"Alexandroupoli","timezone":{"dstOffset":3,"gmtOffset":2,"timeZoneId":"Europe/Athens"},"lat":40.84995,"lng":25.87644,"population":52979},{"id":258620,"name":"Lamia","timezone":{"dstOffset":3,"gmtOffset":2,"timeZoneId":"Europe/Athens"},"lat":38.9,"lng":22.43333,"population":52006},{"id":261743,"name":"Irakleio","timezone":{"dstOffset":3,"gmtOffset":2,"timeZoneId":"Europe/Athens"},"lat":38.05282,"lng":23.76523,"population":49642},{"id":733840,"name":"Xánthi","timezone":{"dstOffset":3,"gmtOffset":2,"timeZoneId":"Europe/Athens"},"lat":41.13488,"lng":24.888,"population":48221},{"id":259824,"name":"Kifissia","timezone":{"dstOffset":3,"gmtOffset":2,"timeZoneId":"Europe/Athens"},"lat":38.07438,"lng":23.81106,"population":47332},{"id":265560,"name":"Agrinio","timezone":{"dstOffset":3,"gmtOffset":2,"timeZoneId":"Europe/Athens"},"lat":38.62139,"lng":21.40778,"population":46899},{"id":260183,"name":"Chaïdári","timezone":{"dstOffset":3,"gmtOffset":2,"timeZoneId":"Europe/Athens"},"lat":38.01135,"lng":23.66597,"population":45642},{"id":735640,"name":"Komotini","timezone":{"dstOffset":3,"gmtOffset":2,"timeZoneId":"Europe/Athens"},"lat":41.11917,"lng":25.40535,"population":45631},{"id":734301,"name":"Sykiés","timezone":{"dstOffset":3,"gmtOffset":2,"timeZoneId":"Europe/Athens"},"lat":40.64944,"lng":22.95083,"population":44955},{"id":736364,"name":"Drama","timezone":{"dstOffset":3,"gmtOffset":2,"timeZoneId":"Europe/Athens"},"lat":41.15283,"lng":24.1473,"population":44823},{"id":733905,"name":"Véroia","timezone":{"dstOffset":3,"gmtOffset":2,"timeZoneId":"Europe/Athens"},"lat":40.52437,"lng":22.20242,"population":44464},{"id":261614,"name":"Alimos","timezone":{"dstOffset":3,"gmtOffset":2,"timeZoneId":"Europe/Athens"},"lat":37.91033,"lng":23.72361,"population":41720},{"id":734538,"name":"Políchni","timezone":{"dstOffset":3,"gmtOffset":2,"timeZoneId":"Europe/Athens"},"lat":40.66671,"lng":22.94881,"population":39765},{"id":735563,"name":"Kozani","timezone":{"dstOffset":3,"gmtOffset":2,"timeZoneId":"Europe/Athens"},"lat":40.30068,"lng":21.78896,"population":36481},{"id":8358563,"name":"Ágioi Anárgyroi","timezone":{"dstOffset":3,"gmtOffset":2,"timeZoneId":"Europe/Athens"},"lat":38.03013,"lng":23.72379,"population":34168},{"id":264516,"name":"Argyroúpoli","timezone":{"dstOffset":3,"gmtOffset":2,"timeZoneId":"Europe/Athens"},"lat":37.90594,"lng":23.75035,"population":34097},{"id":264888,"name":"Áno Liósia","timezone":{"dstOffset":3,"gmtOffset":2,"timeZoneId":"Europe/Athens"},"lat":38.08333,"lng":23.7,"population":33565},{"id":260989,"name":"Karditsa","timezone":{"dstOffset":3,"gmtOffset":2,"timeZoneId":"Europe/Athens"},"lat":39.36485,"lng":21.92191,"population":32789},{"id":9034728,"name":"Nea Ionia","timezone":{"dstOffset":3,"gmtOffset":2,"timeZoneId":"Europe/Athens"},"lat":39.37312,"lng":22.93375,"population":32661},{"id":259949,"name":"Cholargós","timezone":{"dstOffset":3,"gmtOffset":2,"timeZoneId":"Europe/Athens"},"lat":38,"lng":23.8,"population":30840},{"id":6324534,"name":"Vrilissia","timezone":{"dstOffset":3,"gmtOffset":2,"timeZoneId":"Europe/Athens"},"lat":38.03381,"lng":23.82962,"population":30741},{"id":264445,"name":"Aspropyrgos","timezone":{"dstOffset":3,"gmtOffset":2,"timeZoneId":"Europe/Athens"},"lat":38.06134,"lng":23.58971,"population":30251},{"id":259289,"name":"Corinth","timezone":{"dstOffset":3,"gmtOffset":2,"timeZoneId":"Europe/Athens"},"lat":37.94007,"lng":22.9513,"population":30176},{"id":734426,"name":"Ptolemaida","timezone":{"dstOffset":3,"gmtOffset":2,"timeZoneId":"Europe/Athens"},"lat":40.51472,"lng":21.67861,"population":30045},{"id":8201845,"name":"Gerakas","timezone":{"dstOffset":3,"gmtOffset":2,"timeZoneId":"Europe/Athens"},"lat":38.02277,"lng":23.8576,"population":29939},{"id":254352,"name":"Rethymno","timezone":{"dstOffset":3,"gmtOffset":2,"timeZoneId":"Europe/Athens"},"lat":35.36687,"lng":24.47487,"population":29907},{"id":259128,"name":"Metamorfosi","timezone":{"dstOffset":3,"gmtOffset":2,"timeZoneId":"Europe/Athens"},"lat":38.06576,"lng":23.76356,"population":29891},{"id":251780,"name":"Voula","timezone":{"dstOffset":3,"gmtOffset":2,"timeZoneId":"Europe/Athens"},"lat":37.84221,"lng":23.77651,"population":28364},{"id":261249,"name":"Kamatero","timezone":{"dstOffset":3,"gmtOffset":2,"timeZoneId":"Europe/Athens"},"lat":38.05586,"lng":23.70515,"population":28361},{"id":256866,"name":"Mytilene","timezone":{"dstOffset":3,"gmtOffset":2,"timeZoneId":"Europe/Athens"},"lat":39.11,"lng":26.55472,"population":28322},{"id":733776,"name":"Giannitsá","timezone":{"dstOffset":3,"gmtOffset":2,"timeZoneId":"Europe/Athens"},"lat":40.79194,"lng":22.4075,"population":27817},{"id":2463679,"name":"Corfu","timezone":{"dstOffset":3,"gmtOffset":2,"timeZoneId":"Europe/Athens"},"lat":39.62069,"lng":19.91975,"population":27003},{"id":252601,"name":"Tripoli","timezone":{"dstOffset":3,"gmtOffset":2,"timeZoneId":"Europe/Athens"},"lat":37.50889,"lng":22.37944,"population":26561},{"id":264111,"name":"Agía Varvára","timezone":{"dstOffset":3,"gmtOffset":2,"timeZoneId":"Europe/Athens"},"lat":37.98938,"lng":23.66011,"population":26550},{"id":261678,"name":"Kaisarianí","timezone":{"dstOffset":3,"gmtOffset":2,"timeZoneId":"Europe/Athens"},"lat":37.9634,"lng":23.76523,"population":26370},{"id":256621,"name":"Néa Filadélfeia","timezone":{"dstOffset":3,"gmtOffset":2,"timeZoneId":"Europe/Athens"},"lat":38.03491,"lng":23.73811,"population":25734},{"id":256750,"name":"Moschato","timezone":{"dstOffset":3,"gmtOffset":2,"timeZoneId":"Europe/Athens"},"lat":37.94789,"lng":23.6788,"population":25441},{"id":255588,"name":"Pérama","timezone":{"dstOffset":3,"gmtOffset":2,"timeZoneId":"Europe/Athens"},"lat":37.96775,"lng":23.5721,"population":25389},{"id":254144,"name":"Salamina","timezone":{"dstOffset":3,"gmtOffset":2,"timeZoneId":"Europe/Athens"},"lat":37.96427,"lng":23.49649,"population":25370},{"id":262752,"name":"Elefsina","timezone":{"dstOffset":3,"gmtOffset":2,"timeZoneId":"Europe/Athens"},"lat":38.04135,"lng":23.54295,"population":24910},{"id":259973,"name":"Chíos","timezone":{"dstOffset":3,"gmtOffset":2,"timeZoneId":"Europe/Athens"},"lat":38.36778,"lng":26.13583,"population":23953},{"id":734643,"name":"Pylaía","timezone":{"dstOffset":3,"gmtOffset":2,"timeZoneId":"Europe/Athens"},"lat":40.59918,"lng":22.98613,"population":23494},{"id":257365,"name":"Megara","timezone":{"dstOffset":3,"gmtOffset":2,"timeZoneId":"Europe/Athens"},"lat":37.99471,"lng":23.34324,"population":23456},{"id":263312,"name":"Dafni","timezone":{"dstOffset":3,"gmtOffset":2,"timeZoneId":"Europe/Athens"},"lat":37.95002,"lng":23.73437,"population":22913},{"id":257302,"name":"Melíssia","timezone":{"dstOffset":3,"gmtOffset":2,"timeZoneId":"Europe/Athens"},"lat":38.05,"lng":23.83333,"population":22741},{"id":255229,"name":"Pýrgos","timezone":{"dstOffset":3,"gmtOffset":2,"timeZoneId":"Europe/Athens"},"lat":37.67513,"lng":21.44102,"population":22399},{"id":264670,"name":"Argos","timezone":{"dstOffset":3,"gmtOffset":2,"timeZoneId":"Europe/Athens"},"lat":37.63333,"lng":22.73333,"population":22209},{"id":252910,"name":"Thebes","timezone":{"dstOffset":3,"gmtOffset":2,"timeZoneId":"Europe/Athens"},"lat":38.325,"lng":23.31889,"population":22026},{"id":258463,"name":"Livadeia","timezone":{"dstOffset":3,"gmtOffset":2,"timeZoneId":"Europe/Athens"},"lat":38.435,"lng":22.87389,"population":21492},{"id":258038,"name":"Loutsa","timezone":{"dstOffset":3,"gmtOffset":2,"timeZoneId":"Europe/Athens"},"lat":37.96667,"lng":24,"population":21488},{"id":8358562,"name":"Péfki","timezone":{"dstOffset":3,"gmtOffset":2,"timeZoneId":"Europe/Athens"},"lat":38.06019,"lng":23.79264,"population":21352},{"id":265500,"name":"Aigio","timezone":{"dstOffset":3,"gmtOffset":2,"timeZoneId":"Europe/Athens"},"lat":38.24861,"lng":22.08194,"population":20422},{"id":735030,"name":"Náousa","timezone":{"dstOffset":3,"gmtOffset":2,"timeZoneId":"Europe/Athens"},"lat":40.62944,"lng":22.06806,"population":19887},{"id":735736,"name":"Kilkis","timezone":{"dstOffset":3,"gmtOffset":2,"timeZoneId":"Europe/Athens"},"lat":40.99302,"lng":22.87433,"population":19734},{"id":265252,"name":"Amaliáda","timezone":{"dstOffset":3,"gmtOffset":2,"timeZoneId":"Europe/Athens"},"lat":37.8,"lng":21.35,"population":19579},{"id":264559,"name":"Arta","timezone":{"dstOffset":3,"gmtOffset":2,"timeZoneId":"Europe/Athens"},"lat":39.16056,"lng":20.98528,"population":19540},{"id":259245,"name":"Kos","timezone":{"dstOffset":3,"gmtOffset":2,"timeZoneId":"Europe/Athens"},"lat":36.89333,"lng":27.28889,"population":19244},{"id":259251,"name":"Koropí","timezone":{"dstOffset":3,"gmtOffset":2,"timeZoneId":"Europe/Athens"},"lat":37.89886,"lng":23.87181,"population":19164},{"id":736357,"name":"Edessa","timezone":{"dstOffset":3,"gmtOffset":2,"timeZoneId":"Europe/Athens"},"lat":40.8026,"lng":22.04751,"population":18669},{"id":736229,"name":"Florina","timezone":{"dstOffset":3,"gmtOffset":2,"timeZoneId":"Europe/Athens"},"lat":40.78197,"lng":21.40981,"population":17686},{"id":256622,"name":"Néa Erythraía","timezone":{"dstOffset":3,"gmtOffset":2,"timeZoneId":"Europe/Athens"},"lat":38.1,"lng":23.81667,"population":17379},{"id":254698,"name":"Preveza","timezone":{"dstOffset":3,"gmtOffset":2,"timeZoneId":"Europe/Athens"},"lat":38.95617,"lng":20.7505,"population":17283},{"id":262719,"name":"Ellinikó","timezone":{"dstOffset":3,"gmtOffset":2,"timeZoneId":"Europe/Athens"},"lat":37.88333,"lng":23.73333,"population":17259},{"id":734771,"name":"Panórama","timezone":{"dstOffset":3,"gmtOffset":2,"timeZoneId":"Europe/Athens"},"lat":40.58779,"lng":23.0315,"population":16551},{"id":253394,"name":"Sparti","timezone":{"dstOffset":3,"gmtOffset":2,"timeZoneId":"Europe/Athens"},"lat":37.07333,"lng":22.42972,"population":16239},{"id":734880,"name":"Orestiáda","timezone":{"dstOffset":3,"gmtOffset":2,"timeZoneId":"Europe/Athens"},"lat":41.50306,"lng":26.52972,"population":16221},{"id":734712,"name":"Peraía","timezone":{"dstOffset":3,"gmtOffset":2,"timeZoneId":"Europe/Athens"},"lat":40.49874,"lng":22.92617,"population":16067},{"id":8478257,"name":"Agios Ioannis Rentis","timezone":{"dstOffset":3,"gmtOffset":2,"timeZoneId":"Europe/Athens"},"lat":37.96491,"lng":23.66511,"population":16050},{"id":252270,"name":"Vári","timezone":{"dstOffset":3,"gmtOffset":2,"timeZoneId":"Europe/Athens"},"lat":37.8312,"lng":23.80809,"population":15855},{"id":735215,"name":"Meneméni","timezone":{"dstOffset":3,"gmtOffset":2,"timeZoneId":"Europe/Athens"},"lat":40.65829,"lng":22.89712,"population":15706},{"id":256598,"name":"Nea Makri","timezone":{"dstOffset":3,"gmtOffset":2,"timeZoneId":"Europe/Athens"},"lat":38.08733,"lng":23.97642,"population":15554},{"id":734883,"name":"Oraiokastro","timezone":{"dstOffset":3,"gmtOffset":2,"timeZoneId":"Europe/Athens"},"lat":40.73083,"lng":22.91722,"population":15006},{"id":253025,"name":"Tavros","timezone":{"dstOffset":3,"gmtOffset":2,"timeZoneId":"Europe/Athens"},"lat":37.97064,"lng":23.69043,"population":14972},{"id":255971,"name":"Pallini","timezone":{"dstOffset":3,"gmtOffset":2,"timeZoneId":"Europe/Athens"},"lat":37.99702,"lng":23.87723,"population":14808},{"id":256197,"name":"Paianía","timezone":{"dstOffset":3,"gmtOffset":2,"timeZoneId":"Europe/Athens"},"lat":37.95527,"lng":23.85443,"population":14595},{"id":256637,"name":"Nafplion","timezone":{"dstOffset":3,"gmtOffset":2,"timeZoneId":"Europe/Athens"},"lat":37.56828,"lng":22.80528,"population":14582},{"id":261445,"name":"Kalývia Thorikoú","timezone":{"dstOffset":3,"gmtOffset":2,"timeZoneId":"Europe/Athens"},"lat":37.83894,"lng":23.92505,"population":14424},{"id":734080,"name":"Thérmi","timezone":{"dstOffset":3,"gmtOffset":2,"timeZoneId":"Europe/Athens"},"lat":40.54712,"lng":23.01967,"population":14373},{"id":8644195,"name":"Drapetsona","timezone":{"dstOffset":3,"gmtOffset":2,"timeZoneId":"Europe/Athens"},"lat":37.94988,"lng":23.62309,"population":13968},{"id":256342,"name":"Papagou","timezone":{"dstOffset":3,"gmtOffset":2,"timeZoneId":"Europe/Athens"},"lat":37.98642,"lng":23.79347,"population":13699},{"id":736929,"name":"Alexándreia","timezone":{"dstOffset":3,"gmtOffset":2,"timeZoneId":"Europe/Athens"},"lat":40.62667,"lng":22.44417,"population":13665},{"id":256639,"name":"Nafpaktos","timezone":{"dstOffset":3,"gmtOffset":2,"timeZoneId":"Europe/Athens"},"lat":38.39167,"lng":21.8275,"population":13415},{"id":735927,"name":"Kastoria","timezone":{"dstOffset":3,"gmtOffset":2,"timeZoneId":"Europe/Athens"},"lat":40.52165,"lng":21.26341,"population":13387},{"id":257186,"name":"Messolonghi","timezone":{"dstOffset":3,"gmtOffset":2,"timeZoneId":"Europe/Athens"},"lat":38.36917,"lng":21.42917,"population":12785},{"id":261814,"name":"Ierapetra","timezone":{"dstOffset":3,"gmtOffset":2,"timeZoneId":"Europe/Athens"},"lat":35.01186,"lng":25.74234,"population":12536},{"id":254425,"name":"Rafina","timezone":{"dstOffset":3,"gmtOffset":2,"timeZoneId":"Europe/Athens"},"lat":38.01812,"lng":24.00599,"population":12168},{"id":408628,"name":"Néa Alikarnassós","timezone":{"dstOffset":3,"gmtOffset":2,"timeZoneId":"Europe/Athens"},"lat":35.33977,"lng":25.15895,"population":11886},{"id":258066,"name":"Loutraki","timezone":{"dstOffset":3,"gmtOffset":2,"timeZoneId":"Europe/Athens"},"lat":37.9783,"lng":22.97781,"population":11564},{"id":251280,"name":"Zakynthos","timezone":{"dstOffset":3,"gmtOffset":2,"timeZoneId":"Europe/Athens"},"lat":37.78022,"lng":20.89555,"population":11541},{"id":252685,"name":"Ialysos","timezone":{"dstOffset":3,"gmtOffset":2,"timeZoneId":"Europe/Athens"},"lat":36.41043,"lng":28.16552,"population":11473},{"id":262603,"name":"Ermoúpolis","timezone":{"dstOffset":3,"gmtOffset":2,"timeZoneId":"Europe/Athens"},"lat":37.44227,"lng":24.94248,"population":11351},{"id":257811,"name":"Mándra","timezone":{"dstOffset":3,"gmtOffset":2,"timeZoneId":"Europe/Athens"},"lat":38.06667,"lng":23.5,"population":11327},{"id":865291,"name":"Triandría","timezone":{"dstOffset":3,"gmtOffset":2,"timeZoneId":"Europe/Athens"},"lat":40.615,"lng":22.9762,"population":11082},{"id":7667930,"name":"Ymittos","timezone":{"dstOffset":3,"gmtOffset":2,"timeZoneId":"Europe/Athens"},"lat":37.95342,"lng":23.74897,"population":11000},{"id":263824,"name":"Agios Nikolaos","timezone":{"dstOffset":3,"gmtOffset":2,"timeZoneId":"Europe/Athens"},"lat":35.19106,"lng":25.71524,"population":10799},{"id":252848,"name":"Týrnavos","timezone":{"dstOffset":3,"gmtOffset":2,"timeZoneId":"Europe/Athens"},"lat":39.73778,"lng":22.28917,"population":10796},{"id":8131587,"name":"Ymittos","timezone":{"dstOffset":3,"gmtOffset":2,"timeZoneId":"Europe/Athens"},"lat":37.95342,"lng":23.74897,"population":10715},{"id":736151,"name":"Grevená","timezone":{"dstOffset":3,"gmtOffset":2,"timeZoneId":"Europe/Athens"},"lat":40.08452,"lng":21.42744,"population":10563},{"id":262462,"name":"Farsala","timezone":{"dstOffset":3,"gmtOffset":2,"timeZoneId":"Europe/Athens"},"lat":39.29472,"lng":22.38472,"population":10380},{"id":736450,"name":"Diavatá","timezone":{"dstOffset":3,"gmtOffset":2,"timeZoneId":"Europe/Athens"},"lat":40.68744,"lng":22.85799,"population":10216},{"id":8657513,"name":"Neo Psychiko","timezone":{"dstOffset":3,"gmtOffset":2,"timeZoneId":"Europe/Athens"},"lat":38.00624,"lng":23.78373,"population":10137},{"id":261507,"name":"Kálymnos","timezone":{"dstOffset":3,"gmtOffset":2,"timeZoneId":"Europe/Athens"},"lat":36.95,"lng":26.98333,"population":10002},{"id":734517,"name":"Polygyros","timezone":{"dstOffset":3,"gmtOffset":2,"timeZoneId":"Europe/Athens"},"lat":40.37704,"lng":23.44135,"population":10000},{"id":263725,"name":"Ágios Stéfanos","timezone":{"dstOffset":3,"gmtOffset":2,"timeZoneId":"Europe/Athens"},"lat":38.14657,"lng":23.85608,"population":9892},{"id":9035867,"name":"Nea Chalkidona","timezone":{"dstOffset":3,"gmtOffset":2,"timeZoneId":"Europe/Athens"},"lat":38.0271,"lng":23.73051,"population":9822},{"id":264668,"name":"Argostoli","timezone":{"dstOffset":3,"gmtOffset":2,"timeZoneId":"Europe/Athens"},"lat":38.18109,"lng":20.48903,"population":9820},{"id":259830,"name":"Kiato","timezone":{"dstOffset":3,"gmtOffset":2,"timeZoneId":"Europe/Athens"},"lat":38.01321,"lng":22.74839,"population":9812},{"id":265107,"name":"Anatoli","timezone":{"dstOffset":3,"gmtOffset":2,"timeZoneId":"Europe/Athens"},"lat":39.63531,"lng":20.86578,"population":9798},{"id":262067,"name":"Gázi","timezone":{"dstOffset":3,"gmtOffset":2,"timeZoneId":"Europe/Athens"},"lat":35.32531,"lng":25.06694,"population":9721},{"id":258314,"name":"Porto Rafti","timezone":{"dstOffset":3,"gmtOffset":2,"timeZoneId":"Europe/Athens"},"lat":37.89108,"lng":24.00307,"population":9686},{"id":258332,"name":"Lykóvrysi","timezone":{"dstOffset":3,"gmtOffset":2,"timeZoneId":"Europe/Athens"},"lat":38.06667,"lng":23.78333,"population":9650},{"id":254505,"name":"Psychikó","timezone":{"dstOffset":3,"gmtOffset":2,"timeZoneId":"Europe/Athens"},"lat":38.01324,"lng":23.77223,"population":9529},{"id":257671,"name":"Markopoulo Mesogaias","timezone":{"dstOffset":3,"gmtOffset":2,"timeZoneId":"Europe/Athens"},"lat":37.88333,"lng":23.93333,"population":9513},{"id":261807,"name":"Igoumenitsa","timezone":{"dstOffset":3,"gmtOffset":2,"timeZoneId":"Europe/Athens"},"lat":39.50342,"lng":20.26728,"population":9496},{"id":256626,"name":"Nea Artaki","timezone":{"dstOffset":3,"gmtOffset":2,"timeZoneId":"Europe/Athens"},"lat":38.51667,"lng":23.63333,"population":9489},{"id":9035858,"name":"Zefyri","timezone":{"dstOffset":3,"gmtOffset":2,"timeZoneId":"Europe/Athens"},"lat":38.06647,"lng":23.71701,"population":9454},{"id":734999,"name":"Nea Moudania","timezone":{"dstOffset":3,"gmtOffset":2,"timeZoneId":"Europe/Athens"},"lat":40.2439,"lng":23.28484,"population":9342},{"id":253376,"name":"Spata","timezone":{"dstOffset":3,"gmtOffset":2,"timeZoneId":"Europe/Athens"},"lat":37.96163,"lng":23.91514,"population":9198},{"id":735747,"name":"Chrysoupoli","timezone":{"dstOffset":3,"gmtOffset":2,"timeZoneId":"Europe/Athens"},"lat":40.98556,"lng":24.69389,"population":8885},{"id":253759,"name":"Siteía","timezone":{"dstOffset":3,"gmtOffset":2,"timeZoneId":"Europe/Athens"},"lat":35.2065,"lng":26.10721,"population":8707},{"id":258438,"name":"Lefkada","timezone":{"dstOffset":3,"gmtOffset":2,"timeZoneId":"Europe/Athens"},"lat":38.83036,"lng":20.70442,"population":8673},{"id":736447,"name":"Didymóteicho","timezone":{"dstOffset":3,"gmtOffset":2,"timeZoneId":"Europe/Athens"},"lat":41.34806,"lng":26.49611,"population":8336},{"id":256592,"name":"Néa Péramos","timezone":{"dstOffset":3,"gmtOffset":2,"timeZoneId":"Europe/Athens"},"lat":38.00763,"lng":23.42295,"population":8333},{"id":735588,"name":"Koufália","timezone":{"dstOffset":3,"gmtOffset":2,"timeZoneId":"Europe/Athens"},"lat":40.77778,"lng":22.57194,"population":8305},{"id":734284,"name":"Síndos","timezone":{"dstOffset":3,"gmtOffset":2,"timeZoneId":"Europe/Athens"},"lat":40.67045,"lng":22.80545,"population":8228},{"id":261601,"name":"Kalambaka","timezone":{"dstOffset":3,"gmtOffset":2,"timeZoneId":"Europe/Athens"},"lat":39.70444,"lng":21.62694,"population":8138},{"id":736319,"name":"Epanomí","timezone":{"dstOffset":3,"gmtOffset":2,"timeZoneId":"Europe/Athens"},"lat":40.42614,"lng":22.92782,"population":8121},{"id":262098,"name":"Gastoúni","timezone":{"dstOffset":3,"gmtOffset":2,"timeZoneId":"Europe/Athens"},"lat":37.85,"lng":21.25,"population":8114},{"id":265292,"name":"Almyros","timezone":{"dstOffset":3,"gmtOffset":2,"timeZoneId":"Europe/Athens"},"lat":39.18222,"lng":22.75944,"population":7955},{"id":735001,"name":"Néa Michanióna","timezone":{"dstOffset":3,"gmtOffset":2,"timeZoneId":"Europe/Athens"},"lat":40.46371,"lng":22.8617,"population":7908},{"id":261921,"name":"Goúvai","timezone":{"dstOffset":3,"gmtOffset":2,"timeZoneId":"Europe/Athens"},"lat":35.3105,"lng":25.31327,"population":7760},{"id":257056,"name":"Mykonos","timezone":{"dstOffset":3,"gmtOffset":2,"timeZoneId":"Europe/Athens"},"lat":37.44529,"lng":25.32872,"population":7739},{"id":256632,"name":"Naxos","timezone":{"dstOffset":3,"gmtOffset":2,"timeZoneId":"Europe/Athens"},"lat":37.10556,"lng":25.37639,"population":7574},{"id":260210,"name":"Keratea","timezone":{"dstOffset":3,"gmtOffset":2,"timeZoneId":"Europe/Athens"},"lat":37.80733,"lng":23.97692,"population":7493},{"id":736754,"name":"Argos Orestiko","timezone":{"dstOffset":3,"gmtOffset":2,"timeZoneId":"Europe/Athens"},"lat":40.45354,"lng":21.25889,"population":7473},{"id":734622,"name":"Chalástra","timezone":{"dstOffset":3,"gmtOffset":2,"timeZoneId":"Europe/Athens"},"lat":40.62643,"lng":22.73291,"population":7360},{"id":262398,"name":"Filothéi","timezone":{"dstOffset":3,"gmtOffset":2,"timeZoneId":"Europe/Athens"},"lat":38.02524,"lng":23.78257,"population":7302},{"id":735016,"name":"Nea Kallikrateia","timezone":{"dstOffset":3,"gmtOffset":2,"timeZoneId":"Europe/Athens"},"lat":40.31312,"lng":23.06344,"population":7238},{"id":734014,"name":"Trilofos","timezone":{"dstOffset":3,"gmtOffset":2,"timeZoneId":"Europe/Athens"},"lat":40.46898,"lng":22.9718,"population":7227},{"id":865290,"name":"Ágios Pávlos","timezone":{"dstOffset":3,"gmtOffset":2,"timeZoneId":"Europe/Athens"},"lat":40.64074,"lng":22.96039,"population":7221},{"id":735481,"name":"Lagkadás","timezone":{"dstOffset":3,"gmtOffset":2,"timeZoneId":"Europe/Athens"},"lat":40.75,"lng":23.06667,"population":7215},{"id":9035866,"name":"Nea Penteli","timezone":{"dstOffset":3,"gmtOffset":2,"timeZoneId":"Europe/Athens"},"lat":38.06059,"lng":23.85926,"population":7198},{"id":262871,"name":"Drosiá","timezone":{"dstOffset":3,"gmtOffset":2,"timeZoneId":"Europe/Athens"},"lat":38.11977,"lng":23.86428,"population":7186},{"id":257717,"name":"Marathon","timezone":{"dstOffset":3,"gmtOffset":2,"timeZoneId":"Europe/Athens"},"lat":38.15317,"lng":23.96278,"population":7170},{"id":258543,"name":"Lávrio","timezone":{"dstOffset":3,"gmtOffset":2,"timeZoneId":"Europe/Athens"},"lat":37.71445,"lng":24.05648,"population":7078},{"id":262784,"name":"Elassóna","timezone":{"dstOffset":3,"gmtOffset":2,"timeZoneId":"Europe/Athens"},"lat":39.89472,"lng":22.18861,"population":7060},{"id":251332,"name":"Giánnouli","timezone":{"dstOffset":3,"gmtOffset":2,"timeZoneId":"Europe/Athens"},"lat":39.66717,"lng":22.39597,"population":7030},{"id":262418,"name":"Filiatrá","timezone":{"dstOffset":3,"gmtOffset":2,"timeZoneId":"Europe/Athens"},"lat":37.15,"lng":21.58333,"population":6970},{"id":734540,"name":"Polýkastro","timezone":{"dstOffset":3,"gmtOffset":2,"timeZoneId":"Europe/Athens"},"lat":40.99444,"lng":22.56909,"population":6961},{"id":260891,"name":"Karpenisi","timezone":{"dstOffset":3,"gmtOffset":2,"timeZoneId":"Europe/Athens"},"lat":38.91667,"lng":21.78333,"population":6888},{"id":265502,"name":"Aegina","timezone":{"dstOffset":3,"gmtOffset":2,"timeZoneId":"Europe/Athens"},"lat":37.74667,"lng":23.4275,"population":6867},{"id":265187,"name":"Amfissa","timezone":{"dstOffset":3,"gmtOffset":2,"timeZoneId":"Europe/Athens"},"lat":38.525,"lng":22.37306,"population":6854},{"id":735546,"name":"Krýa Vrýsi","timezone":{"dstOffset":3,"gmtOffset":2,"timeZoneId":"Europe/Athens"},"lat":40.68738,"lng":22.30516,"population":6839},{"id":257152,"name":"Messíni","timezone":{"dstOffset":3,"gmtOffset":2,"timeZoneId":"Europe/Athens"},"lat":37.05111,"lng":22.00778,"population":6773},{"id":253456,"name":"Soúda","timezone":{"dstOffset":3,"gmtOffset":2,"timeZoneId":"Europe/Athens"},"lat":35.48717,"lng":24.07344,"population":6729},{"id":735399,"name":"Litochoro","timezone":{"dstOffset":3,"gmtOffset":2,"timeZoneId":"Europe/Athens"},"lat":40.10056,"lng":22.49778,"population":6709},{"id":256492,"name":"Karlovasi","timezone":{"dstOffset":3,"gmtOffset":2,"timeZoneId":"Europe/Athens"},"lat":37.79209,"lng":26.7049,"population":6708},{"id":252190,"name":"Vasiliko","timezone":{"dstOffset":3,"gmtOffset":2,"timeZoneId":"Europe/Athens"},"lat":38.42586,"lng":23.67189,"population":6571},{"id":736753,"name":"Aridaea","timezone":{"dstOffset":3,"gmtOffset":2,"timeZoneId":"Europe/Athens"},"lat":40.97306,"lng":22.05639,"population":6561},{"id":263854,"name":"Agios Konstantinos","timezone":{"dstOffset":3,"gmtOffset":2,"timeZoneId":"Europe/Athens"},"lat":38.63337,"lng":21.3995,"population":6534},{"id":264929,"name":"Anoixi","timezone":{"dstOffset":3,"gmtOffset":2,"timeZoneId":"Europe/Athens"},"lat":38.13267,"lng":23.85874,"population":6510},{"id":256842,"name":"Moíres","timezone":{"dstOffset":3,"gmtOffset":2,"timeZoneId":"Europe/Athens"},"lat":35.05143,"lng":24.8733,"population":6450},{"id":255777,"name":"Paralia","timezone":{"dstOffset":3,"gmtOffset":2,"timeZoneId":"Europe/Athens"},"lat":38.19833,"lng":21.70263,"population":6336},{"id":262104,"name":"Gargaliánoi","timezone":{"dstOffset":3,"gmtOffset":2,"timeZoneId":"Europe/Athens"},"lat":37.06667,"lng":21.63333,"population":6282},{"id":265100,"name":"Anavyssos","timezone":{"dstOffset":3,"gmtOffset":2,"timeZoneId":"Europe/Athens"},"lat":37.73414,"lng":23.94389,"population":6202},{"id":9035859,"name":"Thrakomakedones","timezone":{"dstOffset":3,"gmtOffset":2,"timeZoneId":"Europe/Athens"},"lat":38.12964,"lng":23.75751,"population":6200},{"id":254315,"name":"Río","timezone":{"dstOffset":3,"gmtOffset":2,"timeZoneId":"Europe/Athens"},"lat":38.3,"lng":21.78333,"population":6083},{"id":6354951,"name":"Faliraki","timezone":{"dstOffset":3,"gmtOffset":2,"timeZoneId":"Europe/Athens"},"lat":36.33981,"lng":28.19942,"population":6000},{"id":265206,"name":"Ampelóna","timezone":{"dstOffset":3,"gmtOffset":2,"timeZoneId":"Europe/Athens"},"lat":39.74481,"lng":22.36575,"population":5961},{"id":258508,"name":"Leontario","timezone":{"dstOffset":3,"gmtOffset":2,"timeZoneId":"Europe/Athens"},"lat":37.987,"lng":23.85518,"population":5929},{"id":256268,"name":"Orchomenos","timezone":{"dstOffset":3,"gmtOffset":2,"timeZoneId":"Europe/Athens"},"lat":38.4929,"lng":22.97962,"population":5919},{"id":256627,"name":"Néa Anchiálos","timezone":{"dstOffset":3,"gmtOffset":2,"timeZoneId":"Europe/Athens"},"lat":39.28015,"lng":22.81819,"population":5908},{"id":251283,"name":"Zacháro","timezone":{"dstOffset":3,"gmtOffset":2,"timeZoneId":"Europe/Athens"},"lat":37.48333,"lng":21.65,"population":5894},{"id":262833,"name":"Ekali","timezone":{"dstOffset":3,"gmtOffset":2,"timeZoneId":"Europe/Athens"},"lat":38.11035,"lng":23.83505,"population":5889},{"id":256223,"name":"Ovriá","timezone":{"dstOffset":3,"gmtOffset":2,"timeZoneId":"Europe/Athens"},"lat":38.18866,"lng":21.72903,"population":5838},{"id":254546,"name":"Psachná","timezone":{"dstOffset":3,"gmtOffset":2,"timeZoneId":"Europe/Athens"},"lat":38.58333,"lng":23.63333,"population":5828},{"id":260644,"name":"Káto Achaḯa","timezone":{"dstOffset":3,"gmtOffset":2,"timeZoneId":"Europe/Athens"},"lat":38.15,"lng":21.55,"population":5752},{"id":264310,"name":"Avlonas","timezone":{"dstOffset":3,"gmtOffset":2,"timeZoneId":"Europe/Athens"},"lat":38.25149,"lng":23.69554,"population":5744},{"id":256047,"name":"Palamás","timezone":{"dstOffset":3,"gmtOffset":2,"timeZoneId":"Europe/Athens"},"lat":39.46667,"lng":22.08333,"population":5719},{"id":263064,"name":"Diónysos","timezone":{"dstOffset":3,"gmtOffset":2,"timeZoneId":"Europe/Athens"},"lat":38.1,"lng":23.88333,"population":5651},{"id":734315,"name":"Siátista","timezone":{"dstOffset":3,"gmtOffset":2,"timeZoneId":"Europe/Athens"},"lat":40.26194,"lng":21.54417,"population":5612},{"id":408685,"name":"Afántou","timezone":{"dstOffset":3,"gmtOffset":2,"timeZoneId":"Europe/Athens"},"lat":36.29354,"lng":28.16225,"population":5562},{"id":265601,"name":"Agriá","timezone":{"dstOffset":3,"gmtOffset":2,"timeZoneId":"Europe/Athens"},"lat":39.34078,"lng":23.01258,"population":5519},{"id":251525,"name":"Xylokastro","timezone":{"dstOffset":3,"gmtOffset":2,"timeZoneId":"Europe/Athens"},"lat":38.07762,"lng":22.63166,"population":5500},{"id":256930,"name":"Myrina","timezone":{"dstOffset":3,"gmtOffset":2,"timeZoneId":"Europe/Athens"},"lat":39.87483,"lng":25.06359,"population":5406},{"id":736261,"name":"Féres","timezone":{"dstOffset":3,"gmtOffset":2,"timeZoneId":"Europe/Athens"},"lat":40.89306,"lng":26.17234,"population":5403},{"id":255293,"name":"Pýlos","timezone":{"dstOffset":3,"gmtOffset":2,"timeZoneId":"Europe/Athens"},"lat":36.91344,"lng":21.69639,"population":5402},{"id":408686,"name":"Archangelos","timezone":{"dstOffset":3,"gmtOffset":2,"timeZoneId":"Europe/Athens"},"lat":36.21492,"lng":28.11487,"population":5398},{"id":734564,"name":"Plagiari","timezone":{"dstOffset":3,"gmtOffset":2,"timeZoneId":"Europe/Athens"},"lat":40.47276,"lng":22.9579,"population":5392},{"id":736687,"name":"Asvestochóri","timezone":{"dstOffset":3,"gmtOffset":2,"timeZoneId":"Europe/Athens"},"lat":40.64125,"lng":23.02528,"population":5345},{"id":251606,"name":"Vrontados","timezone":{"dstOffset":3,"gmtOffset":2,"timeZoneId":"Europe/Athens"},"lat":38.40889,"lng":26.13278,"population":5323},{"id":256696,"name":"Mourniés","timezone":{"dstOffset":3,"gmtOffset":2,"timeZoneId":"Europe/Athens"},"lat":35.48228,"lng":24.01253,"population":5318},{"id":255721,"name":"Páros","timezone":{"dstOffset":3,"gmtOffset":2,"timeZoneId":"Europe/Athens"},"lat":37.08333,"lng":25.15,"population":5289},{"id":257395,"name":"Megalopolis","timezone":{"dstOffset":3,"gmtOffset":2,"timeZoneId":"Europe/Athens"},"lat":37.40111,"lng":22.14222,"population":5283},{"id":253643,"name":"Skiathos","timezone":{"dstOffset":3,"gmtOffset":2,"timeZoneId":"Europe/Athens"},"lat":39.16227,"lng":23.49089,"population":5187},{"id":265309,"name":"Alivéri","timezone":{"dstOffset":3,"gmtOffset":2,"timeZoneId":"Europe/Athens"},"lat":38.41667,"lng":24.03333,"population":5184},{"id":734310,"name":"Sidirokastro","timezone":{"dstOffset":3,"gmtOffset":2,"timeZoneId":"Europe/Athens"},"lat":41.23499,"lng":23.38899,"population":5177},{"id":260935,"name":"Kárystos","timezone":{"dstOffset":3,"gmtOffset":2,"timeZoneId":"Europe/Athens"},"lat":38.01333,"lng":24.41611,"population":5091},{"id":734973,"name":"Néoi Epivátes","timezone":{"dstOffset":3,"gmtOffset":2,"timeZoneId":"Europe/Athens"},"lat":40.49863,"lng":22.91192,"population":5077},{"id":258793,"name":"Kryonéri","timezone":{"dstOffset":3,"gmtOffset":2,"timeZoneId":"Europe/Athens"},"lat":38.13712,"lng":23.83055,"population":5040},{"id":259782,"name":"Kyparissía","timezone":{"dstOffset":3,"gmtOffset":2,"timeZoneId":"Europe/Athens"},"lat":37.25111,"lng":21.67361,"population":5033},{"id":262869,"name":"Drosia","timezone":{"dstOffset":3,"gmtOffset":2,"timeZoneId":"Europe/Athens"},"lat":38.48413,"lng":23.54774,"population":5020},{"id":264390,"name":"Atalanti","timezone":{"dstOffset":3,"gmtOffset":2,"timeZoneId":"Europe/Athens"},"lat":38.65111,"lng":22.99917,"population":4978},{"id":735347,"name":"Makrochóri","timezone":{"dstOffset":3,"gmtOffset":2,"timeZoneId":"Europe/Athens"},"lat":40.55126,"lng":22.24955,"population":4965},{"id":6692641,"name":"Agios Georgis","timezone":{"dstOffset":3,"gmtOffset":2,"timeZoneId":"Europe/Athens"},"lat":39.72363,"lng":19.69969,"population":4958},{"id":734924,"name":"Nigrita","timezone":{"dstOffset":3,"gmtOffset":2,"timeZoneId":"Europe/Athens"},"lat":40.90528,"lng":23.49944,"population":4947},{"id":252862,"name":"Tympáki","timezone":{"dstOffset":3,"gmtOffset":2,"timeZoneId":"Europe/Athens"},"lat":35.07286,"lng":24.76851,"population":4923},{"id":253170,"name":"Stilís","timezone":{"dstOffset":3,"gmtOffset":2,"timeZoneId":"Europe/Athens"},"lat":38.91667,"lng":22.61667,"population":4892},{"id":265546,"name":"Aianteio","timezone":{"dstOffset":3,"gmtOffset":2,"timeZoneId":"Europe/Athens"},"lat":37.92135,"lng":23.45877,"population":4860},{"id":255610,"name":"Pentéli","timezone":{"dstOffset":3,"gmtOffset":2,"timeZoneId":"Europe/Athens"},"lat":38.05,"lng":23.86667,"population":4851},{"id":9036675,"name":"Kitsi","timezone":{"dstOffset":3,"gmtOffset":2,"timeZoneId":"Europe/Athens"},"lat":37.85181,"lng":23.84068,"population":4788},{"id":261715,"name":"Itea","timezone":{"dstOffset":3,"gmtOffset":2,"timeZoneId":"Europe/Athens"},"lat":38.43201,"lng":22.42443,"population":4782},{"id":258007,"name":"Magoula","timezone":{"dstOffset":3,"gmtOffset":2,"timeZoneId":"Europe/Athens"},"lat":38.07989,"lng":23.52108,"population":4735},{"id":265240,"name":"Ampelakia","timezone":{"dstOffset":3,"gmtOffset":2,"timeZoneId":"Europe/Athens"},"lat":37.94902,"lng":23.52445,"population":4710},{"id":408684,"name":"Kremastí","timezone":{"dstOffset":3,"gmtOffset":2,"timeZoneId":"Europe/Athens"},"lat":36.41112,"lng":28.11893,"population":4700},{"id":736621,"name":"Ágios Athanásios","timezone":{"dstOffset":3,"gmtOffset":2,"timeZoneId":"Europe/Athens"},"lat":40.71598,"lng":22.72841,"population":4648},{"id":264068,"name":"Agioi Theodoroi","timezone":{"dstOffset":3,"gmtOffset":2,"timeZoneId":"Europe/Athens"},"lat":37.9272,"lng":23.14084,"population":4643},{"id":262411,"name":"Filippiada","timezone":{"dstOffset":3,"gmtOffset":2,"timeZoneId":"Europe/Athens"},"lat":39.20472,"lng":20.88222,"population":4619},{"id":252854,"name":"Tínos","timezone":{"dstOffset":3,"gmtOffset":2,"timeZoneId":"Europe/Athens"},"lat":37.53753,"lng":25.16343,"population":4573},{"id":734235,"name":"Skýdra","timezone":{"dstOffset":3,"gmtOffset":2,"timeZoneId":"Europe/Athens"},"lat":40.76722,"lng":22.15194,"population":4562},{"id":252101,"name":"Vágia","timezone":{"dstOffset":3,"gmtOffset":2,"timeZoneId":"Europe/Athens"},"lat":38.31667,"lng":23.18333,"population":4535},{"id":733941,"name":"Vasiliká","timezone":{"dstOffset":3,"gmtOffset":2,"timeZoneId":"Europe/Athens"},"lat":40.47966,"lng":23.13695,"population":4519},{"id":734355,"name":"Sápes","timezone":{"dstOffset":3,"gmtOffset":2,"timeZoneId":"Europe/Athens"},"lat":41.02861,"lng":25.69306,"population":4506},{"id":256449,"name":"Nerokoúros","timezone":{"dstOffset":3,"gmtOffset":2,"timeZoneId":"Europe/Athens"},"lat":35.47587,"lng":24.03995,"population":4388},{"id":251220,"name":"Zevgolatio","timezone":{"dstOffset":3,"gmtOffset":2,"timeZoneId":"Europe/Athens"},"lat":37.93333,"lng":22.8,"population":4363},{"id":736245,"name":"Fíliro","timezone":{"dstOffset":3,"gmtOffset":2,"timeZoneId":"Europe/Athens"},"lat":40.69151,"lng":23.0046,"population":4362},{"id":736330,"name":"Eleftheroupoli","timezone":{"dstOffset":3,"gmtOffset":2,"timeZoneId":"Europe/Athens"},"lat":40.91389,"lng":24.25139,"population":4360},{"id":257859,"name":"Mália","timezone":{"dstOffset":3,"gmtOffset":2,"timeZoneId":"Europe/Athens"},"lat":35.28367,"lng":25.46262,"population":4343},{"id":261720,"name":"Istiaia","timezone":{"dstOffset":3,"gmtOffset":2,"timeZoneId":"Europe/Athens"},"lat":38.9552,"lng":23.1521,"population":4339},{"id":265507,"name":"Aitoliko","timezone":{"dstOffset":3,"gmtOffset":2,"timeZoneId":"Europe/Athens"},"lat":38.43333,"lng":21.35,"population":4323},{"id":251297,"name":"Gytheion","timezone":{"dstOffset":3,"gmtOffset":2,"timeZoneId":"Europe/Athens"},"lat":36.755,"lng":22.56417,"population":4279},{"id":265342,"name":"Aliartos","timezone":{"dstOffset":3,"gmtOffset":2,"timeZoneId":"Europe/Athens"},"lat":38.36667,"lng":23.1,"population":4275},{"id":736964,"name":"Aigínio","timezone":{"dstOffset":3,"gmtOffset":2,"timeZoneId":"Europe/Athens"},"lat":40.50139,"lng":22.54,"population":4275},{"id":259718,"name":"Kissamos","timezone":{"dstOffset":3,"gmtOffset":2,"timeZoneId":"Europe/Athens"},"lat":35.49459,"lng":23.65375,"population":4236},{"id":735615,"name":"Korinós","timezone":{"dstOffset":3,"gmtOffset":2,"timeZoneId":"Europe/Athens"},"lat":40.31659,"lng":22.58817,"population":4191},{"id":251773,"name":"Vouliagméni","timezone":{"dstOffset":3,"gmtOffset":2,"timeZoneId":"Europe/Athens"},"lat":37.81423,"lng":23.77892,"population":4180},{"id":262628,"name":"Eretria","timezone":{"dstOffset":3,"gmtOffset":2,"timeZoneId":"Europe/Athens"},"lat":38.40097,"lng":23.8022,"population":4166},{"id":736029,"name":"Kalochóri","timezone":{"dstOffset":3,"gmtOffset":2,"timeZoneId":"Europe/Athens"},"lat":40.64188,"lng":22.85734,"population":4162},{"id":734187,"name":"Souflí","timezone":{"dstOffset":3,"gmtOffset":2,"timeZoneId":"Europe/Athens"},"lat":41.19194,"lng":26.29944,"population":4149},{"id":735004,"name":"Néa Magnisía","timezone":{"dstOffset":3,"gmtOffset":2,"timeZoneId":"Europe/Athens"},"lat":40.68785,"lng":22.84582,"population":4144},{"id":2463705,"name":"Kanali","timezone":{"dstOffset":3,"gmtOffset":2,"timeZoneId":"Europe/Athens"},"lat":39.60556,"lng":19.8925,"population":4086},{"id":253673,"name":"Schimatari","timezone":{"dstOffset":3,"gmtOffset":2,"timeZoneId":"Europe/Athens"},"lat":38.35,"lng":23.58333,"population":4035},{"id":265189,"name":"Amfilochía","timezone":{"dstOffset":3,"gmtOffset":2,"timeZoneId":"Europe/Athens"},"lat":38.85944,"lng":21.16639,"population":4022},{"id":734447,"name":"Prosotsáni","timezone":{"dstOffset":3,"gmtOffset":2,"timeZoneId":"Europe/Athens"},"lat":41.18333,"lng":23.96667,"population":4021},{"id":736166,"name":"Gouménissa","timezone":{"dstOffset":3,"gmtOffset":2,"timeZoneId":"Europe/Athens"},"lat":40.94604,"lng":22.44974,"population":4010},{"id":258873,"name":"Kranidi","timezone":{"dstOffset":3,"gmtOffset":2,"timeZoneId":"Europe/Athens"},"lat":37.37974,"lng":23.15969,"population":4006},{"id":253356,"name":"Spetses","timezone":{"dstOffset":3,"gmtOffset":2,"timeZoneId":"Europe/Athens"},"lat":37.26191,"lng":23.15943,"population":4001},{"id":262683,"name":"Ano Arhanes","timezone":{"dstOffset":3,"gmtOffset":2,"timeZoneId":"Europe/Athens"},"lat":35.23333,"lng":25.16667,"population":3913},{"id":260420,"name":"Katsikas","timezone":{"dstOffset":3,"gmtOffset":2,"timeZoneId":"Europe/Athens"},"lat":39.62281,"lng":20.88758,"population":3885},{"id":263166,"name":"Deskáti","timezone":{"dstOffset":3,"gmtOffset":2,"timeZoneId":"Europe/Athens"},"lat":39.9225,"lng":21.80278,"population":3856},{"id":256558,"name":"Nemea","timezone":{"dstOffset":3,"gmtOffset":2,"timeZoneId":"Europe/Athens"},"lat":37.82068,"lng":22.66102,"population":3853},{"id":2463594,"name":"Potamos","timezone":{"dstOffset":3,"gmtOffset":2,"timeZoneId":"Europe/Athens"},"lat":39.6242,"lng":19.87826,"population":3840},{"id":257868,"name":"Malesina","timezone":{"dstOffset":3,"gmtOffset":2,"timeZoneId":"Europe/Athens"},"lat":38.62225,"lng":23.2337,"population":3833},{"id":736108,"name":"Irakleia","timezone":{"dstOffset":3,"gmtOffset":2,"timeZoneId":"Europe/Athens"},"lat":41.18217,"lng":23.28243,"population":3786},{"id":735732,"name":"Kýmina","timezone":{"dstOffset":3,"gmtOffset":2,"timeZoneId":"Europe/Athens"},"lat":40.61354,"lng":22.69278,"population":3775},{"id":251823,"name":"Vónitsa","timezone":{"dstOffset":3,"gmtOffset":2,"timeZoneId":"Europe/Athens"},"lat":38.91639,"lng":20.88639,"population":3770},{"id":9036676,"name":"Agia Marina","timezone":{"dstOffset":3,"gmtOffset":2,"timeZoneId":"Europe/Athens"},"lat":37.82036,"lng":23.84424,"population":3765},{"id":258175,"name":"Lixouri","timezone":{"dstOffset":3,"gmtOffset":2,"timeZoneId":"Europe/Athens"},"lat":38.20133,"lng":20.43706,"population":3752},{"id":263257,"name":"Darátsos","timezone":{"dstOffset":3,"gmtOffset":2,"timeZoneId":"Europe/Athens"},"lat":35.49955,"lng":23.97488,"population":3747},{"id":258522,"name":"Lechainá","timezone":{"dstOffset":3,"gmtOffset":2,"timeZoneId":"Europe/Athens"},"lat":37.93333,"lng":21.26667,"population":3714},{"id":736882,"name":"Amyntaio","timezone":{"dstOffset":3,"gmtOffset":2,"timeZoneId":"Europe/Athens"},"lat":40.68967,"lng":21.67974,"population":3671},{"id":254865,"name":"Poros","timezone":{"dstOffset":3,"gmtOffset":2,"timeZoneId":"Europe/Athens"},"lat":37.49944,"lng":23.45361,"population":3651},{"id":265245,"name":"Amarynthos","timezone":{"dstOffset":3,"gmtOffset":2,"timeZoneId":"Europe/Athens"},"lat":38.393,"lng":23.88492,"population":3647},{"id":265056,"name":"Andravída","timezone":{"dstOffset":3,"gmtOffset":2,"timeZoneId":"Europe/Athens"},"lat":37.90588,"lng":21.26936,"population":3626},{"id":259919,"name":"Khóra","timezone":{"dstOffset":3,"gmtOffset":2,"timeZoneId":"Europe/Athens"},"lat":37.05,"lng":21.71667,"population":3591},{"id":735654,"name":"Kolindrós","timezone":{"dstOffset":3,"gmtOffset":2,"timeZoneId":"Europe/Athens"},"lat":40.47888,"lng":22.48319,"population":3590},{"id":736638,"name":"Agia Triada","timezone":{"dstOffset":3,"gmtOffset":2,"timeZoneId":"Europe/Athens"},"lat":40.50003,"lng":22.87351,"population":3580},{"id":262525,"name":"Fálani","timezone":{"dstOffset":3,"gmtOffset":2,"timeZoneId":"Europe/Athens"},"lat":39.71986,"lng":22.39733,"population":3557},{"id":264642,"name":"Arkalochóri","timezone":{"dstOffset":3,"gmtOffset":2,"timeZoneId":"Europe/Athens"},"lat":35.14634,"lng":25.26538,"population":3537},{"id":734994,"name":"Nea Peramos","timezone":{"dstOffset":3,"gmtOffset":2,"timeZoneId":"Europe/Athens"},"lat":40.83854,"lng":24.3013,"population":3514},{"id":736082,"name":"Kalampáki","timezone":{"dstOffset":3,"gmtOffset":2,"timeZoneId":"Europe/Athens"},"lat":41.05,"lng":24.18333,"population":3514},{"id":254258,"name":"Roditsa","timezone":{"dstOffset":3,"gmtOffset":2,"timeZoneId":"Europe/Athens"},"lat":38.88829,"lng":22.4641,"population":3509},{"id":262757,"name":"Μέγα Μπισδούνι","timezone":{"dstOffset":3,"gmtOffset":2,"timeZoneId":"Europe/Athens"},"lat":39.70639,"lng":20.7925,"population":3484},{"id":736296,"name":"Efkarpía","timezone":{"dstOffset":3,"gmtOffset":2,"timeZoneId":"Europe/Athens"},"lat":40.68797,"lng":22.95348,"population":3480},{"id":735764,"name":"Chortiátis","timezone":{"dstOffset":3,"gmtOffset":2,"timeZoneId":"Europe/Athens"},"lat":40.60954,"lng":23.10014,"population":3466},{"id":733802,"name":"Géfyra","timezone":{"dstOffset":3,"gmtOffset":2,"timeZoneId":"Europe/Athens"},"lat":40.73253,"lng":22.6936,"population":3451},{"id":263805,"name":"Agios Nikolaos","timezone":{"dstOffset":3,"gmtOffset":2,"timeZoneId":"Europe/Athens"},"lat":38.42051,"lng":23.64772,"population":3426},{"id":735731,"name":"Kimméria","timezone":{"dstOffset":3,"gmtOffset":2,"timeZoneId":"Europe/Athens"},"lat":41.14788,"lng":24.93869,"population":3424},{"id":736618,"name":"Ágios Athanásios","timezone":{"dstOffset":3,"gmtOffset":2,"timeZoneId":"Europe/Athens"},"lat":41.07463,"lng":24.24545,"population":3419},{"id":735975,"name":"Kardia","timezone":{"dstOffset":3,"gmtOffset":2,"timeZoneId":"Europe/Athens"},"lat":40.46909,"lng":22.99378,"population":3394},{"id":734328,"name":"Sérvia","timezone":{"dstOffset":3,"gmtOffset":2,"timeZoneId":"Europe/Athens"},"lat":40.17972,"lng":21.99444,"population":3390},{"id":733911,"name":"Velventós","timezone":{"dstOffset":3,"gmtOffset":2,"timeZoneId":"Europe/Athens"},"lat":40.25532,"lng":22.07543,"population":3378},{"id":736661,"name":"Axioúpoli","timezone":{"dstOffset":3,"gmtOffset":2,"timeZoneId":"Europe/Athens"},"lat":40.98582,"lng":22.54165,"population":3368},{"id":734256,"name":"Leptokaryá","timezone":{"dstOffset":3,"gmtOffset":2,"timeZoneId":"Europe/Athens"},"lat":40.06032,"lng":22.5612,"population":3366},{"id":735540,"name":"Krinides","timezone":{"dstOffset":3,"gmtOffset":2,"timeZoneId":"Europe/Athens"},"lat":41.01396,"lng":24.29647,"population":3365},{"id":261133,"name":"Kapandríti","timezone":{"dstOffset":3,"gmtOffset":2,"timeZoneId":"Europe/Athens"},"lat":38.21579,"lng":23.87938,"population":3359},{"id":251685,"name":"Vrachati","timezone":{"dstOffset":3,"gmtOffset":2,"timeZoneId":"Europe/Athens"},"lat":37.95895,"lng":22.80573,"population":3338},{"id":255507,"name":"Perivólia","timezone":{"dstOffset":3,"gmtOffset":2,"timeZoneId":"Europe/Athens"},"lat":35.48491,"lng":23.99421,"population":3320},{"id":252291,"name":"Várda","timezone":{"dstOffset":3,"gmtOffset":2,"timeZoneId":"Europe/Athens"},"lat":38.03333,"lng":21.36667,"population":3307},{"id":256428,"name":"Níkaia","timezone":{"dstOffset":3,"gmtOffset":2,"timeZoneId":"Europe/Athens"},"lat":39.56667,"lng":22.46667,"population":3274},{"id":256504,"name":"Oichalía","timezone":{"dstOffset":3,"gmtOffset":2,"timeZoneId":"Europe/Athens"},"lat":39.60827,"lng":21.97996,"population":3271},{"id":736130,"name":"Ierissos","timezone":{"dstOffset":3,"gmtOffset":2,"timeZoneId":"Europe/Athens"},"lat":40.39748,"lng":23.87505,"population":3266},{"id":734094,"name":"Thassos","timezone":{"dstOffset":3,"gmtOffset":2,"timeZoneId":"Europe/Athens"},"lat":40.77806,"lng":24.70944,"population":3234},{"id":735400,"name":"Lití","timezone":{"dstOffset":3,"gmtOffset":2,"timeZoneId":"Europe/Athens"},"lat":40.74533,"lng":22.97982,"population":3226},{"id":10175086,"name":"Kardamitsia","timezone":{"dstOffset":3,"gmtOffset":2,"timeZoneId":"Europe/Athens"},"lat":39.67816,"lng":20.81956,"population":3172},{"id":734939,"name":"Neos Marmaras","timezone":{"dstOffset":3,"gmtOffset":2,"timeZoneId":"Europe/Athens"},"lat":40.0961,"lng":23.78323,"population":3158},{"id":2463800,"name":"Alepou","timezone":{"dstOffset":3,"gmtOffset":2,"timeZoneId":"Europe/Athens"},"lat":39.61594,"lng":19.89564,"population":3149},{"id":735803,"name":"Chalkidóna","timezone":{"dstOffset":3,"gmtOffset":2,"timeZoneId":"Europe/Athens"},"lat":40.73184,"lng":22.59992,"population":3144},{"id":255773,"name":"Paralia Avlidos","timezone":{"dstOffset":3,"gmtOffset":2,"timeZoneId":"Europe/Athens"},"lat":38.38002,"lng":23.62842,"population":3115},{"id":258315,"name":"Limenas Hersonissou","timezone":{"dstOffset":3,"gmtOffset":2,"timeZoneId":"Europe/Athens"},"lat":35.32297,"lng":25.39275,"population":3103},{"id":736039,"name":"Kallithéa","timezone":{"dstOffset":3,"gmtOffset":2,"timeZoneId":"Europe/Athens"},"lat":40.2739,"lng":22.57775,"population":3100},{"id":252062,"name":"Velo","timezone":{"dstOffset":3,"gmtOffset":2,"timeZoneId":"Europe/Athens"},"lat":37.9761,"lng":22.75985,"population":3096},{"id":8718077,"name":"Neon Tsiflikion","timezone":{"dstOffset":3,"gmtOffset":2,"timeZoneId":"Europe/Athens"},"lat":40.53918,"lng":21.25923,"population":3079},{"id":734979,"name":"Néa Tríglia","timezone":{"dstOffset":3,"gmtOffset":2,"timeZoneId":"Europe/Athens"},"lat":40.30575,"lng":23.2066,"population":3071},{"id":252239,"name":"Vartholomió","timezone":{"dstOffset":3,"gmtOffset":2,"timeZoneId":"Europe/Athens"},"lat":37.86667,"lng":21.2,"population":3068},{"id":262969,"name":"Drafi","timezone":{"dstOffset":3,"gmtOffset":2,"timeZoneId":"Europe/Athens"},"lat":38.02375,"lng":23.90788,"population":3055},{"id":735327,"name":"Maniakoi","timezone":{"dstOffset":3,"gmtOffset":2,"timeZoneId":"Europe/Athens"},"lat":40.50064,"lng":21.24446,"population":3055},{"id":252074,"name":"Velestino","timezone":{"dstOffset":3,"gmtOffset":2,"timeZoneId":"Europe/Athens"},"lat":39.38181,"lng":22.74616,"population":3044},{"id":735235,"name":"Melíki","timezone":{"dstOffset":3,"gmtOffset":2,"timeZoneId":"Europe/Athens"},"lat":40.51685,"lng":22.39599,"population":3033},{"id":258500,"name":"Leonídio","timezone":{"dstOffset":3,"gmtOffset":2,"timeZoneId":"Europe/Athens"},"lat":37.16679,"lng":22.85773,"population":3020},{"id":256833,"name":"Moláoi","timezone":{"dstOffset":3,"gmtOffset":2,"timeZoneId":"Europe/Athens"},"lat":36.80757,"lng":22.85132,"population":3018},{"id":265191,"name":"Amfiklia","timezone":{"dstOffset":3,"gmtOffset":2,"timeZoneId":"Europe/Athens"},"lat":38.63912,"lng":22.59171,"population":3012},{"id":734946,"name":"Néo Rýsi","timezone":{"dstOffset":3,"gmtOffset":2,"timeZoneId":"Europe/Athens"},"lat":40.49605,"lng":22.98794,"population":3012},{"id":735521,"name":"Krókos","timezone":{"dstOffset":3,"gmtOffset":2,"timeZoneId":"Europe/Athens"},"lat":40.26349,"lng":21.8176,"population":3004},{"id":254949,"name":"Plomari","timezone":{"dstOffset":3,"gmtOffset":2,"timeZoneId":"Europe/Athens"},"lat":38.97667,"lng":26.36806,"population":2996},{"id":259806,"name":"Kými","timezone":{"dstOffset":3,"gmtOffset":2,"timeZoneId":"Europe/Athens"},"lat":38.63477,"lng":24.10287,"population":2979},{"id":734868,"name":"Ormylia","timezone":{"dstOffset":3,"gmtOffset":2,"timeZoneId":"Europe/Athens"},"lat":40.29451,"lng":23.54332,"population":2979},{"id":10175092,"name":"Eksochi","timezone":{"dstOffset":3,"gmtOffset":2,"timeZoneId":"Europe/Athens"},"lat":39.68744,"lng":20.8224,"population":2975},{"id":735636,"name":"Konitsa","timezone":{"dstOffset":3,"gmtOffset":2,"timeZoneId":"Europe/Athens"},"lat":40.04861,"lng":20.75667,"population":2942},{"id":262426,"name":"Fyli","timezone":{"dstOffset":3,"gmtOffset":2,"timeZoneId":"Europe/Athens"},"lat":38.10235,"lng":23.66901,"population":2937},{"id":258882,"name":"Kraniá Elassónas","timezone":{"dstOffset":3,"gmtOffset":2,"timeZoneId":"Europe/Athens"},"lat":39.95094,"lng":21.97078,"population":2936},{"id":258427,"name":"Lefkimmi","timezone":{"dstOffset":3,"gmtOffset":2,"timeZoneId":"Europe/Athens"},"lat":39.42336,"lng":20.07094,"population":2935},{"id":255945,"name":"Panaitolio","timezone":{"dstOffset":3,"gmtOffset":2,"timeZoneId":"Europe/Athens"},"lat":38.58316,"lng":21.44729,"population":2935},{"id":7324476,"name":"Saronida","timezone":{"dstOffset":3,"gmtOffset":2,"timeZoneId":"Europe/Athens"},"lat":37.74598,"lng":23.9045,"population":2932},{"id":256339,"name":"Oinofyta","timezone":{"dstOffset":3,"gmtOffset":2,"timeZoneId":"Europe/Athens"},"lat":38.31163,"lng":23.64,"population":2927},{"id":253302,"name":"Stamáta","timezone":{"dstOffset":3,"gmtOffset":2,"timeZoneId":"Europe/Athens"},"lat":38.13333,"lng":23.88333,"population":2906},{"id":253581,"name":"Skópelos","timezone":{"dstOffset":3,"gmtOffset":2,"timeZoneId":"Europe/Athens"},"lat":39.12472,"lng":23.72472,"population":2886},{"id":255646,"name":"Pedini","timezone":{"dstOffset":3,"gmtOffset":2,"timeZoneId":"Europe/Athens"},"lat":39.59994,"lng":20.84261,"population":2871},{"id":262609,"name":"Erythres","timezone":{"dstOffset":3,"gmtOffset":2,"timeZoneId":"Europe/Athens"},"lat":38.21741,"lng":23.32234,"population":2862},{"id":736694,"name":"Asproválta","timezone":{"dstOffset":3,"gmtOffset":2,"timeZoneId":"Europe/Athens"},"lat":40.73049,"lng":23.7118,"population":2838},{"id":734938,"name":"Néos Mylótopos","timezone":{"dstOffset":3,"gmtOffset":2,"timeZoneId":"Europe/Athens"},"lat":40.81872,"lng":22.3549,"population":2835},{"id":260572,"name":"Katochi","timezone":{"dstOffset":3,"gmtOffset":2,"timeZoneId":"Europe/Athens"},"lat":38.41237,"lng":21.25258,"population":2829},{"id":256520,"name":"Neochori","timezone":{"dstOffset":3,"gmtOffset":2,"timeZoneId":"Europe/Athens"},"lat":38.40847,"lng":21.27511,"population":2827},{"id":264283,"name":"Agiá","timezone":{"dstOffset":3,"gmtOffset":2,"timeZoneId":"Europe/Athens"},"lat":39.71901,"lng":22.75869,"population":2827},{"id":253739,"name":"Skála","timezone":{"dstOffset":3,"gmtOffset":2,"timeZoneId":"Europe/Athens"},"lat":36.85,"lng":22.66667,"population":2817},{"id":258744,"name":"Krousón","timezone":{"dstOffset":3,"gmtOffset":2,"timeZoneId":"Europe/Athens"},"lat":35.23062,"lng":24.98291,"population":2811},{"id":256589,"name":"Neapoli","timezone":{"dstOffset":3,"gmtOffset":2,"timeZoneId":"Europe/Athens"},"lat":35.25627,"lng":25.60415,"population":2809},{"id":261681,"name":"Kainourgio","timezone":{"dstOffset":3,"gmtOffset":2,"timeZoneId":"Europe/Athens"},"lat":38.60453,"lng":21.48776,"population":2790},{"id":256606,"name":"Nea Kios","timezone":{"dstOffset":3,"gmtOffset":2,"timeZoneId":"Europe/Athens"},"lat":37.59023,"lng":22.74342,"population":2778},{"id":735948,"name":"Kassandreia","timezone":{"dstOffset":3,"gmtOffset":2,"timeZoneId":"Europe/Athens"},"lat":40.04835,"lng":23.41362,"population":2775},{"id":261211,"name":"Kamena Vourla","timezone":{"dstOffset":3,"gmtOffset":2,"timeZoneId":"Europe/Athens"},"lat":38.77844,"lng":22.78573,"population":2761},{"id":260473,"name":"Káto Tithoréa","timezone":{"dstOffset":3,"gmtOffset":2,"timeZoneId":"Europe/Athens"},"lat":38.60751,"lng":22.71348,"population":2753},{"id":734198,"name":"Sochós","timezone":{"dstOffset":3,"gmtOffset":2,"timeZoneId":"Europe/Athens"},"lat":40.81788,"lng":23.35546,"population":2748},{"id":264221,"name":"Agía Marína","timezone":{"dstOffset":3,"gmtOffset":2,"timeZoneId":"Europe/Athens"},"lat":37.1543,"lng":26.85162,"population":2743},{"id":736886,"name":"Amygdaleonas","timezone":{"dstOffset":3,"gmtOffset":2,"timeZoneId":"Europe/Athens"},"lat":40.96346,"lng":24.36007,"population":2724},{"id":256593,"name":"Nea Palatia","timezone":{"dstOffset":3,"gmtOffset":2,"timeZoneId":"Europe/Athens"},"lat":38.31942,"lng":23.79649,"population":2723},{"id":735769,"name":"Choristí","timezone":{"dstOffset":3,"gmtOffset":2,"timeZoneId":"Europe/Athens"},"lat":41.13056,"lng":24.20843,"population":2719},{"id":256173,"name":"Palaia Fokaia","timezone":{"dstOffset":3,"gmtOffset":2,"timeZoneId":"Europe/Athens"},"lat":37.71998,"lng":23.94792,"population":2713},{"id":734916,"name":"Nikiti","timezone":{"dstOffset":3,"gmtOffset":2,"timeZoneId":"Europe/Athens"},"lat":40.22204,"lng":23.66837,"population":2711},{"id":6692659,"name":"Nikiti","timezone":{"dstOffset":3,"gmtOffset":2,"timeZoneId":"Europe/Athens"},"lat":40.22116,"lng":23.66661,"population":2711},{"id":444350,"name":"Zipárion","timezone":{"dstOffset":3,"gmtOffset":2,"timeZoneId":"Europe/Athens"},"lat":36.875,"lng":27.20417,"population":2706},{"id":10235571,"name":"Plaka Dilesi","timezone":{"dstOffset":3,"gmtOffset":2,"timeZoneId":"Europe/Athens"},"lat":38.3495,"lng":23.65056,"population":2696},{"id":253360,"name":"Spercheiáda","timezone":{"dstOffset":3,"gmtOffset":2,"timeZoneId":"Europe/Athens"},"lat":38.90656,"lng":22.12792,"population":2691},{"id":734978,"name":"Néa Výssa","timezone":{"dstOffset":3,"gmtOffset":2,"timeZoneId":"Europe/Athens"},"lat":41.58449,"lng":26.54318,"population":2673},{"id":733818,"name":"Xiropótamos","timezone":{"dstOffset":3,"gmtOffset":2,"timeZoneId":"Europe/Athens"},"lat":41.19206,"lng":24.10385,"population":2670},{"id":254917,"name":"Polichnítos","timezone":{"dstOffset":3,"gmtOffset":2,"timeZoneId":"Europe/Athens"},"lat":39.08111,"lng":26.18333,"population":2667},{"id":264714,"name":"Arachova","timezone":{"dstOffset":3,"gmtOffset":2,"timeZoneId":"Europe/Athens"},"lat":38.48333,"lng":22.58333,"population":2657},{"id":735390,"name":"Livádi","timezone":{"dstOffset":3,"gmtOffset":2,"timeZoneId":"Europe/Athens"},"lat":40.12625,"lng":22.15753,"population":2655},{"id":735472,"name":"Lagyná","timezone":{"dstOffset":3,"gmtOffset":2,"timeZoneId":"Europe/Athens"},"lat":40.72351,"lng":23.0042,"population":2649},{"id":258521,"name":"Lechaio","timezone":{"dstOffset":3,"gmtOffset":2,"timeZoneId":"Europe/Athens"},"lat":37.93279,"lng":22.85002,"population":2643},{"id":865238,"name":"Eirinoúpoli","timezone":{"dstOffset":3,"gmtOffset":2,"timeZoneId":"Europe/Athens"},"lat":40.67806,"lng":22.19278,"population":2635},{"id":256653,"name":"Náousa","timezone":{"dstOffset":3,"gmtOffset":2,"timeZoneId":"Europe/Athens"},"lat":37.11667,"lng":25.23333,"population":2596},{"id":735264,"name":"Megali Panagia","timezone":{"dstOffset":3,"gmtOffset":2,"timeZoneId":"Europe/Athens"},"lat":40.44505,"lng":23.67999,"population":2592},{"id":256054,"name":"Pálairos","timezone":{"dstOffset":3,"gmtOffset":2,"timeZoneId":"Europe/Athens"},"lat":38.78333,"lng":20.88333,"population":2589},{"id":736137,"name":"Iasmos","timezone":{"dstOffset":3,"gmtOffset":2,"timeZoneId":"Europe/Athens"},"lat":41.12747,"lng":25.18573,"population":2586},{"id":736859,"name":"Anatolikó","timezone":{"dstOffset":3,"gmtOffset":2,"timeZoneId":"Europe/Athens"},"lat":40.66152,"lng":22.7119,"population":2583},{"id":251681,"name":"Vrachnaiika","timezone":{"dstOffset":3,"gmtOffset":2,"timeZoneId":"Europe/Athens"},"lat":38.16253,"lng":21.66693,"population":2571},{"id":264416,"name":"Astakós","timezone":{"dstOffset":3,"gmtOffset":2,"timeZoneId":"Europe/Athens"},"lat":38.53556,"lng":21.08135,"population":2569},{"id":255760,"name":"Paramythiá","timezone":{"dstOffset":3,"gmtOffset":2,"timeZoneId":"Europe/Athens"},"lat":39.47111,"lng":20.51111,"population":2568},{"id":254257,"name":"Rododafni","timezone":{"dstOffset":3,"gmtOffset":2,"timeZoneId":"Europe/Athens"},"lat":38.26976,"lng":22.04875,"population":2564},{"id":258075,"name":"Loutra Aidipsou","timezone":{"dstOffset":3,"gmtOffset":2,"timeZoneId":"Europe/Athens"},"lat":38.85695,"lng":23.04739,"population":2560},{"id":258182,"name":"Livanates","timezone":{"dstOffset":3,"gmtOffset":2,"timeZoneId":"Europe/Athens"},"lat":38.711,"lng":23.0503,"population":2559},{"id":8989471,"name":"Nea Vrasna","timezone":{"dstOffset":3,"gmtOffset":2,"timeZoneId":"Europe/Athens"},"lat":40.70592,"lng":23.6985,"population":2556},{"id":257669,"name":"Markópoulo Oropoú","timezone":{"dstOffset":3,"gmtOffset":2,"timeZoneId":"Europe/Athens"},"lat":38.2898,"lng":23.82475,"population":2549},{"id":264806,"name":"Anógeia","timezone":{"dstOffset":3,"gmtOffset":2,"timeZoneId":"Europe/Athens"},"lat":35.29084,"lng":24.88412,"population":2545},{"id":736207,"name":"Galatista","timezone":{"dstOffset":3,"gmtOffset":2,"timeZoneId":"Europe/Athens"},"lat":40.4682,"lng":23.28015,"population":2537},{"id":734977,"name":"Nea Zichni","timezone":{"dstOffset":3,"gmtOffset":2,"timeZoneId":"Europe/Athens"},"lat":41.03204,"lng":23.8287,"population":2530},{"id":260308,"name":"Kéfalos","timezone":{"dstOffset":3,"gmtOffset":2,"timeZoneId":"Europe/Athens"},"lat":36.74528,"lng":26.95889,"population":2528},{"id":252523,"name":"Tsarítsani","timezone":{"dstOffset":3,"gmtOffset":2,"timeZoneId":"Europe/Athens"},"lat":39.88117,"lng":22.22758,"population":2514},{"id":254030,"name":"Selinia","timezone":{"dstOffset":3,"gmtOffset":2,"timeZoneId":"Europe/Athens"},"lat":37.9332,"lng":23.53147,"population":2509},{"id":262607,"name":"Ermioni","timezone":{"dstOffset":3,"gmtOffset":2,"timeZoneId":"Europe/Athens"},"lat":37.3869,"lng":23.24423,"population":2505},{"id":257083,"name":"Metsovo","timezone":{"dstOffset":3,"gmtOffset":2,"timeZoneId":"Europe/Athens"},"lat":39.76944,"lng":21.18222,"population":2503},{"id":253242,"name":"Stavros","timezone":{"dstOffset":3,"gmtOffset":2,"timeZoneId":"Europe/Athens"},"lat":38.89641,"lng":22.37082,"population":2489},{"id":6692697,"name":"Georgioupolis","timezone":{"dstOffset":3,"gmtOffset":2,"timeZoneId":"Europe/Athens"},"lat":35.36225,"lng":24.26013,"population":2483},{"id":258377,"name":"Lygourio","timezone":{"dstOffset":3,"gmtOffset":2,"timeZoneId":"Europe/Athens"},"lat":37.61233,"lng":23.03773,"population":2482},{"id":734726,"name":"Pella","timezone":{"dstOffset":3,"gmtOffset":2,"timeZoneId":"Europe/Athens"},"lat":40.76169,"lng":22.52637,"population":2476},{"id":735003,"name":"Néa Málgara","timezone":{"dstOffset":3,"gmtOffset":2,"timeZoneId":"Europe/Athens"},"lat":40.60985,"lng":22.68196,"population":2476},{"id":263853,"name":"Agios Konstantinos","timezone":{"dstOffset":3,"gmtOffset":2,"timeZoneId":"Europe/Athens"},"lat":38.75612,"lng":22.85757,"population":2471},{"id":735418,"name":"Limenaria","timezone":{"dstOffset":3,"gmtOffset":2,"timeZoneId":"Europe/Athens"},"lat":40.62741,"lng":24.5765,"population":2471},{"id":736210,"name":"Galatádes","timezone":{"dstOffset":3,"gmtOffset":2,"timeZoneId":"Europe/Athens"},"lat":40.7559,"lng":22.28062,"population":2459},{"id":734698,"name":"Perístasi","timezone":{"dstOffset":3,"gmtOffset":2,"timeZoneId":"Europe/Athens"},"lat":40.27443,"lng":22.54164,"population":2454},{"id":261167,"name":"Kanaláki","timezone":{"dstOffset":3,"gmtOffset":2,"timeZoneId":"Europe/Athens"},"lat":39.23361,"lng":20.6,"population":2446},{"id":255301,"name":"Pylíon","timezone":{"dstOffset":3,"gmtOffset":2,"timeZoneId":"Europe/Athens"},"lat":36.84778,"lng":27.16139,"population":2430},{"id":735959,"name":"Simantra","timezone":{"dstOffset":3,"gmtOffset":2,"timeZoneId":"Europe/Athens"},"lat":40.34563,"lng":23.31026,"population":2421},{"id":252747,"name":"Traganón","timezone":{"dstOffset":3,"gmtOffset":2,"timeZoneId":"Europe/Athens"},"lat":37.89789,"lng":21.31245,"population":2414},{"id":736692,"name":"Ássiros","timezone":{"dstOffset":3,"gmtOffset":2,"timeZoneId":"Europe/Athens"},"lat":40.82143,"lng":23.03008,"population":2409},{"id":251896,"name":"Vlakhiótis","timezone":{"dstOffset":3,"gmtOffset":2,"timeZoneId":"Europe/Athens"},"lat":36.86667,"lng":22.7,"population":2404},{"id":734943,"name":"Neo Souli","timezone":{"dstOffset":3,"gmtOffset":2,"timeZoneId":"Europe/Athens"},"lat":41.09397,"lng":23.64376,"population":2399},{"id":735444,"name":"Lefkonas","timezone":{"dstOffset":3,"gmtOffset":2,"timeZoneId":"Europe/Athens"},"lat":41.10029,"lng":23.49658,"population":2388},{"id":252164,"name":"Vathy","timezone":{"dstOffset":3,"gmtOffset":2,"timeZoneId":"Europe/Athens"},"lat":38.4049,"lng":23.60332,"population":2385},{"id":251292,"name":"Zagorá","timezone":{"dstOffset":3,"gmtOffset":2,"timeZoneId":"Europe/Athens"},"lat":39.45,"lng":23.1,"population":2385},{"id":255736,"name":"Parga","timezone":{"dstOffset":3,"gmtOffset":2,"timeZoneId":"Europe/Athens"},"lat":39.28572,"lng":20.40044,"population":2379},{"id":262144,"name":"Galatás","timezone":{"dstOffset":3,"gmtOffset":2,"timeZoneId":"Europe/Athens"},"lat":35.49864,"lng":23.96341,"population":2377},{"id":252920,"name":"Fira","timezone":{"dstOffset":3,"gmtOffset":2,"timeZoneId":"Europe/Athens"},"lat":36.42107,"lng":25.43087,"population":2376},{"id":263219,"name":"Delphi","timezone":{"dstOffset":3,"gmtOffset":2,"timeZoneId":"Europe/Athens"},"lat":38.47995,"lng":22.49336,"population":2373},{"id":256131,"name":"Paleochora","timezone":{"dstOffset":3,"gmtOffset":2,"timeZoneId":"Europe/Athens"},"lat":35.23333,"lng":23.68333,"population":2372},{"id":262776,"name":"Elateia","timezone":{"dstOffset":3,"gmtOffset":2,"timeZoneId":"Europe/Athens"},"lat":38.6277,"lng":22.76492,"population":2372},{"id":253858,"name":"Symi","timezone":{"dstOffset":3,"gmtOffset":2,"timeZoneId":"Europe/Athens"},"lat":36.61246,"lng":27.8378,"population":2354},{"id":735002,"name":"Néa Mesimvría","timezone":{"dstOffset":3,"gmtOffset":2,"timeZoneId":"Europe/Athens"},"lat":40.75158,"lng":22.76904,"population":2349},{"id":264146,"name":"Agiásos","timezone":{"dstOffset":3,"gmtOffset":2,"timeZoneId":"Europe/Athens"},"lat":39.085,"lng":26.37,"population":2320},{"id":253871,"name":"Sykoúrio","timezone":{"dstOffset":3,"gmtOffset":2,"timeZoneId":"Europe/Athens"},"lat":39.75947,"lng":22.58,"population":2318},{"id":736288,"name":"Evropós","timezone":{"dstOffset":3,"gmtOffset":2,"timeZoneId":"Europe/Athens"},"lat":40.89703,"lng":22.55277,"population":2314},{"id":737002,"name":"Ádendro","timezone":{"dstOffset":3,"gmtOffset":2,"timeZoneId":"Europe/Athens"},"lat":40.67132,"lng":22.60466,"population":2312},{"id":736733,"name":"Arnaia","timezone":{"dstOffset":3,"gmtOffset":2,"timeZoneId":"Europe/Athens"},"lat":40.48652,"lng":23.59537,"population":2300},{"id":734405,"name":"Péfka","timezone":{"dstOffset":3,"gmtOffset":2,"timeZoneId":"Europe/Athens"},"lat":40.65806,"lng":22.99378,"population":2288},{"id":262563,"name":"Efxeinoupoli","timezone":{"dstOffset":3,"gmtOffset":2,"timeZoneId":"Europe/Athens"},"lat":39.18414,"lng":22.73831,"population":2281},{"id":265078,"name":"Antimácheia","timezone":{"dstOffset":3,"gmtOffset":2,"timeZoneId":"Europe/Athens"},"lat":36.81083,"lng":27.09972,"population":2251},{"id":257975,"name":"Makrakomi","timezone":{"dstOffset":3,"gmtOffset":2,"timeZoneId":"Europe/Athens"},"lat":38.9415,"lng":22.11535,"population":2245},{"id":260895,"name":"Karpathos","timezone":{"dstOffset":3,"gmtOffset":2,"timeZoneId":"Europe/Athens"},"lat":35.50701,"lng":27.21322,"population":2243},{"id":734919,"name":"Nikisiani","timezone":{"dstOffset":3,"gmtOffset":2,"timeZoneId":"Europe/Athens"},"lat":40.94739,"lng":24.14311,"population":2236},{"id":260468,"name":"Katoúna","timezone":{"dstOffset":3,"gmtOffset":2,"timeZoneId":"Europe/Athens"},"lat":38.78333,"lng":21.11667,"population":2234},{"id":734575,"name":"Platý","timezone":{"dstOffset":3,"gmtOffset":2,"timeZoneId":"Europe/Athens"},"lat":40.64241,"lng":22.53458,"population":2228},{"id":259730,"name":"Kyriáki","timezone":{"dstOffset":3,"gmtOffset":2,"timeZoneId":"Europe/Athens"},"lat":38.35,"lng":22.78333,"population":2227},{"id":735960,"name":"Karítsa","timezone":{"dstOffset":3,"gmtOffset":2,"timeZoneId":"Europe/Athens"},"lat":40.18745,"lng":22.4817,"population":2225},{"id":264396,"name":"Ástros","timezone":{"dstOffset":3,"gmtOffset":2,"timeZoneId":"Europe/Athens"},"lat":37.40317,"lng":22.7303,"population":2222},{"id":256596,"name":"Néa Manolás","timezone":{"dstOffset":3,"gmtOffset":2,"timeZoneId":"Europe/Athens"},"lat":38.05,"lng":21.38333,"population":2219},{"id":733933,"name":"Vathýlakkos","timezone":{"dstOffset":3,"gmtOffset":2,"timeZoneId":"Europe/Athens"},"lat":40.76942,"lng":22.7088,"population":2218},{"id":251250,"name":"Zarós","timezone":{"dstOffset":3,"gmtOffset":2,"timeZoneId":"Europe/Athens"},"lat":35.1303,"lng":24.90412,"population":2205},{"id":735630,"name":"Kopanós","timezone":{"dstOffset":3,"gmtOffset":2,"timeZoneId":"Europe/Athens"},"lat":40.63382,"lng":22.12893,"population":2202},{"id":260987,"name":"Karditsomagoúla","timezone":{"dstOffset":3,"gmtOffset":2,"timeZoneId":"Europe/Athens"},"lat":39.39061,"lng":21.9233,"population":2200},{"id":256603,"name":"Nea Lampsakos","timezone":{"dstOffset":3,"gmtOffset":2,"timeZoneId":"Europe/Athens"},"lat":38.43729,"lng":23.62824,"population":2196},{"id":733842,"name":"Vrontoú","timezone":{"dstOffset":3,"gmtOffset":2,"timeZoneId":"Europe/Athens"},"lat":40.19356,"lng":22.43203,"population":2196},{"id":262143,"name":"Galatas","timezone":{"dstOffset":3,"gmtOffset":2,"timeZoneId":"Europe/Athens"},"lat":37.49618,"lng":23.44886,"population":2195},{"id":264181,"name":"Ayía Paraskeví","timezone":{"dstOffset":3,"gmtOffset":2,"timeZoneId":"Europe/Athens"},"lat":39.24806,"lng":26.27167,"population":2195},{"id":734791,"name":"Palaio Tsifliki","timezone":{"dstOffset":3,"gmtOffset":2,"timeZoneId":"Europe/Athens"},"lat":40.90495,"lng":24.35083,"population":2195},{"id":262701,"name":"Elounda","timezone":{"dstOffset":3,"gmtOffset":2,"timeZoneId":"Europe/Athens"},"lat":35.265,"lng":25.72127,"population":2185},{"id":734102,"name":"Terpni","timezone":{"dstOffset":3,"gmtOffset":2,"timeZoneId":"Europe/Athens"},"lat":40.91643,"lng":23.48137,"population":2169},{"id":264114,"name":"Agía Varvára","timezone":{"dstOffset":3,"gmtOffset":2,"timeZoneId":"Europe/Athens"},"lat":35.13715,"lng":25.00131,"population":2167},{"id":736354,"name":"Echínos","timezone":{"dstOffset":3,"gmtOffset":2,"timeZoneId":"Europe/Athens"},"lat":41.27558,"lng":24.97237,"population":2162},{"id":735014,"name":"Nea Karvali","timezone":{"dstOffset":3,"gmtOffset":2,"timeZoneId":"Europe/Athens"},"lat":40.96148,"lng":24.51132,"population":2160},{"id":734213,"name":"Skoutari","timezone":{"dstOffset":3,"gmtOffset":2,"timeZoneId":"Europe/Athens"},"lat":41.01871,"lng":23.51971,"population":2154},{"id":259452,"name":"Kompóti","timezone":{"dstOffset":3,"gmtOffset":2,"timeZoneId":"Europe/Athens"},"lat":39.10255,"lng":21.08389,"population":2150},{"id":260478,"name":"Kato Souli","timezone":{"dstOffset":3,"gmtOffset":2,"timeZoneId":"Europe/Athens"},"lat":38.16803,"lng":24.01628,"population":2142},{"id":8740260,"name":"Anthousa","timezone":{"dstOffset":3,"gmtOffset":2,"timeZoneId":"Europe/Athens"},"lat":38.02544,"lng":23.87617,"population":2132},{"id":262420,"name":"Filiátes","timezone":{"dstOffset":3,"gmtOffset":2,"timeZoneId":"Europe/Athens"},"lat":39.60111,"lng":20.31194,"population":2129},{"id":256662,"name":"Mouzaki","timezone":{"dstOffset":3,"gmtOffset":2,"timeZoneId":"Europe/Athens"},"lat":39.42972,"lng":21.66361,"population":2127},{"id":736921,"name":"Alistrati","timezone":{"dstOffset":3,"gmtOffset":2,"timeZoneId":"Europe/Athens"},"lat":41.06443,"lng":23.95751,"population":2127},{"id":259750,"name":"Kypseli","timezone":{"dstOffset":3,"gmtOffset":2,"timeZoneId":"Europe/Athens"},"lat":37.76021,"lng":23.45448,"population":2124},{"id":256944,"name":"Mintilogli","timezone":{"dstOffset":3,"gmtOffset":2,"timeZoneId":"Europe/Athens"},"lat":38.18387,"lng":21.70133,"population":2120},{"id":736971,"name":"Aianí","timezone":{"dstOffset":3,"gmtOffset":2,"timeZoneId":"Europe/Athens"},"lat":40.16381,"lng":21.81945,"population":2119},{"id":261996,"name":"Gónnoi","timezone":{"dstOffset":3,"gmtOffset":2,"timeZoneId":"Europe/Athens"},"lat":39.86153,"lng":22.47647,"population":2113},{"id":9036774,"name":"Dióni","timezone":{"dstOffset":3,"gmtOffset":2,"timeZoneId":"Europe/Athens"},"lat":38.02328,"lng":23.93286,"population":2111},{"id":734722,"name":"Pentálofos","timezone":{"dstOffset":3,"gmtOffset":2,"timeZoneId":"Europe/Athens"},"lat":40.74296,"lng":22.85256,"population":2107},{"id":256509,"name":"Neochóri","timezone":{"dstOffset":3,"gmtOffset":2,"timeZoneId":"Europe/Athens"},"lat":39.07025,"lng":21.01892,"population":2102},{"id":735178,"name":"Mesopotamia","timezone":{"dstOffset":3,"gmtOffset":2,"timeZoneId":"Europe/Athens"},"lat":40.50252,"lng":21.1611,"population":2099},{"id":259745,"name":"Kypseli","timezone":{"dstOffset":3,"gmtOffset":2,"timeZoneId":"Europe/Athens"},"lat":38.00288,"lng":23.73755,"population":2096},{"id":260128,"name":"Chalkoutsi","timezone":{"dstOffset":3,"gmtOffset":2,"timeZoneId":"Europe/Athens"},"lat":38.33263,"lng":23.73188,"population":2094},{"id":258497,"name":"Lepenou","timezone":{"dstOffset":3,"gmtOffset":2,"timeZoneId":"Europe/Athens"},"lat":38.70839,"lng":21.2897,"population":2090},{"id":735638,"name":"Kontariótissa","timezone":{"dstOffset":3,"gmtOffset":2,"timeZoneId":"Europe/Athens"},"lat":40.22754,"lng":22.461,"population":2088},{"id":736208,"name":"Galatiní","timezone":{"dstOffset":3,"gmtOffset":2,"timeZoneId":"Europe/Athens"},"lat":40.31966,"lng":21.55148,"population":2085},{"id":264662,"name":"Aria","timezone":{"dstOffset":3,"gmtOffset":2,"timeZoneId":"Europe/Athens"},"lat":37.57372,"lng":22.83539,"population":2080},{"id":263535,"name":"Rodopoli","timezone":{"dstOffset":3,"gmtOffset":2,"timeZoneId":"Europe/Athens"},"lat":38.11667,"lng":23.88333,"population":2078},{"id":258306,"name":"Límni","timezone":{"dstOffset":3,"gmtOffset":2,"timeZoneId":"Europe/Athens"},"lat":38.76667,"lng":23.31667,"population":2072},{"id":734377,"name":"Rodolivos","timezone":{"dstOffset":3,"gmtOffset":2,"timeZoneId":"Europe/Athens"},"lat":40.92055,"lng":23.97489,"population":2072},{"id":734120,"name":"Svorónos","timezone":{"dstOffset":3,"gmtOffset":2,"timeZoneId":"Europe/Athens"},"lat":40.26805,"lng":22.46366,"population":2066},{"id":736386,"name":"Drymós","timezone":{"dstOffset":3,"gmtOffset":2,"timeZoneId":"Europe/Athens"},"lat":40.78098,"lng":22.95889,"population":2060},{"id":263646,"name":"Áyios Yeóryios","timezone":{"dstOffset":3,"gmtOffset":2,"timeZoneId":"Europe/Athens"},"lat":38.4,"lng":22.93333,"population":2045},{"id":258091,"name":"Loúros","timezone":{"dstOffset":3,"gmtOffset":2,"timeZoneId":"Europe/Athens"},"lat":39.166,"lng":20.75608,"population":2033},{"id":734061,"name":"Tycheró","timezone":{"dstOffset":3,"gmtOffset":2,"timeZoneId":"Europe/Athens"},"lat":41.02878,"lng":26.29456,"population":2029},{"id":735856,"name":"Kavalári","timezone":{"dstOffset":3,"gmtOffset":2,"timeZoneId":"Europe/Athens"},"lat":40.71539,"lng":23.04588,"population":2025},{"id":261772,"name":"Íos","timezone":{"dstOffset":3,"gmtOffset":2,"timeZoneId":"Europe/Athens"},"lat":36.73333,"lng":25.28333,"population":2024},{"id":735651,"name":"Kolchikó","timezone":{"dstOffset":3,"gmtOffset":2,"timeZoneId":"Europe/Athens"},"lat":40.75662,"lng":23.13377,"population":2010},{"id":255319,"name":"Pikermi","timezone":{"dstOffset":3,"gmtOffset":2,"timeZoneId":"Europe/Athens"},"lat":38.00161,"lng":23.94075,"population":2009},{"id":735348,"name":"Makrýgialos","timezone":{"dstOffset":3,"gmtOffset":2,"timeZoneId":"Europe/Athens"},"lat":40.41552,"lng":22.60392,"population":2009},{"id":251317,"name":"Gymno","timezone":{"dstOffset":3,"gmtOffset":2,"timeZoneId":"Europe/Athens"},"lat":38.44048,"lng":23.884,"population":2008},{"id":735023,"name":"Néa Éfesos","timezone":{"dstOffset":3,"gmtOffset":2,"timeZoneId":"Europe/Athens"},"lat":40.22923,"lng":22.49811,"population":2006},{"id":735231,"name":"Melissochóri","timezone":{"dstOffset":3,"gmtOffset":2,"timeZoneId":"Europe/Athens"},"lat":40.76796,"lng":22.92858,"population":2002},{"id":736316,"name":"Episkopí","timezone":{"dstOffset":3,"gmtOffset":2,"timeZoneId":"Europe/Athens"},"lat":40.68748,"lng":22.1364,"population":1990},{"id":734664,"name":"Petroússa","timezone":{"dstOffset":3,"gmtOffset":2,"timeZoneId":"Europe/Athens"},"lat":41.1947,"lng":24.01731,"population":1985},{"id":256865,"name":"Mytilinioi","timezone":{"dstOffset":3,"gmtOffset":2,"timeZoneId":"Europe/Athens"},"lat":37.72716,"lng":26.90747,"population":1982},{"id":263098,"name":"Dilesi","timezone":{"dstOffset":3,"gmtOffset":2,"timeZoneId":"Europe/Athens"},"lat":38.33762,"lng":23.67077,"population":1976},{"id":256824,"name":"Molos","timezone":{"dstOffset":3,"gmtOffset":2,"timeZoneId":"Europe/Athens"},"lat":38.80998,"lng":22.64544,"population":1974},{"id":253218,"name":"Stefanovikeio","timezone":{"dstOffset":3,"gmtOffset":2,"timeZoneId":"Europe/Athens"},"lat":39.46354,"lng":22.74198,"population":1970},{"id":253666,"name":"Skhísma","timezone":{"dstOffset":3,"gmtOffset":2,"timeZoneId":"Europe/Athens"},"lat":35.26128,"lng":25.72341,"population":1968},{"id":9960216,"name":"Paralia Vergas","timezone":{"dstOffset":3,"gmtOffset":2,"timeZoneId":"Europe/Athens"},"lat":37.00708,"lng":22.15676,"population":1966},{"id":735961,"name":"Karyótissa","timezone":{"dstOffset":3,"gmtOffset":2,"timeZoneId":"Europe/Athens"},"lat":40.76916,"lng":22.31331,"population":1965},{"id":252946,"name":"Thérmo","timezone":{"dstOffset":3,"gmtOffset":2,"timeZoneId":"Europe/Athens"},"lat":38.58333,"lng":21.66667,"population":1957},{"id":258672,"name":"Lakkíon","timezone":{"dstOffset":3,"gmtOffset":2,"timeZoneId":"Europe/Athens"},"lat":37.13333,"lng":26.85,"population":1956},{"id":735872,"name":"Kato Scholari","timezone":{"dstOffset":3,"gmtOffset":2,"timeZoneId":"Europe/Athens"},"lat":40.42906,"lng":23.02978,"population":1954},{"id":262636,"name":"Epitálion","timezone":{"dstOffset":3,"gmtOffset":2,"timeZoneId":"Europe/Athens"},"lat":37.63333,"lng":21.5,"population":1953},{"id":735025,"name":"Néa Apollonía","timezone":{"dstOffset":3,"gmtOffset":2,"timeZoneId":"Europe/Athens"},"lat":40.62558,"lng":23.44074,"population":1953},{"id":255458,"name":"Péta","timezone":{"dstOffset":3,"gmtOffset":2,"timeZoneId":"Europe/Athens"},"lat":39.16667,"lng":21.03472,"population":1952},{"id":262696,"name":"Emporeío","timezone":{"dstOffset":3,"gmtOffset":2,"timeZoneId":"Europe/Athens"},"lat":36.35813,"lng":25.44393,"population":1946},{"id":735021,"name":"Nea Fokaia","timezone":{"dstOffset":3,"gmtOffset":2,"timeZoneId":"Europe/Athens"},"lat":40.13333,"lng":23.39754,"population":1944},{"id":264638,"name":"Ancient Corinth","timezone":{"dstOffset":3,"gmtOffset":2,"timeZoneId":"Europe/Athens"},"lat":37.90953,"lng":22.88353,"population":1939},{"id":733798,"name":"Genisséa","timezone":{"dstOffset":3,"gmtOffset":2,"timeZoneId":"Europe/Athens"},"lat":41.06667,"lng":24.96667,"population":1935},{"id":734935,"name":"Neos Skopos","timezone":{"dstOffset":3,"gmtOffset":2,"timeZoneId":"Europe/Athens"},"lat":41.0239,"lng":23.60927,"population":1934},{"id":734947,"name":"Neo Petritsi","timezone":{"dstOffset":3,"gmtOffset":2,"timeZoneId":"Europe/Athens"},"lat":41.27459,"lng":23.29381,"population":1932},{"id":261080,"name":"Pefkochori","timezone":{"dstOffset":3,"gmtOffset":2,"timeZoneId":"Europe/Athens"},"lat":39.98784,"lng":23.61219,"population":1931},{"id":261003,"name":"Kardamena","timezone":{"dstOffset":3,"gmtOffset":2,"timeZoneId":"Europe/Athens"},"lat":36.78139,"lng":27.1425,"population":1926},{"id":257621,"name":"Martino","timezone":{"dstOffset":3,"gmtOffset":2,"timeZoneId":"Europe/Athens"},"lat":38.56817,"lng":23.21458,"population":1916},{"id":264421,"name":"Assos","timezone":{"dstOffset":3,"gmtOffset":2,"timeZoneId":"Europe/Athens"},"lat":37.93955,"lng":22.82223,"population":1916},{"id":263870,"name":"Ágios Kírykos","timezone":{"dstOffset":3,"gmtOffset":2,"timeZoneId":"Europe/Athens"},"lat":37.61472,"lng":26.29444,"population":1908},{"id":265658,"name":"Afidnes","timezone":{"dstOffset":3,"gmtOffset":2,"timeZoneId":"Europe/Athens"},"lat":38.20332,"lng":23.83982,"population":1908},{"id":264094,"name":"Agioi Apostoloi","timezone":{"dstOffset":3,"gmtOffset":2,"timeZoneId":"Europe/Athens"},"lat":38.29169,"lng":23.91011,"population":1904},{"id":734299,"name":"Sykia","timezone":{"dstOffset":3,"gmtOffset":2,"timeZoneId":"Europe/Athens"},"lat":40.03874,"lng":23.94046,"population":1903},{"id":257923,"name":"Makrísia","timezone":{"dstOffset":3,"gmtOffset":2,"timeZoneId":"Europe/Athens"},"lat":37.60957,"lng":21.60509,"population":1902},{"id":261822,"name":"Hydra","timezone":{"dstOffset":3,"gmtOffset":2,"timeZoneId":"Europe/Athens"},"lat":37.34976,"lng":23.4656,"population":1900},{"id":262159,"name":"Gaitani","timezone":{"dstOffset":3,"gmtOffset":2,"timeZoneId":"Europe/Athens"},"lat":37.79134,"lng":20.87407,"population":1899},{"id":254990,"name":"Platýkampos","timezone":{"dstOffset":3,"gmtOffset":2,"timeZoneId":"Europe/Athens"},"lat":39.61667,"lng":22.53333,"population":1889},{"id":252166,"name":"Vathy","timezone":{"dstOffset":3,"gmtOffset":2,"timeZoneId":"Europe/Athens"},"lat":37.75,"lng":26.98333,"population":1888},{"id":254115,"name":"Samos","timezone":{"dstOffset":3,"gmtOffset":2,"timeZoneId":"Europe/Athens"},"lat":37.75722,"lng":26.97694,"population":1885},{"id":258842,"name":"Krestena","timezone":{"dstOffset":3,"gmtOffset":2,"timeZoneId":"Europe/Athens"},"lat":37.59193,"lng":21.62034,"population":1864},{"id":265627,"name":"Agnanteró","timezone":{"dstOffset":3,"gmtOffset":2,"timeZoneId":"Europe/Athens"},"lat":39.48586,"lng":21.84789,"population":1859},{"id":258933,"name":"Koutsopodi","timezone":{"dstOffset":3,"gmtOffset":2,"timeZoneId":"Europe/Athens"},"lat":37.68426,"lng":22.71355,"population":1857},{"id":257448,"name":"Megala Kalyvia","timezone":{"dstOffset":3,"gmtOffset":2,"timeZoneId":"Europe/Athens"},"lat":39.49693,"lng":21.78802,"population":1849},{"id":736222,"name":"Fotolívos","timezone":{"dstOffset":3,"gmtOffset":2,"timeZoneId":"Europe/Athens"},"lat":41.06013,"lng":24.04724,"population":1844},{"id":261708,"name":"Itháki","timezone":{"dstOffset":3,"gmtOffset":2,"timeZoneId":"Europe/Athens"},"lat":38.36421,"lng":20.71848,"population":1843},{"id":255585,"name":"Perama","timezone":{"dstOffset":3,"gmtOffset":2,"timeZoneId":"Europe/Athens"},"lat":39.69331,"lng":20.84656,"population":1841},{"id":260144,"name":"Chálki","timezone":{"dstOffset":3,"gmtOffset":2,"timeZoneId":"Europe/Athens"},"lat":39.56853,"lng":22.54017,"population":1837},{"id":257948,"name":"Makrychóri","timezone":{"dstOffset":3,"gmtOffset":2,"timeZoneId":"Europe/Athens"},"lat":39.8,"lng":22.48333,"population":1835},{"id":264374,"name":"Athikia","timezone":{"dstOffset":3,"gmtOffset":2,"timeZoneId":"Europe/Athens"},"lat":37.81675,"lng":22.92939,"population":1834},{"id":260804,"name":"Kastélli","timezone":{"dstOffset":3,"gmtOffset":2,"timeZoneId":"Europe/Athens"},"lat":35.20902,"lng":25.33773,"population":1828},{"id":264359,"name":"Atsipópoulon","timezone":{"dstOffset":3,"gmtOffset":2,"timeZoneId":"Europe/Athens"},"lat":35.35301,"lng":24.43428,"population":1826},{"id":261571,"name":"Kalamos","timezone":{"dstOffset":3,"gmtOffset":2,"timeZoneId":"Europe/Athens"},"lat":38.28333,"lng":23.86667,"population":1824},{"id":735750,"name":"Chrysochori","timezone":{"dstOffset":3,"gmtOffset":2,"timeZoneId":"Europe/Athens"},"lat":40.93328,"lng":24.71088,"population":1818},{"id":254842,"name":"Porto Cheli","timezone":{"dstOffset":3,"gmtOffset":2,"timeZoneId":"Europe/Athens"},"lat":37.32786,"lng":23.14384,"population":1817},{"id":734336,"name":"Sélero","timezone":{"dstOffset":3,"gmtOffset":2,"timeZoneId":"Europe/Athens"},"lat":41.13382,"lng":24.99408,"population":1811},{"id":262558,"name":"Examilia","timezone":{"dstOffset":3,"gmtOffset":2,"timeZoneId":"Europe/Athens"},"lat":37.89736,"lng":22.92832,"population":1810},{"id":256872,"name":"Mytikas","timezone":{"dstOffset":3,"gmtOffset":2,"timeZoneId":"Europe/Athens"},"lat":38.44373,"lng":23.65365,"population":1808},{"id":734757,"name":"Paralia Katerinis","timezone":{"dstOffset":3,"gmtOffset":2,"timeZoneId":"Europe/Athens"},"lat":40.2671,"lng":22.59615,"population":1801},{"id":257814,"name":"Mantoúdi","timezone":{"dstOffset":3,"gmtOffset":2,"timeZoneId":"Europe/Athens"},"lat":38.8,"lng":23.48333,"population":1794},{"id":255305,"name":"Pýli","timezone":{"dstOffset":3,"gmtOffset":2,"timeZoneId":"Europe/Athens"},"lat":39.45806,"lng":21.61889,"population":1790},{"id":264519,"name":"Argyropoúli","timezone":{"dstOffset":3,"gmtOffset":2,"timeZoneId":"Europe/Athens"},"lat":39.82567,"lng":22.30689,"population":1782},{"id":261396,"name":"Kalloní","timezone":{"dstOffset":3,"gmtOffset":2,"timeZoneId":"Europe/Athens"},"lat":39.23278,"lng":26.20806,"population":1776},{"id":736071,"name":"Kalí","timezone":{"dstOffset":3,"gmtOffset":2,"timeZoneId":"Europe/Athens"},"lat":40.81931,"lng":22.17761,"population":1773},{"id":735375,"name":"Lófos","timezone":{"dstOffset":3,"gmtOffset":2,"timeZoneId":"Europe/Athens"},"lat":40.24395,"lng":22.38033,"population":1772},{"id":736243,"name":"Filotas","timezone":{"dstOffset":3,"gmtOffset":2,"timeZoneId":"Europe/Athens"},"lat":40.6252,"lng":21.70851,"population":1772},{"id":736581,"name":"Ágios Geórgios","timezone":{"dstOffset":3,"gmtOffset":2,"timeZoneId":"Europe/Athens"},"lat":40.60215,"lng":22.1943,"population":1767},{"id":255750,"name":"Proástio","timezone":{"dstOffset":3,"gmtOffset":2,"timeZoneId":"Europe/Athens"},"lat":39.48682,"lng":21.90288,"population":1766},{"id":255030,"name":"Plátanos","timezone":{"dstOffset":3,"gmtOffset":2,"timeZoneId":"Europe/Athens"},"lat":37.66667,"lng":21.61667,"population":1764},{"id":736592,"name":"Ágios Pétros","timezone":{"dstOffset":3,"gmtOffset":2,"timeZoneId":"Europe/Athens"},"lat":40.86725,"lng":22.58298,"population":1763},{"id":260604,"name":"Káto Glikóvrisi","timezone":{"dstOffset":3,"gmtOffset":2,"timeZoneId":"Europe/Athens"},"lat":36.83333,"lng":22.78333,"population":1753},{"id":260542,"name":"Káto Lekhónia","timezone":{"dstOffset":3,"gmtOffset":2,"timeZoneId":"Europe/Athens"},"lat":39.33091,"lng":23.03957,"population":1751},{"id":253737,"name":"Skala","timezone":{"dstOffset":3,"gmtOffset":2,"timeZoneId":"Europe/Athens"},"lat":37.32218,"lng":26.543,"population":1747},{"id":262397,"name":"Filótion","timezone":{"dstOffset":3,"gmtOffset":2,"timeZoneId":"Europe/Athens"},"lat":37.05,"lng":25.5,"population":1744},{"id":734454,"name":"Prómachoi","timezone":{"dstOffset":3,"gmtOffset":2,"timeZoneId":"Europe/Athens"},"lat":41.02517,"lng":22.00437,"population":1740},{"id":253614,"name":"Skýros","timezone":{"dstOffset":3,"gmtOffset":2,"timeZoneId":"Europe/Athens"},"lat":38.90417,"lng":24.56306,"population":1732},{"id":736682,"name":"Áthyra","timezone":{"dstOffset":3,"gmtOffset":2,"timeZoneId":"Europe/Athens"},"lat":40.82615,"lng":22.59279,"population":1722},{"id":252939,"name":"Thesprotikó","timezone":{"dstOffset":3,"gmtOffset":2,"timeZoneId":"Europe/Athens"},"lat":39.25114,"lng":20.78528,"population":1718},{"id":736598,"name":"Agios Nikolaos","timezone":{"dstOffset":3,"gmtOffset":2,"timeZoneId":"Europe/Athens"},"lat":40.24926,"lng":23.69616,"population":1714},{"id":735434,"name":"Lianovérgi","timezone":{"dstOffset":3,"gmtOffset":2,"timeZoneId":"Europe/Athens"},"lat":40.63526,"lng":22.5082,"population":1712},{"id":734396,"name":"Ritíni","timezone":{"dstOffset":3,"gmtOffset":2,"timeZoneId":"Europe/Athens"},"lat":40.28835,"lng":22.28361,"population":1711},{"id":734018,"name":"Tríkala","timezone":{"dstOffset":3,"gmtOffset":2,"timeZoneId":"Europe/Athens"},"lat":40.59814,"lng":22.55733,"population":1704},{"id":251187,"name":"Zonianá","timezone":{"dstOffset":3,"gmtOffset":2,"timeZoneId":"Europe/Athens"},"lat":35.29502,"lng":24.82944,"population":1703},{"id":256664,"name":"Mouzaki","timezone":{"dstOffset":3,"gmtOffset":2,"timeZoneId":"Europe/Athens"},"lat":37.73565,"lng":20.82291,"population":1702},{"id":259993,"name":"Chiliomodi","timezone":{"dstOffset":3,"gmtOffset":2,"timeZoneId":"Europe/Athens"},"lat":37.81016,"lng":22.86972,"population":1699},{"id":733986,"name":"Tsotíli","timezone":{"dstOffset":3,"gmtOffset":2,"timeZoneId":"Europe/Athens"},"lat":40.26147,"lng":21.32533,"population":1695},{"id":264793,"name":"Anthili","timezone":{"dstOffset":3,"gmtOffset":2,"timeZoneId":"Europe/Athens"},"lat":38.85,"lng":22.47906,"population":1693},{"id":255195,"name":"Pyrgetós","timezone":{"dstOffset":3,"gmtOffset":2,"timeZoneId":"Europe/Athens"},"lat":39.91869,"lng":22.59339,"population":1681},{"id":253494,"name":"Sofiko","timezone":{"dstOffset":3,"gmtOffset":2,"timeZoneId":"Europe/Athens"},"lat":37.79412,"lng":23.05204,"population":1679},{"id":264223,"name":"Agia Marina","timezone":{"dstOffset":3,"gmtOffset":2,"timeZoneId":"Europe/Athens"},"lat":35.51877,"lng":23.93011,"population":1671},{"id":734513,"name":"Pontismeno","timezone":{"dstOffset":3,"gmtOffset":2,"timeZoneId":"Europe/Athens"},"lat":41.20885,"lng":23.28325,"population":1666},{"id":736602,"name":"Ágios Loukás","timezone":{"dstOffset":3,"gmtOffset":2,"timeZoneId":"Europe/Athens"},"lat":40.71799,"lng":22.29545,"population":1665},{"id":263015,"name":"Dokimio","timezone":{"dstOffset":3,"gmtOffset":2,"timeZoneId":"Europe/Athens"},"lat":38.61352,"lng":21.38072,"population":1664},{"id":735393,"name":"Livaderó","timezone":{"dstOffset":3,"gmtOffset":2,"timeZoneId":"Europe/Athens"},"lat":40.03455,"lng":21.94279,"population":1663},{"id":2463662,"name":"Kontokali","timezone":{"dstOffset":3,"gmtOffset":2,"timeZoneId":"Europe/Athens"},"lat":39.64436,"lng":19.85194,"population":1660},{"id":255589,"name":"Pérama","timezone":{"dstOffset":3,"gmtOffset":2,"timeZoneId":"Europe/Athens"},"lat":35.3703,"lng":24.70345,"population":1655},{"id":257762,"name":"Manolás","timezone":{"dstOffset":3,"gmtOffset":2,"timeZoneId":"Europe/Athens"},"lat":38.05,"lng":21.35,"population":1650},{"id":734957,"name":"Néo Agionéri","timezone":{"dstOffset":3,"gmtOffset":2,"timeZoneId":"Europe/Athens"},"lat":40.80826,"lng":22.70733,"population":1649},{"id":734389,"name":"Rízia","timezone":{"dstOffset":3,"gmtOffset":2,"timeZoneId":"Europe/Athens"},"lat":41.6249,"lng":26.42771,"population":1645},{"id":261537,"name":"Kalávryta","timezone":{"dstOffset":3,"gmtOffset":2,"timeZoneId":"Europe/Athens"},"lat":38.03222,"lng":22.1125,"population":1629},{"id":255689,"name":"Patitiri","timezone":{"dstOffset":3,"gmtOffset":2,"timeZoneId":"Europe/Athens"},"lat":39.14657,"lng":23.86494,"population":1628},{"id":260379,"name":"Kavásilas","timezone":{"dstOffset":3,"gmtOffset":2,"timeZoneId":"Europe/Athens"},"lat":37.86667,"lng":21.26667,"population":1623},{"id":259265,"name":"Koróni","timezone":{"dstOffset":3,"gmtOffset":2,"timeZoneId":"Europe/Athens"},"lat":36.79526,"lng":21.95794,"population":1620},{"id":734128,"name":"Strymoniko","timezone":{"dstOffset":3,"gmtOffset":2,"timeZoneId":"Europe/Athens"},"lat":41.04144,"lng":23.31486,"population":1619},{"id":256175,"name":"Palaia Epidavros","timezone":{"dstOffset":3,"gmtOffset":2,"timeZoneId":"Europe/Athens"},"lat":37.63847,"lng":23.15609,"population":1618},{"id":255495,"name":"Perigiali","timezone":{"dstOffset":3,"gmtOffset":2,"timeZoneId":"Europe/Athens"},"lat":37.94041,"lng":22.83946,"population":1616},{"id":264878,"name":"Ano Mera","timezone":{"dstOffset":3,"gmtOffset":2,"timeZoneId":"Europe/Athens"},"lat":37.45,"lng":25.4,"population":1611},{"id":735714,"name":"Kýria","timezone":{"dstOffset":3,"gmtOffset":2,"timeZoneId":"Europe/Athens"},"lat":41.099,"lng":24.28915,"population":1611},{"id":265210,"name":"Ampelokipoi","timezone":{"dstOffset":3,"gmtOffset":2,"timeZoneId":"Europe/Athens"},"lat":37.75809,"lng":20.87248,"population":1606},{"id":736226,"name":"Flogita","timezone":{"dstOffset":3,"gmtOffset":2,"timeZoneId":"Europe/Athens"},"lat":40.26108,"lng":23.22107,"population":1604},{"id":252030,"name":"Verdikoússa","timezone":{"dstOffset":3,"gmtOffset":2,"timeZoneId":"Europe/Athens"},"lat":39.78175,"lng":21.97728,"population":1602},{"id":253866,"name":"Siliveniótika","timezone":{"dstOffset":3,"gmtOffset":2,"timeZoneId":"Europe/Athens"},"lat":38.16667,"lng":22.33333,"population":1595},{"id":734995,"name":"Néa Pélla","timezone":{"dstOffset":3,"gmtOffset":2,"timeZoneId":"Europe/Athens"},"lat":40.76516,"lng":22.49173,"population":1595},{"id":8740257,"name":"Agios Panteleimon Marathóna","timezone":{"dstOffset":3,"gmtOffset":2,"timeZoneId":"Europe/Athens"},"lat":38.11643,"lng":23.98182,"population":1591},{"id":9036678,"name":"Karellas","timezone":{"dstOffset":3,"gmtOffset":2,"timeZoneId":"Europe/Athens"},"lat":37.93445,"lng":23.86484,"population":1579},{"id":256860,"name":"Mitrópoli","timezone":{"dstOffset":3,"gmtOffset":2,"timeZoneId":"Europe/Athens"},"lat":39.33934,"lng":21.83752,"population":1572},{"id":735282,"name":"Mavrothalassa","timezone":{"dstOffset":3,"gmtOffset":2,"timeZoneId":"Europe/Athens"},"lat":40.89427,"lng":23.75048,"population":1572},{"id":735749,"name":"Chryso","timezone":{"dstOffset":3,"gmtOffset":2,"timeZoneId":"Europe/Athens"},"lat":41.05806,"lng":23.65108,"population":1571},{"id":10175091,"name":"Tsiflikopoulo","timezone":{"dstOffset":3,"gmtOffset":2,"timeZoneId":"Europe/Athens"},"lat":39.65624,"lng":20.83882,"population":1571},{"id":252927,"name":"Thymiana","timezone":{"dstOffset":3,"gmtOffset":2,"timeZoneId":"Europe/Athens"},"lat":38.31439,"lng":26.13259,"population":1566},{"id":257406,"name":"Megalochóri","timezone":{"dstOffset":3,"gmtOffset":2,"timeZoneId":"Europe/Athens"},"lat":39.55982,"lng":21.84195,"population":1564},{"id":253272,"name":"Stavraki","timezone":{"dstOffset":3,"gmtOffset":2,"timeZoneId":"Europe/Athens"},"lat":39.65614,"lng":20.81806,"population":1563},{"id":734324,"name":"Sevastianá","timezone":{"dstOffset":3,"gmtOffset":2,"timeZoneId":"Europe/Athens"},"lat":40.76874,"lng":22.12346,"population":1561},{"id":258759,"name":"Kritsá","timezone":{"dstOffset":3,"gmtOffset":2,"timeZoneId":"Europe/Athens"},"lat":35.1582,"lng":25.6446,"population":1560},{"id":735017,"name":"Néa Iraklítsa","timezone":{"dstOffset":3,"gmtOffset":2,"timeZoneId":"Europe/Athens"},"lat":40.86442,"lng":24.3165,"population":1560},{"id":734990,"name":"Nea Potidaia","timezone":{"dstOffset":3,"gmtOffset":2,"timeZoneId":"Europe/Athens"},"lat":40.19409,"lng":23.32832,"population":1559},{"id":8411066,"name":"Nea Potidaia","timezone":{"dstOffset":3,"gmtOffset":2,"timeZoneId":"Europe/Athens"},"lat":40.19428,"lng":23.32874,"population":1559},{"id":256879,"name":"Míthymna","timezone":{"dstOffset":3,"gmtOffset":2,"timeZoneId":"Europe/Athens"},"lat":39.36781,"lng":26.17639,"population":1558},{"id":265040,"name":"Andros","timezone":{"dstOffset":3,"gmtOffset":2,"timeZoneId":"Europe/Athens"},"lat":37.83333,"lng":24.93333,"population":1556},{"id":736732,"name":"Árnissa","timezone":{"dstOffset":3,"gmtOffset":2,"timeZoneId":"Europe/Athens"},"lat":40.79555,"lng":21.83577,"population":1556},{"id":735620,"name":"Koryfí","timezone":{"dstOffset":3,"gmtOffset":2,"timeZoneId":"Europe/Athens"},"lat":40.60286,"lng":22.50681,"population":1552},{"id":736810,"name":"Áno Kómi","timezone":{"dstOffset":3,"gmtOffset":2,"timeZoneId":"Europe/Athens"},"lat":40.2266,"lng":21.82827,"population":1547},{"id":258011,"name":"Magoula","timezone":{"dstOffset":3,"gmtOffset":2,"timeZoneId":"Europe/Athens"},"lat":37.08007,"lng":22.40469,"population":1545},{"id":252486,"name":"Tsikalariá","timezone":{"dstOffset":3,"gmtOffset":2,"timeZoneId":"Europe/Athens"},"lat":35.47623,"lng":24.06274,"population":1545},{"id":261935,"name":"Gouves","timezone":{"dstOffset":3,"gmtOffset":2,"timeZoneId":"Europe/Athens"},"lat":35.32626,"lng":25.2774,"population":1539},{"id":735497,"name":"Lagós","timezone":{"dstOffset":3,"gmtOffset":2,"timeZoneId":"Europe/Athens"},"lat":41.45102,"lng":26.46067,"population":1536},{"id":255798,"name":"Pappádos","timezone":{"dstOffset":3,"gmtOffset":2,"timeZoneId":"Europe/Athens"},"lat":39.03944,"lng":26.45472,"population":1534},{"id":263000,"name":"Domokos","timezone":{"dstOffset":3,"gmtOffset":2,"timeZoneId":"Europe/Athens"},"lat":39.12722,"lng":22.30028,"population":1531},{"id":735852,"name":"Kavýli","timezone":{"dstOffset":3,"gmtOffset":2,"timeZoneId":"Europe/Athens"},"lat":41.56225,"lng":26.5147,"population":1531},{"id":253582,"name":"Skópelos","timezone":{"dstOffset":3,"gmtOffset":2,"timeZoneId":"Europe/Athens"},"lat":39.02972,"lng":26.44833,"population":1530},{"id":734155,"name":"Stavrós","timezone":{"dstOffset":3,"gmtOffset":2,"timeZoneId":"Europe/Athens"},"lat":40.58939,"lng":22.30861,"population":1529},{"id":261842,"name":"Grizáno","timezone":{"dstOffset":3,"gmtOffset":2,"timeZoneId":"Europe/Athens"},"lat":39.63192,"lng":22.05258,"population":1528},{"id":736843,"name":"Angelochóri","timezone":{"dstOffset":3,"gmtOffset":2,"timeZoneId":"Europe/Athens"},"lat":40.67862,"lng":22.19933,"population":1526},{"id":736014,"name":"Kampánis","timezone":{"dstOffset":3,"gmtOffset":2,"timeZoneId":"Europe/Athens"},"lat":40.88951,"lng":22.91682,"population":1523},{"id":735115,"name":"Mikró Monastíri","timezone":{"dstOffset":3,"gmtOffset":2,"timeZoneId":"Europe/Athens"},"lat":40.7043,"lng":22.54112,"population":1518},{"id":262383,"name":"Fitíai","timezone":{"dstOffset":3,"gmtOffset":2,"timeZoneId":"Europe/Athens"},"lat":38.7,"lng":21.18333,"population":1516},{"id":736762,"name":"Aravissós","timezone":{"dstOffset":3,"gmtOffset":2,"timeZoneId":"Europe/Athens"},"lat":40.84352,"lng":22.30178,"population":1513},{"id":736650,"name":"Agía Paraskeví","timezone":{"dstOffset":3,"gmtOffset":2,"timeZoneId":"Europe/Athens"},"lat":40.4815,"lng":23.04863,"population":1501},{"id":264897,"name":"Áno Kopanákion","timezone":{"dstOffset":3,"gmtOffset":2,"timeZoneId":"Europe/Athens"},"lat":37.28333,"lng":21.81667,"population":1500},{"id":252889,"name":"Thrapsanón","timezone":{"dstOffset":3,"gmtOffset":2,"timeZoneId":"Europe/Athens"},"lat":35.18798,"lng":25.28091,"population":1499},{"id":254898,"name":"Politiká","timezone":{"dstOffset":3,"gmtOffset":2,"timeZoneId":"Europe/Athens"},"lat":38.6,"lng":23.55,"population":1498},{"id":255638,"name":"Pelasgia","timezone":{"dstOffset":3,"gmtOffset":2,"timeZoneId":"Europe/Athens"},"lat":38.94813,"lng":22.8398,"population":1497},{"id":252165,"name":"Vathy","timezone":{"dstOffset":3,"gmtOffset":2,"timeZoneId":"Europe/Athens"},"lat":37.76567,"lng":23.4812,"population":1495},{"id":735679,"name":"Koíla","timezone":{"dstOffset":3,"gmtOffset":2,"timeZoneId":"Europe/Athens"},"lat":40.33055,"lng":21.79102,"population":1493},{"id":735196,"name":"Mesiméri","timezone":{"dstOffset":3,"gmtOffset":2,"timeZoneId":"Europe/Athens"},"lat":40.41344,"lng":23.0075,"population":1491},