[{"id":3489854,"name":"Kingston","timezone":{"dstOffset":-5,"gmtOffset":-5,"timeZoneId":"America/Jamaica"},"lat":17.99702,"lng":-76.79358,"population":937700},{"id":3489297,"name":"New Kingston","timezone":{"dstOffset":-5,"gmtOffset":-5,"timeZoneId":"America/Jamaica"},"lat":18.00747,"lng":-76.78319,"population":583958},{"id":3488465,"name":"Spanish Town","timezone":{"dstOffset":-5,"gmtOffset":-5,"timeZoneId":"America/Jamaica"},"lat":17.99107,"lng":-76.95742,"population":145018},{"id":3488981,"name":"Portmore","timezone":{"dstOffset":-5,"gmtOffset":-5,"timeZoneId":"America/Jamaica"},"lat":17.95032,"lng":-76.88215,"population":102861},{"id":3489460,"name":"Montego Bay","timezone":{"dstOffset":-5,"gmtOffset":-5,"timeZoneId":"America/Jamaica"},"lat":18.47116,"lng":-77.91883,"population":82867},{"id":3489577,"name":"Mandeville","timezone":{"dstOffset":-5,"gmtOffset":-5,"timeZoneId":"America/Jamaica"},"lat":18.04168,"lng":-77.50714,"population":47115},{"id":3489523,"name":"May Pen","timezone":{"dstOffset":-5,"gmtOffset":-5,"timeZoneId":"America/Jamaica"},"lat":17.96454,"lng":-77.24515,"population":44755},{"id":3489227,"name":"Old Harbour","timezone":{"dstOffset":-5,"gmtOffset":-5,"timeZoneId":"America/Jamaica"},"lat":17.94144,"lng":-77.10898,"population":26024},{"id":3489760,"name":"Linstead","timezone":{"dstOffset":-5,"gmtOffset":-5,"timeZoneId":"America/Jamaica"},"lat":18.13683,"lng":-77.03171,"population":20660},{"id":3490165,"name":"Half Way Tree","timezone":{"dstOffset":-5,"gmtOffset":-5,"timeZoneId":"America/Jamaica"},"lat":18.01248,"lng":-76.79928,"population":18552},{"id":3488613,"name":"Savanna-la-Mar","timezone":{"dstOffset":-5,"gmtOffset":-5,"timeZoneId":"America/Jamaica"},"lat":18.21895,"lng":-78.1332,"population":16553},{"id":3489005,"name":"Port Antonio","timezone":{"dstOffset":-5,"gmtOffset":-5,"timeZoneId":"America/Jamaica"},"lat":18.17615,"lng":-76.4509,"population":14400},{"id":3488713,"name":"St Ann's Bay","timezone":{"dstOffset":-5,"gmtOffset":-5,"timeZoneId":"America/Jamaica"},"lat":18.43581,"lng":-77.20098,"population":13671},{"id":3491293,"name":"Bog Walk","timezone":{"dstOffset":-5,"gmtOffset":-5,"timeZoneId":"America/Jamaica"},"lat":18.10205,"lng":-77.00541,"population":12873},{"id":3490880,"name":"Constant Spring","timezone":{"dstOffset":-5,"gmtOffset":-5,"timeZoneId":"America/Jamaica"},"lat":18.05078,"lng":-76.79372,"population":12830},{"id":3490539,"name":"Ewarton","timezone":{"dstOffset":-5,"gmtOffset":-5,"timeZoneId":"America/Jamaica"},"lat":18.18333,"lng":-77.08536,"population":12797},{"id":3490106,"name":"Hayes","timezone":{"dstOffset":-5,"gmtOffset":-5,"timeZoneId":"America/Jamaica"},"lat":17.87569,"lng":-77.23711,"population":9701},{"id":3489239,"name":"Ocho Rios","timezone":{"dstOffset":-5,"gmtOffset":-5,"timeZoneId":"America/Jamaica"},"lat":18.4025,"lng":-77.1048,"population":9450},{"id":3489440,"name":"Morant Bay","timezone":{"dstOffset":-5,"gmtOffset":-5,"timeZoneId":"America/Jamaica"},"lat":17.88145,"lng":-76.40927,"population":9368},{"id":3488380,"name":"Stony Hill","timezone":{"dstOffset":-5,"gmtOffset":-5,"timeZoneId":"America/Jamaica"},"lat":18.07916,"lng":-76.78473,"population":8551},{"id":3488620,"name":"Santa Cruz","timezone":{"dstOffset":-5,"gmtOffset":-5,"timeZoneId":"America/Jamaica"},"lat":18.05336,"lng":-77.69836,"population":8217},{"id":3489225,"name":"Old Harbour Bay","timezone":{"dstOffset":-5,"gmtOffset":-5,"timeZoneId":"America/Jamaica"},"lat":17.90918,"lng":-77.09718,"population":7912},{"id":3488985,"name":"Port Maria","timezone":{"dstOffset":-5,"gmtOffset":-5,"timeZoneId":"America/Jamaica"},"lat":18.36849,"lng":-76.88946,"population":7906},{"id":3490520,"name":"Falmouth","timezone":{"dstOffset":-5,"gmtOffset":-5,"timeZoneId":"America/Jamaica"},"lat":18.49358,"lng":-77.65587,"population":7779},{"id":3487963,"name":"Yallahs","timezone":{"dstOffset":-5,"gmtOffset":-5,"timeZoneId":"America/Jamaica"},"lat":17.8748,"lng":-76.56245,"population":7644},{"id":3491161,"name":"Bull Savanna","timezone":{"dstOffset":-5,"gmtOffset":-5,"timeZoneId":"America/Jamaica"},"lat":17.88678,"lng":-77.59022,"population":6962},{"id":3488726,"name":"Runaway Bay","timezone":{"dstOffset":-5,"gmtOffset":-5,"timeZoneId":"America/Jamaica"},"lat":18.45962,"lng":-77.3357,"population":6517},{"id":3489657,"name":"Lucea","timezone":{"dstOffset":-5,"gmtOffset":-5,"timeZoneId":"America/Jamaica"},"lat":18.45095,"lng":-78.17356,"population":6289},{"id":3488977,"name":"Porus","timezone":{"dstOffset":-5,"gmtOffset":-5,"timeZoneId":"America/Jamaica"},"lat":18.03535,"lng":-77.41166,"population":5923},{"id":3491556,"name":"Annotto Bay","timezone":{"dstOffset":-5,"gmtOffset":-5,"timeZoneId":"America/Jamaica"},"lat":18.2717,"lng":-76.76523,"population":5504},{"id":3489758,"name":"Lionel Town","timezone":{"dstOffset":-5,"gmtOffset":-5,"timeZoneId":"America/Jamaica"},"lat":17.81007,"lng":-77.24061,"population":5362},{"id":3489011,"name":"Point Hill","timezone":{"dstOffset":-5,"gmtOffset":-5,"timeZoneId":"America/Jamaica"},"lat":18.08988,"lng":-77.10759,"population":5344},{"id":3488597,"name":"Seaforth","timezone":{"dstOffset":-5,"gmtOffset":-5,"timeZoneId":"America/Jamaica"},"lat":17.93578,"lng":-76.4573,"population":4550},{"id":3488635,"name":"Sandy Bay","timezone":{"dstOffset":-5,"gmtOffset":-5,"timeZoneId":"America/Jamaica"},"lat":18.44854,"lng":-78.07321,"population":4520},{"id":3491007,"name":"Chapelton","timezone":{"dstOffset":-5,"gmtOffset":-5,"timeZoneId":"America/Jamaica"},"lat":18.08333,"lng":-77.26667,"population":4514},{"id":3491487,"name":"Bamboo","timezone":{"dstOffset":-5,"gmtOffset":-5,"timeZoneId":"America/Jamaica"},"lat":18.39216,"lng":-77.26429,"population":4264},{"id":3491355,"name":"Black River","timezone":{"dstOffset":-5,"gmtOffset":-5,"timeZoneId":"America/Jamaica"},"lat":18.02636,"lng":-77.84873,"population":4229},{"id":3491570,"name":"Anchovy","timezone":{"dstOffset":-5,"gmtOffset":-5,"timeZoneId":"America/Jamaica"},"lat":18.4103,"lng":-77.93166,"population":4161},{"id":3489200,"name":"Oracabessa","timezone":{"dstOffset":-5,"gmtOffset":-5,"timeZoneId":"America/Jamaica"},"lat":18.40319,"lng":-76.94641,"population":4100},{"id":3488809,"name":"Riversdale","timezone":{"dstOffset":-5,"gmtOffset":-5,"timeZoneId":"America/Jamaica"},"lat":18.16586,"lng":-76.96417,"population":4085},{"id":3491102,"name":"Cambridge","timezone":{"dstOffset":-5,"gmtOffset":-5,"timeZoneId":"America/Jamaica"},"lat":18.31326,"lng":-77.90252,"population":3930},{"id":3490899,"name":"Coleyville","timezone":{"dstOffset":-5,"gmtOffset":-5,"timeZoneId":"America/Jamaica"},"lat":18.20783,"lng":-77.50754,"population":3860},{"id":3491602,"name":"Albert Town","timezone":{"dstOffset":-5,"gmtOffset":-5,"timeZoneId":"America/Jamaica"},"lat":18.29434,"lng":-77.54239,"population":3449},{"id":3488980,"name":"Port Royal","timezone":{"dstOffset":-5,"gmtOffset":-5,"timeZoneId":"America/Jamaica"},"lat":17.93712,"lng":-76.84081,"population":3327},{"id":3489464,"name":"Moneague","timezone":{"dstOffset":-5,"gmtOffset":-5,"timeZoneId":"America/Jamaica"},"lat":18.27556,"lng":-77.11177,"population":3319},{"id":3490368,"name":"Gayle","timezone":{"dstOffset":-5,"gmtOffset":-5,"timeZoneId":"America/Jamaica"},"lat":18.32642,"lng":-77.00971,"population":3305},{"id":3489603,"name":"Malvern","timezone":{"dstOffset":-5,"gmtOffset":-5,"timeZoneId":"America/Jamaica"},"lat":17.96667,"lng":-77.7,"population":3291},{"id":3488020,"name":"Williamsfield","timezone":{"dstOffset":-5,"gmtOffset":-5,"timeZoneId":"America/Jamaica"},"lat":18.06667,"lng":-77.46667,"population":3255},{"id":3489829,"name":"Lacovia","timezone":{"dstOffset":-5,"gmtOffset":-5,"timeZoneId":"America/Jamaica"},"lat":18.0721,"lng":-77.75059,"population":3187},{"id":3489714,"name":"Lluidas Vale","timezone":{"dstOffset":-5,"gmtOffset":-5,"timeZoneId":"America/Jamaica"},"lat":18.12587,"lng":-77.14823,"population":3163},{"id":3488777,"name":"Rocky Point","timezone":{"dstOffset":-5,"gmtOffset":-5,"timeZoneId":"America/Jamaica"},"lat":17.774,"lng":-77.26107,"population":3152},{"id":3489555,"name":"Maroon Town","timezone":{"dstOffset":-5,"gmtOffset":-5,"timeZoneId":"America/Jamaica"},"lat":18.34464,"lng":-77.79544,"population":3085},{"id":3490318,"name":"Golden Grove","timezone":{"dstOffset":-5,"gmtOffset":-5,"timeZoneId":"America/Jamaica"},"lat":17.93362,"lng":-76.27254,"population":3058},{"id":3491381,"name":"Bethel Town","timezone":{"dstOffset":-5,"gmtOffset":-5,"timeZoneId":"America/Jamaica"},"lat":18.29504,"lng":-77.95112,"population":3053},{"id":3490768,"name":"Dalvey","timezone":{"dstOffset":-5,"gmtOffset":-5,"timeZoneId":"America/Jamaica"},"lat":17.91184,"lng":-76.24864,"population":3037},{"id":3489331,"name":"Negril","timezone":{"dstOffset":-5,"gmtOffset":-5,"timeZoneId":"America/Jamaica"},"lat":18.26844,"lng":-78.3481,"population":3000},{"id":3488914,"name":"Race Course","timezone":{"dstOffset":-5,"gmtOffset":-5,"timeZoneId":"America/Jamaica"},"lat":17.84019,"lng":-77.28223,"population":2974},{"id":3489962,"name":"Islington","timezone":{"dstOffset":-5,"gmtOffset":-5,"timeZoneId":"America/Jamaica"},"lat":18.30922,"lng":-76.85482,"population":2958},{"id":3488217,"name":"Trinity Ville","timezone":{"dstOffset":-5,"gmtOffset":-5,"timeZoneId":"America/Jamaica"},"lat":17.96076,"lng":-76.51427,"population":2895},{"id":3489467,"name":"Mona Heights","timezone":{"dstOffset":-5,"gmtOffset":-5,"timeZoneId":"America/Jamaica"},"lat":18.01375,"lng":-76.75186,"population":2887},{"id":3491501,"name":"Balaclava","timezone":{"dstOffset":-5,"gmtOffset":-5,"timeZoneId":"America/Jamaica"},"lat":18.17228,"lng":-77.64375,"population":2862},{"id":3491327,"name":"Bluefields","timezone":{"dstOffset":-5,"gmtOffset":-5,"timeZoneId":"America/Jamaica"},"lat":18.16602,"lng":-78.02702,"population":2828},{"id":3488133,"name":"Wakefield","timezone":{"dstOffset":-5,"gmtOffset":-5,"timeZoneId":"America/Jamaica"},"lat":18.41211,"lng":-77.72183,"population":2763},{"id":3491175,"name":"Buff Bay","timezone":{"dstOffset":-5,"gmtOffset":-5,"timeZoneId":"America/Jamaica"},"lat":18.23288,"lng":-76.66118,"population":2757},{"id":3488540,"name":"Siloah","timezone":{"dstOffset":-5,"gmtOffset":-5,"timeZoneId":"America/Jamaica"},"lat":18.16709,"lng":-77.70348,"population":2725},{"id":3488479,"name":"Southfield","timezone":{"dstOffset":-5,"gmtOffset":-5,"timeZoneId":"America/Jamaica"},"lat":17.8878,"lng":-77.66713,"population":2695},{"id":3490616,"name":"Easington","timezone":{"dstOffset":-5,"gmtOffset":-5,"timeZoneId":"America/Jamaica"},"lat":17.92397,"lng":-76.58824,"population":2634},{"id":3489888,"name":"Kellits","timezone":{"dstOffset":-5,"gmtOffset":-5,"timeZoneId":"America/Jamaica"},"lat":18.16184,"lng":-77.27049,"population":2631},{"id":3490716,"name":"Discovery Bay","timezone":{"dstOffset":-5,"gmtOffset":-5,"timeZoneId":"America/Jamaica"},"lat":18.45873,"lng":-77.39997,"population":2535},{"id":3489344,"name":"Nain","timezone":{"dstOffset":-5,"gmtOffset":-5,"timeZoneId":"America/Jamaica"},"lat":17.96526,"lng":-77.60528,"population":2394},{"id":3491448,"name":"Bath","timezone":{"dstOffset":-5,"gmtOffset":-5,"timeZoneId":"America/Jamaica"},"lat":17.9482,"lng":-76.34916,"population":2382},{"id":3489582,"name":"Manchioneal","timezone":{"dstOffset":-5,"gmtOffset":-5,"timeZoneId":"America/Jamaica"},"lat":18.04444,"lng":-76.27735,"population":2321},{"id":8062858,"name":"Limit","timezone":{"dstOffset":-5,"gmtOffset":-5,"timeZoneId":"America/Jamaica"},"lat":18.15287,"lng":-77.47121,"population":2321},{"id":3489062,"name":"Petersfield","timezone":{"dstOffset":-5,"gmtOffset":-5,"timeZoneId":"America/Jamaica"},"lat":18.26158,"lng":-78.07117,"population":2255},{"id":3488834,"name":"Richmond","timezone":{"dstOffset":-5,"gmtOffset":-5,"timeZoneId":"America/Jamaica"},"lat":18.25478,"lng":-76.88799,"population":2046},{"id":3491593,"name":"Alexandria","timezone":{"dstOffset":-5,"gmtOffset":-5,"timeZoneId":"America/Jamaica"},"lat":18.30768,"lng":-77.35335,"population":1927},{"id":3490633,"name":"Duncans","timezone":{"dstOffset":-5,"gmtOffset":-5,"timeZoneId":"America/Jamaica"},"lat":18.468,"lng":-77.53633,"population":1876},{"id":3489531,"name":"Mavis Bank","timezone":{"dstOffset":-5,"gmtOffset":-5,"timeZoneId":"America/Jamaica"},"lat":18.03333,"lng":-76.66667,"population":1821},{"id":3491586,"name":"Alligator Pond","timezone":{"dstOffset":-5,"gmtOffset":-5,"timeZoneId":"America/Jamaica"},"lat":17.87002,"lng":-77.56667,"population":1793},{"id":3490031,"name":"Hope Bay","timezone":{"dstOffset":-5,"gmtOffset":-5,"timeZoneId":"America/Jamaica"},"lat":18.19882,"lng":-76.56539,"population":1666},{"id":3490758,"name":"Darliston","timezone":{"dstOffset":-5,"gmtOffset":-5,"timeZoneId":"America/Jamaica"},"lat":18.23731,"lng":-77.97626,"population":1583},{"id":3488180,"name":"Ulster Spring","timezone":{"dstOffset":-5,"gmtOffset":-5,"timeZoneId":"America/Jamaica"},"lat":18.31482,"lng":-77.52067,"population":1411},{"id":3489633,"name":"Maggotty","timezone":{"dstOffset":-5,"gmtOffset":-5,"timeZoneId":"America/Jamaica"},"lat":18.16069,"lng":-77.76349,"population":1371},{"id":3491055,"name":"Cascade","timezone":{"dstOffset":-5,"gmtOffset":-5,"timeZoneId":"America/Jamaica"},"lat":18.39747,"lng":-78.10338,"population":1232},{"id":3489445,"name":"Moore Town","timezone":{"dstOffset":-5,"gmtOffset":-5,"timeZoneId":"America/Jamaica"},"lat":18.07767,"lng":-76.42577,"population":1119},{"id":3490293,"name":"Gordon Town","timezone":{"dstOffset":-5,"gmtOffset":-5,"timeZoneId":"America/Jamaica"},"lat":18.03578,"lng":-76.71782,"population":1088},{"id":3488780,"name":"Rock Spring","timezone":{"dstOffset":-5,"gmtOffset":-5,"timeZoneId":"America/Jamaica"},"lat":18.30123,"lng":-77.55259,"population":0},{"id":3489475,"name":"Mocho","timezone":{"dstOffset":-5,"gmtOffset":-5,"timeZoneId":"America/Jamaica"},"lat":18.04,"lng":-77.33,"population":0},{"id":3491518,"name":"Mt Peto","timezone":{"dstOffset":-5,"gmtOffset":-5,"timeZoneId":"America/Jamaica"},"lat":18.3637,"lng":-78.03736,"population":0},{"id":9308152,"name":"Quickstep","timezone":{"dstOffset":-5,"gmtOffset":-5,"timeZoneId":"America/Jamaica"},"lat":18.2624,"lng":-77.64586,"population":0}]