[{"id":1850147,"name":"Tokyo","timezone":{"dstOffset":9,"gmtOffset":9,"timeZoneId":"Asia/Tokyo"},"lat":35.6895,"lng":139.69171,"population":8336599},{"id":1848354,"name":"Yokohama","timezone":{"dstOffset":9,"gmtOffset":9,"timeZoneId":"Asia/Tokyo"},"lat":35.44778,"lng":139.6425,"population":3574443},{"id":1853909,"name":"Osaka","timezone":{"dstOffset":9,"gmtOffset":9,"timeZoneId":"Asia/Tokyo"},"lat":34.69374,"lng":135.50218,"population":2592413},{"id":1856057,"name":"Nagoya","timezone":{"dstOffset":9,"gmtOffset":9,"timeZoneId":"Asia/Tokyo"},"lat":35.18147,"lng":136.90641,"population":2191279},{"id":2128295,"name":"Sapporo","timezone":{"dstOffset":9,"gmtOffset":9,"timeZoneId":"Asia/Tokyo"},"lat":43.06417,"lng":141.34694,"population":1883027},{"id":1859171,"name":"Kobe","timezone":{"dstOffset":9,"gmtOffset":9,"timeZoneId":"Asia/Tokyo"},"lat":34.6913,"lng":135.183,"population":1528478},{"id":1857910,"name":"Kyoto","timezone":{"dstOffset":9,"gmtOffset":9,"timeZoneId":"Asia/Tokyo"},"lat":35.02107,"lng":135.75385,"population":1459640},{"id":1863967,"name":"Fukuoka","timezone":{"dstOffset":9,"gmtOffset":9,"timeZoneId":"Asia/Tokyo"},"lat":33.60639,"lng":130.41806,"population":1392289},{"id":1859642,"name":"Kawasaki","timezone":{"dstOffset":9,"gmtOffset":9,"timeZoneId":"Asia/Tokyo"},"lat":35.52056,"lng":139.71722,"population":1306785},{"id":6940394,"name":"Saitama","timezone":{"dstOffset":9,"gmtOffset":9,"timeZoneId":"Asia/Tokyo"},"lat":35.90807,"lng":139.65657,"population":1193350},{"id":1862415,"name":"Hiroshima","timezone":{"dstOffset":9,"gmtOffset":9,"timeZoneId":"Asia/Tokyo"},"lat":34.39627,"lng":132.45937,"population":1143841},{"id":1848254,"name":"Yono","timezone":{"dstOffset":9,"gmtOffset":9,"timeZoneId":"Asia/Tokyo"},"lat":35.88333,"lng":139.63333,"population":1077730},{"id":2111149,"name":"Sendai","timezone":{"dstOffset":9,"gmtOffset":9,"timeZoneId":"Asia/Tokyo"},"lat":38.26889,"lng":140.87194,"population":1063103},{"id":8555918,"name":"Sendai","timezone":{"dstOffset":9,"gmtOffset":9,"timeZoneId":"Asia/Tokyo"},"lat":38.25759,"lng":140.8667,"population":1063103},{"id":1859307,"name":"Kitakyushu","timezone":{"dstOffset":9,"gmtOffset":9,"timeZoneId":"Asia/Tokyo"},"lat":33.83333,"lng":130.83333,"population":997536},{"id":2113015,"name":"Chiba","timezone":{"dstOffset":9,"gmtOffset":9,"timeZoneId":"Asia/Tokyo"},"lat":35.60472,"lng":140.12333,"population":919729},{"id":1853195,"name":"Sakai","timezone":{"dstOffset":9,"gmtOffset":9,"timeZoneId":"Asia/Tokyo"},"lat":34.58333,"lng":135.46667,"population":782339},{"id":1851717,"name":"Shizuoka","timezone":{"dstOffset":9,"gmtOffset":9,"timeZoneId":"Asia/Tokyo"},"lat":34.97694,"lng":138.38306,"population":701561},{"id":1858421,"name":"Kumamoto","timezone":{"dstOffset":9,"gmtOffset":9,"timeZoneId":"Asia/Tokyo"},"lat":32.80589,"lng":130.69181,"population":680423},{"id":1854383,"name":"Okayama","timezone":{"dstOffset":9,"gmtOffset":9,"timeZoneId":"Asia/Tokyo"},"lat":34.66167,"lng":133.935,"population":639652},{"id":1863289,"name":"Hamamatsu City","timezone":{"dstOffset":9,"gmtOffset":9,"timeZoneId":"Asia/Tokyo"},"lat":34.7,"lng":137.73333,"population":605098},{"id":1863440,"name":"Hachiōji","timezone":{"dstOffset":9,"gmtOffset":9,"timeZoneId":"Asia/Tokyo"},"lat":35.65583,"lng":139.32389,"population":579399},{"id":1863905,"name":"Funabashi","timezone":{"dstOffset":9,"gmtOffset":9,"timeZoneId":"Asia/Tokyo"},"lat":35.69306,"lng":139.98333,"population":560743},{"id":1860827,"name":"Kagoshima","timezone":{"dstOffset":9,"gmtOffset":9,"timeZoneId":"Asia/Tokyo"},"lat":31.56018,"lng":130.55814,"population":555352},{"id":1855431,"name":"Niigata","timezone":{"dstOffset":9,"gmtOffset":9,"timeZoneId":"Asia/Tokyo"},"lat":37.90222,"lng":139.02361,"population":505272},{"id":1862627,"name":"Himeji","timezone":{"dstOffset":9,"gmtOffset":9,"timeZoneId":"Asia/Tokyo"},"lat":34.81667,"lng":134.7,"population":481493},{"id":1857553,"name":"Matsudo","timezone":{"dstOffset":9,"gmtOffset":9,"timeZoneId":"Asia/Tokyo"},"lat":35.78333,"lng":139.9,"population":470277},{"id":1855207,"name":"Nishinomiya","timezone":{"dstOffset":9,"gmtOffset":9,"timeZoneId":"Asia/Tokyo"},"lat":34.71562,"lng":135.33199,"population":468925},{"id":1859730,"name":"Kawaguchi","timezone":{"dstOffset":9,"gmtOffset":9,"timeZoneId":"Asia/Tokyo"},"lat":35.80521,"lng":139.71072,"population":468565},{"id":1860243,"name":"Kanazawa","timezone":{"dstOffset":9,"gmtOffset":9,"timeZoneId":"Asia/Tokyo"},"lat":36.59444,"lng":136.62556,"population":458937},{"id":1849053,"name":"Utsunomiya","timezone":{"dstOffset":9,"gmtOffset":9,"timeZoneId":"Asia/Tokyo"},"lat":36.56583,"lng":139.88361,"population":449865},{"id":1854487,"name":"Ōita","timezone":{"dstOffset":9,"gmtOffset":9,"timeZoneId":"Asia/Tokyo"},"lat":33.23806,"lng":131.6125,"population":448907},{"id":1926099,"name":"Matsuyama","timezone":{"dstOffset":9,"gmtOffset":9,"timeZoneId":"Asia/Tokyo"},"lat":33.83916,"lng":132.76574,"population":443322},{"id":1865387,"name":"Amagasaki","timezone":{"dstOffset":9,"gmtOffset":9,"timeZoneId":"Asia/Tokyo"},"lat":34.71667,"lng":135.41667,"population":442173},{"id":1858311,"name":"Kurashiki","timezone":{"dstOffset":9,"gmtOffset":9,"timeZoneId":"Asia/Tokyo"},"lat":34.58333,"lng":133.76667,"population":437581},{"id":1848313,"name":"Yokosuka","timezone":{"dstOffset":9,"gmtOffset":9,"timeZoneId":"Asia/Tokyo"},"lat":35.28361,"lng":139.66722,"population":428992},{"id":1856177,"name":"Nagasaki","timezone":{"dstOffset":9,"gmtOffset":9,"timeZoneId":"Asia/Tokyo"},"lat":32.74472,"lng":129.87361,"population":410204},{"id":1862540,"name":"Hirakata","timezone":{"dstOffset":9,"gmtOffset":9,"timeZoneId":"Asia/Tokyo"},"lat":34.81352,"lng":135.64914,"population":406331},{"id":1857871,"name":"Machida","timezone":{"dstOffset":9,"gmtOffset":9,"timeZoneId":"Asia/Tokyo"},"lat":35.54028,"lng":139.45083,"population":399969},{"id":1863641,"name":"Gifu","timezone":{"dstOffset":9,"gmtOffset":9,"timeZoneId":"Asia/Tokyo"},"lat":35.42291,"lng":136.76039,"population":397714},{"id":1864092,"name":"Fujisawa","timezone":{"dstOffset":9,"gmtOffset":9,"timeZoneId":"Asia/Tokyo"},"lat":35.34194,"lng":139.47,"population":394624},{"id":1849837,"name":"Toyonaka","timezone":{"dstOffset":9,"gmtOffset":9,"timeZoneId":"Asia/Tokyo"},"lat":34.78244,"lng":135.46932,"population":384459},{"id":1863917,"name":"Fukuyama","timezone":{"dstOffset":9,"gmtOffset":9,"timeZoneId":"Asia/Tokyo"},"lat":34.48333,"lng":133.36667,"population":383298},{"id":1849846,"name":"Toyohashi-shi","timezone":{"dstOffset":9,"gmtOffset":9,"timeZoneId":"Asia/Tokyo"},"lat":34.76667,"lng":137.38333,"population":378374},{"id":1852383,"name":"Minato","timezone":{"dstOffset":9,"gmtOffset":9,"timeZoneId":"Asia/Tokyo"},"lat":34.2152,"lng":135.1501,"population":375339},{"id":1855612,"name":"Nara","timezone":{"dstOffset":9,"gmtOffset":9,"timeZoneId":"Asia/Tokyo"},"lat":34.68505,"lng":135.80485,"population":367353},{"id":1849814,"name":"Toyota","timezone":{"dstOffset":9,"gmtOffset":9,"timeZoneId":"Asia/Tokyo"},"lat":35.08333,"lng":137.15,"population":362383},{"id":1856215,"name":"Nagano","timezone":{"dstOffset":9,"gmtOffset":9,"timeZoneId":"Asia/Tokyo"},"lat":36.65139,"lng":138.18111,"population":360176},{"id":2112539,"name":"Iwaki","timezone":{"dstOffset":9,"gmtOffset":9,"timeZoneId":"Asia/Tokyo"},"lat":37.05,"lng":140.88333,"population":357309},{"id":2130629,"name":"Asahikawa","timezone":{"dstOffset":9,"gmtOffset":9,"timeZoneId":"Asia/Tokyo"},"lat":43.77063,"lng":142.36489,"population":356612},{"id":1850910,"name":"Takatsuki","timezone":{"dstOffset":9,"gmtOffset":9,"timeZoneId":"Asia/Tokyo"},"lat":34.84833,"lng":135.61678,"population":354468},{"id":1854376,"name":"Okazaki","timezone":{"dstOffset":9,"gmtOffset":9,"timeZoneId":"Asia/Tokyo"},"lat":34.95,"lng":137.16667,"population":352361},{"id":1851483,"name":"Suita","timezone":{"dstOffset":9,"gmtOffset":9,"timeZoneId":"Asia/Tokyo"},"lat":34.76143,"lng":135.51567,"population":351630},{"id":1926004,"name":"Wakayama","timezone":{"dstOffset":9,"gmtOffset":9,"timeZoneId":"Asia/Tokyo"},"lat":34.22611,"lng":135.1675,"population":351000},{"id":2112141,"name":"Kōriyama","timezone":{"dstOffset":9,"gmtOffset":9,"timeZoneId":"Asia/Tokyo"},"lat":37.4,"lng":140.38333,"population":340560},{"id":1859924,"name":"Kashiwa","timezone":{"dstOffset":9,"gmtOffset":9,"timeZoneId":"Asia/Tokyo"},"lat":35.85444,"lng":139.96889,"population":340221},{"id":1850181,"name":"Tokorozawa","timezone":{"dstOffset":9,"gmtOffset":9,"timeZoneId":"Asia/Tokyo"},"lat":35.79916,"lng":139.46903,"population":339435},{"id":1859740,"name":"Kawagoe","timezone":{"dstOffset":9,"gmtOffset":9,"timeZoneId":"Asia/Tokyo"},"lat":35.90861,"lng":139.48528,"population":337931},{"id":1859146,"name":"Kōchi-shi","timezone":{"dstOffset":9,"gmtOffset":9,"timeZoneId":"Asia/Tokyo"},"lat":33.55972,"lng":133.53111,"population":335570},{"id":1851100,"name":"Takamatsu","timezone":{"dstOffset":9,"gmtOffset":9,"timeZoneId":"Asia/Tokyo"},"lat":34.34028,"lng":134.04333,"population":334223},{"id":2113719,"name":"Akita Shi","timezone":{"dstOffset":9,"gmtOffset":9,"timeZoneId":"Asia/Tokyo"},"lat":39.71806,"lng":140.10333,"population":325837},{"id":1849876,"name":"Toyama-shi","timezone":{"dstOffset":9,"gmtOffset":9,"timeZoneId":"Asia/Tokyo"},"lat":36.69528,"lng":137.21139,"population":325532},{"id":2113126,"name":"Akita","timezone":{"dstOffset":9,"gmtOffset":9,"timeZoneId":"Asia/Tokyo"},"lat":39.71667,"lng":140.11667,"population":320069},{"id":1858729,"name":"Koshigaya","timezone":{"dstOffset":9,"gmtOffset":9,"timeZoneId":"Asia/Tokyo"},"lat":35.88333,"lng":139.78333,"population":317437},{"id":1856717,"name":"Miyazaki-shi","timezone":{"dstOffset":9,"gmtOffset":9,"timeZoneId":"Asia/Tokyo"},"lat":31.91111,"lng":131.42389,"population":311203},{"id":1856035,"name":"Naha","timezone":{"dstOffset":9,"gmtOffset":9,"timeZoneId":"Asia/Tokyo"},"lat":26.2125,"lng":127.68111,"population":300795},{"id":1859891,"name":"Kasugai","timezone":{"dstOffset":9,"gmtOffset":9,"timeZoneId":"Asia/Tokyo"},"lat":35.24762,"lng":136.97229,"population":298589},{"id":2130658,"name":"Aomori","timezone":{"dstOffset":9,"gmtOffset":9,"timeZoneId":"Asia/Tokyo"},"lat":40.82444,"lng":140.74,"population":298394},{"id":1853574,"name":"Ōtsu","timezone":{"dstOffset":9,"gmtOffset":9,"timeZoneId":"Asia/Tokyo"},"lat":35.00444,"lng":135.86833,"population":298164},{"id":1847966,"name":"Akashi","timezone":{"dstOffset":9,"gmtOffset":9,"timeZoneId":"Asia/Tokyo"},"lat":34.63333,"lng":134.98333,"population":297279},{"id":1848373,"name":"Yokkaichi","timezone":{"dstOffset":9,"gmtOffset":9,"timeZoneId":"Asia/Tokyo"},"lat":34.96667,"lng":136.61667,"population":295841},{"id":2111834,"name":"Morioka","timezone":{"dstOffset":9,"gmtOffset":9,"timeZoneId":"Asia/Tokyo"},"lat":39.70361,"lng":141.1525,"population":295172},{"id":2112923,"name":"Fukushima-shi","timezone":{"dstOffset":9,"gmtOffset":9,"timeZoneId":"Asia/Tokyo"},"lat":37.75,"lng":140.46778,"population":294237},{"id":2112664,"name":"Ichihara","timezone":{"dstOffset":9,"gmtOffset":9,"timeZoneId":"Asia/Tokyo"},"lat":35.51667,"lng":140.08333,"population":283531},{"id":1857843,"name":"Maebashi","timezone":{"dstOffset":9,"gmtOffset":9,"timeZoneId":"Asia/Tokyo"},"lat":36.39111,"lng":139.06083,"population":282711},{"id":1861949,"name":"Ichinomiya","timezone":{"dstOffset":9,"gmtOffset":9,"timeZoneId":"Asia/Tokyo"},"lat":35.3,"lng":136.8,"population":280331},{"id":2130188,"name":"Hakodate","timezone":{"dstOffset":9,"gmtOffset":9,"timeZoneId":"Asia/Tokyo"},"lat":41.77583,"lng":140.73667,"population":275730},{"id":1862033,"name":"Ibaraki","timezone":{"dstOffset":9,"gmtOffset":9,"timeZoneId":"Asia/Tokyo"},"lat":34.81641,"lng":135.56828,"population":273992},{"id":1848522,"name":"Yao","timezone":{"dstOffset":9,"gmtOffset":9,"timeZoneId":"Asia/Tokyo"},"lat":34.61667,"lng":135.6,"population":273213},{"id":1860704,"name":"Kakogawa","timezone":{"dstOffset":9,"gmtOffset":9,"timeZoneId":"Asia/Tokyo"},"lat":34.76943,"lng":134.82905,"population":271634},{"id":1850158,"name":"Tokushima","timezone":{"dstOffset":9,"gmtOffset":9,"timeZoneId":"Asia/Tokyo"},"lat":34.06583,"lng":134.55944,"population":267345},{"id":1862462,"name":"Hiratsuka","timezone":{"dstOffset":9,"gmtOffset":9,"timeZoneId":"Asia/Tokyo"},"lat":35.32306,"lng":139.34222,"population":259052},{"id":2110556,"name":"Yamagata-shi","timezone":{"dstOffset":9,"gmtOffset":9,"timeZoneId":"Asia/Tokyo"},"lat":38.24056,"lng":140.36333,"population":254538},{"id":1863985,"name":"Fukui-shi","timezone":{"dstOffset":9,"gmtOffset":9,"timeZoneId":"Asia/Tokyo"},"lat":36.06443,"lng":136.22257,"population":248707},{"id":2111901,"name":"Mito-shi","timezone":{"dstOffset":9,"gmtOffset":9,"timeZoneId":"Asia/Tokyo"},"lat":36.34139,"lng":140.44667,"population":246538},{"id":1852225,"name":"Shimonoseki","timezone":{"dstOffset":9,"gmtOffset":9,"timeZoneId":"Asia/Tokyo"},"lat":33.95,"lng":130.95,"population":245786},{"id":1851002,"name":"Takasaki","timezone":{"dstOffset":9,"gmtOffset":9,"timeZoneId":"Asia/Tokyo"},"lat":36.33333,"lng":139.01667,"population":240857},{"id":1864134,"name":"Fuji","timezone":{"dstOffset":9,"gmtOffset":9,"timeZoneId":"Asia/Tokyo"},"lat":35.16667,"lng":138.68333,"population":240014},{"id":2130203,"name":"Hachinohe","timezone":{"dstOffset":9,"gmtOffset":9,"timeZoneId":"Asia/Tokyo"},"lat":40.5,"lng":141.5,"population":239046},{"id":6697563,"name":"Neyagawa","timezone":{"dstOffset":9,"gmtOffset":9,"timeZoneId":"Asia/Tokyo"},"lat":34.76615,"lng":135.62759,"population":238549},{"id":1858088,"name":"Kurume","timezone":{"dstOffset":9,"gmtOffset":9,"timeZoneId":"Asia/Tokyo"},"lat":33.31667,"lng":130.51667,"population":238197},{"id":1852899,"name":"Sasebo","timezone":{"dstOffset":9,"gmtOffset":9,"timeZoneId":"Asia/Tokyo"},"lat":33.15917,"lng":129.72278,"population":237444},{"id":1864624,"name":"Chigasaki","timezone":{"dstOffset":9,"gmtOffset":9,"timeZoneId":"Asia/Tokyo"},"lat":35.32611,"lng":139.40389,"population":231657},{"id":1851604,"name":"Sōka","timezone":{"dstOffset":9,"gmtOffset":9,"timeZoneId":"Asia/Tokyo"},"lat":35.82028,"lng":139.80444,"population":231445},{"id":1847963,"name":"Atsugi","timezone":{"dstOffset":9,"gmtOffset":9,"timeZoneId":"Asia/Tokyo"},"lat":35.43889,"lng":139.35972,"population":229199},{"id":1857144,"name":"Minami-rinkan","timezone":{"dstOffset":9,"gmtOffset":9,"timeZoneId":"Asia/Tokyo"},"lat":35.48333,"lng":139.45,"population":224015},{"id":1851012,"name":"Takarazuka","timezone":{"dstOffset":9,"gmtOffset":9,"timeZoneId":"Asia/Tokyo"},"lat":34.79936,"lng":135.35697,"population":219789},{"id":1865714,"name":"Ageo","timezone":{"dstOffset":9,"gmtOffset":9,"timeZoneId":"Asia/Tokyo"},"lat":35.97145,"lng":139.61382,"population":219401},{"id":1864518,"name":"Chōfugaoka","timezone":{"dstOffset":9,"gmtOffset":9,"timeZoneId":"Asia/Tokyo"},"lat":35.65924,"lng":139.54837,"population":212977},{"id":1857519,"name":"Matsumoto","timezone":{"dstOffset":9,"gmtOffset":9,"timeZoneId":"Asia/Tokyo"},"lat":36.23333,"lng":137.96667,"population":210667},{"id":1859884,"name":"Kasukabe","timezone":{"dstOffset":9,"gmtOffset":9,"timeZoneId":"Asia/Tokyo"},"lat":35.98122,"lng":139.74424,"population":206915},{"id":1859383,"name":"Kishiwada","timezone":{"dstOffset":9,"gmtOffset":9,"timeZoneId":"Asia/Tokyo"},"lat":34.46667,"lng":135.36667,"population":205561},{"id":1854902,"name":"Numazu","timezone":{"dstOffset":9,"gmtOffset":9,"timeZoneId":"Asia/Tokyo"},"lat":35.1,"lng":138.86667,"population":204318},{"id":6825489,"name":"Jōetsu","timezone":{"dstOffset":9,"gmtOffset":9,"timeZoneId":"Asia/Tokyo"},"lat":37.14828,"lng":138.23642,"population":204137},{"id":1854747,"name":"Odawara","timezone":{"dstOffset":9,"gmtOffset":9,"timeZoneId":"Asia/Tokyo"},"lat":35.25556,"lng":139.15972,"population":203035},{"id":1858296,"name":"Kure","timezone":{"dstOffset":9,"gmtOffset":9,"timeZoneId":"Asia/Tokyo"},"lat":34.23222,"lng":132.56658,"population":196624},{"id":1856199,"name":"Nagaoka","timezone":{"dstOffset":9,"gmtOffset":9,"timeZoneId":"Asia/Tokyo"},"lat":37.45,"lng":138.85,"population":195318},{"id":1850692,"name":"Nishi-Tokyo-shi","timezone":{"dstOffset":9,"gmtOffset":9,"timeZoneId":"Asia/Tokyo"},"lat":35.72526,"lng":139.5383,"population":195164},{"id":1861310,"name":"Itami","timezone":{"dstOffset":9,"gmtOffset":9,"timeZoneId":"Asia/Tokyo"},"lat":34.78427,"lng":135.40126,"population":193524},{"id":1849372,"name":"Uji","timezone":{"dstOffset":9,"gmtOffset":9,"timeZoneId":"Asia/Tokyo"},"lat":34.89044,"lng":135.80324,"population":192925},{"id":1851348,"name":"Suzuka","timezone":{"dstOffset":9,"gmtOffset":9,"timeZoneId":"Asia/Tokyo"},"lat":34.88333,"lng":136.58333,"population":191477},{"id":1859100,"name":"Kofu","timezone":{"dstOffset":9,"gmtOffset":9,"timeZoneId":"Asia/Tokyo"},"lat":35.66389,"lng":138.56833,"population":190000},{"id":1861107,"name":"Izumi","timezone":{"dstOffset":9,"gmtOffset":9,"timeZoneId":"Asia/Tokyo"},"lat":34.48333,"lng":135.43333,"population":189085},{"id":2112708,"name":"Hitachi","timezone":{"dstOffset":9,"gmtOffset":9,"timeZoneId":"Asia/Tokyo"},"lat":36.6,"lng":140.65,"population":186307},{"id":2129376,"name":"Kushiro","timezone":{"dstOffset":9,"gmtOffset":9,"timeZoneId":"Asia/Tokyo"},"lat":42.975,"lng":144.37472,"population":183612},{"id":1856942,"name":"Mitaka-shi","timezone":{"dstOffset":9,"gmtOffset":9,"timeZoneId":"Asia/Tokyo"},"lat":35.68351,"lng":139.55963,"population":182901},{"id":2111220,"name":"Sakura","timezone":{"dstOffset":9,"gmtOffset":9,"timeZoneId":"Asia/Tokyo"},"lat":35.71667,"lng":140.23333,"population":182549},{"id":1860437,"name":"Kamirenjaku","timezone":{"dstOffset":9,"gmtOffset":9,"timeZoneId":"Asia/Tokyo"},"lat":35.70034,"lng":139.55665,"population":178739},{"id":1865294,"name":"Anjo","timezone":{"dstOffset":9,"gmtOffset":9,"timeZoneId":"Asia/Tokyo"},"lat":34.95828,"lng":137.08054,"population":178402},{"id":2110683,"name":"Tsukuba","timezone":{"dstOffset":9,"gmtOffset":9,"timeZoneId":"Asia/Tokyo"},"lat":36.2,"lng":140.1,"population":175589},{"id":2130057,"name":"Hirosaki","timezone":{"dstOffset":9,"gmtOffset":9,"timeZoneId":"Asia/Tokyo"},"lat":40.59306,"lng":140.4725,"population":174972},{"id":2127733,"name":"Tomakomai","timezone":{"dstOffset":9,"gmtOffset":9,"timeZoneId":"Asia/Tokyo"},"lat":42.63694,"lng":141.60333,"population":174806},{"id":1863431,"name":"Hadano","timezone":{"dstOffset":9,"gmtOffset":9,"timeZoneId":"Asia/Tokyo"},"lat":35.37111,"lng":139.22361,"population":174281},{"id":2128815,"name":"Obihiro","timezone":{"dstOffset":9,"gmtOffset":9,"timeZoneId":"Asia/Tokyo"},"lat":42.91722,"lng":143.20444,"population":173890},{"id":1849498,"name":"Ube","timezone":{"dstOffset":9,"gmtOffset":9,"timeZoneId":"Asia/Tokyo"},"lat":33.94306,"lng":131.25111,"population":173733},{"id":1862599,"name":"Hino","timezone":{"dstOffset":9,"gmtOffset":9,"timeZoneId":"Asia/Tokyo"},"lat":35.67306,"lng":139.40028,"population":171777},{"id":1851032,"name":"Takaoka","timezone":{"dstOffset":9,"gmtOffset":9,"timeZoneId":"Asia/Tokyo"},"lat":36.75,"lng":137.01667,"population":170077},{"id":1860672,"name":"Kamakura","timezone":{"dstOffset":9,"gmtOffset":9,"timeZoneId":"Asia/Tokyo"},"lat":35.30889,"lng":139.55028,"population":166016},{"id":1853303,"name":"Saga-shi","timezone":{"dstOffset":9,"gmtOffset":9,"timeZoneId":"Asia/Tokyo"},"lat":33.24932,"lng":130.2988,"population":165236},{"id":1849796,"name":"Tsu","timezone":{"dstOffset":9,"gmtOffset":9,"timeZoneId":"Asia/Tokyo"},"lat":34.73028,"lng":136.50861,"population":163461},{"id":1907146,"name":"Sayama","timezone":{"dstOffset":9,"gmtOffset":9,"timeZoneId":"Asia/Tokyo"},"lat":35.85295,"lng":139.41212,"population":160843},{"id":1859675,"name":"Kawanishi","timezone":{"dstOffset":9,"gmtOffset":9,"timeZoneId":"Asia/Tokyo"},"lat":34.81667,"lng":135.41667,"population":160520},{"id":1853483,"name":"Oyama","timezone":{"dstOffset":9,"gmtOffset":9,"timeZoneId":"Asia/Tokyo"},"lat":36.3,"lng":139.8,"population":159936},{"id":1865005,"name":"Ashikaga","timezone":{"dstOffset":9,"gmtOffset":9,"timeZoneId":"Asia/Tokyo"},"lat":36.33333,"lng":139.45,"population":159671},{"id":1857550,"name":"Matsue-shi","timezone":{"dstOffset":9,"gmtOffset":9,"timeZoneId":"Asia/Tokyo"},"lat":35.47222,"lng":133.05056,"population":156811},{"id":6822096,"name":"Hitachi-Naka","timezone":{"dstOffset":9,"gmtOffset":9,"timeZoneId":"Asia/Tokyo"},"lat":36.39659,"lng":140.53479,"population":156811},{"id":1856184,"name":"Nagareyama","timezone":{"dstOffset":9,"gmtOffset":9,"timeZoneId":"Asia/Tokyo"},"lat":35.8563,"lng":139.90266,"population":156000},{"id":2112312,"name":"Katsuta","timezone":{"dstOffset":9,"gmtOffset":9,"timeZoneId":"Asia/Tokyo"},"lat":36.38333,"lng":140.53333,"population":155968},{"id":1858428,"name":"Kumagaya","timezone":{"dstOffset":9,"gmtOffset":9,"timeZoneId":"Asia/Tokyo"},"lat":36.13497,"lng":139.39004,"population":155813},{"id":1849892,"name":"Tottori-shi","timezone":{"dstOffset":9,"gmtOffset":9,"timeZoneId":"Asia/Tokyo"},"lat":35.5,"lng":134.23333,"population":154098},{"id":1853677,"name":"Ōta","timezone":{"dstOffset":9,"gmtOffset":9,"timeZoneId":"Asia/Tokyo"},"lat":36.3,"lng":139.36667,"population":152104},{"id":1858926,"name":"Komaki","timezone":{"dstOffset":9,"gmtOffset":9,"timeZoneId":"Asia/Tokyo"},"lat":35.28333,"lng":136.91667,"population":151025},{"id":1854703,"name":"Ōgaki","timezone":{"dstOffset":9,"gmtOffset":9,"timeZoneId":"Asia/Tokyo"},"lat":35.35,"lng":136.61667,"population":150570},{"id":7279570,"name":"Higashimurayama-shi","timezone":{"dstOffset":9,"gmtOffset":9,"timeZoneId":"Asia/Tokyo"},"lat":35.75459,"lng":139.46852,"population":150556},{"id":1854162,"name":"Ōme","timezone":{"dstOffset":9,"gmtOffset":9,"timeZoneId":"Asia/Tokyo"},"lat":35.78389,"lng":139.24306,"population":149323},{"id":1856584,"name":"Moriguchi","timezone":{"dstOffset":9,"gmtOffset":9,"timeZoneId":"Asia/Tokyo"},"lat":34.73333,"lng":135.56667,"population":148350},{"id":1848689,"name":"Yamaguchi","timezone":{"dstOffset":9,"gmtOffset":9,"timeZoneId":"Asia/Tokyo"},"lat":34.18583,"lng":131.47139,"population":145515},{"id":2128574,"name":"Otaru","timezone":{"dstOffset":9,"gmtOffset":9,"timeZoneId":"Asia/Tokyo"},"lat":43.18944,"lng":141.00222,"population":143792},{"id":1849186,"name":"Urayasu","timezone":{"dstOffset":9,"gmtOffset":9,"timeZoneId":"Asia/Tokyo"},"lat":35.67056,"lng":139.88861,"population":143758},{"id":1848277,"name":"Yonago","timezone":{"dstOffset":9,"gmtOffset":9,"timeZoneId":"Asia/Tokyo"},"lat":35.43333,"lng":133.33333,"population":141368},{"id":1860034,"name":"Kariya","timezone":{"dstOffset":9,"gmtOffset":9,"timeZoneId":"Asia/Tokyo"},"lat":34.98333,"lng":136.98333,"population":139159},{"id":1856367,"name":"Musashino","timezone":{"dstOffset":9,"gmtOffset":9,"timeZoneId":"Asia/Tokyo"},"lat":35.70611,"lng":139.55944,"population":137479},{"id":1848004,"name":"Zama","timezone":{"dstOffset":9,"gmtOffset":9,"timeZoneId":"Asia/Tokyo"},"lat":35.48889,"lng":139.38861,"population":134671},{"id":1852663,"name":"Seto","timezone":{"dstOffset":9,"gmtOffset":9,"timeZoneId":"Asia/Tokyo"},"lat":35.23333,"lng":137.1,"population":134246},{"id":2130404,"name":"Ebetsu","timezone":{"dstOffset":9,"gmtOffset":9,"timeZoneId":"Asia/Tokyo"},"lat":43.10806,"lng":141.55056,"population":133953},{"id":1850034,"name":"Tondabayashi","timezone":{"dstOffset":9,"gmtOffset":9,"timeZoneId":"Asia/Tokyo"},"lat":34.50065,"lng":135.60211,"population":132873},{"id":1864132,"name":"Fujieda","timezone":{"dstOffset":9,"gmtOffset":9,"timeZoneId":"Asia/Tokyo"},"lat":34.86667,"lng":138.26667,"population":132859},{"id":1853008,"name":"Sandachō","timezone":{"dstOffset":9,"gmtOffset":9,"timeZoneId":"Asia/Tokyo"},"lat":34.88444,"lng":135.22694,"population":132858},{"id":1860735,"name":"Kakamigahara","timezone":{"dstOffset":9,"gmtOffset":9,"timeZoneId":"Asia/Tokyo"},"lat":35.41667,"lng":136.86667,"population":132241},{"id":1854083,"name":"Omuta","timezone":{"dstOffset":9,"gmtOffset":9,"timeZoneId":"Asia/Tokyo"},"lat":33.03333,"lng":130.45,"population":131974},{"id":2113164,"name":"Abiko","timezone":{"dstOffset":9,"gmtOffset":9,"timeZoneId":"Asia/Tokyo"},"lat":35.86667,"lng":140.01667,"population":131771},{"id":1860871,"name":"Kadoma","timezone":{"dstOffset":9,"gmtOffset":9,"timeZoneId":"Asia/Tokyo"},"lat":34.7381,"lng":135.57442,"population":131727},{"id":1856775,"name":"Miyakonojō","timezone":{"dstOffset":9,"gmtOffset":9,"timeZoneId":"Asia/Tokyo"},"lat":31.73333,"lng":131.06667,"population":130994},{"id":1857568,"name":"Matsubara","timezone":{"dstOffset":9,"gmtOffset":9,"timeZoneId":"Asia/Tokyo"},"lat":34.56667,"lng":135.55,"population":130855},{"id":1861436,"name":"Isesaki","timezone":{"dstOffset":9,"gmtOffset":9,"timeZoneId":"Asia/Tokyo"},"lat":36.31667,"lng":139.2,"population":130692},{"id":1864416,"name":"Daitōchō","timezone":{"dstOffset":9,"gmtOffset":9,"timeZoneId":"Asia/Tokyo"},"lat":34.71378,"lng":135.62033,"population":129521},{"id":1857046,"name":"Mino","timezone":{"dstOffset":9,"gmtOffset":9,"timeZoneId":"Asia/Tokyo"},"lat":34.82691,"lng":135.47057,"population":129127},{"id":1907299,"name":"Asaka","timezone":{"dstOffset":9,"gmtOffset":9,"timeZoneId":"Asia/Tokyo"},"lat":35.80472,"lng":139.60194,"population":128058},{"id":1858067,"name":"Kusatsu","timezone":{"dstOffset":9,"gmtOffset":9,"timeZoneId":"Asia/Tokyo"},"lat":35.01667,"lng":135.96667,"population":127680},{"id":1849429,"name":"Ueda, Nagano","timezone":{"dstOffset":9,"gmtOffset":9,"timeZoneId":"Asia/Tokyo"},"lat":36.40265,"lng":138.28161,"population":126606},{"id":1894616,"name":"Okinawa","timezone":{"dstOffset":9,"gmtOffset":9,"timeZoneId":"Asia/Tokyo"},"lat":26.33583,"lng":127.80139,"population":125483},{"id":1864750,"name":"Beppu","timezone":{"dstOffset":9,"gmtOffset":9,"timeZoneId":"Asia/Tokyo"},"lat":33.27945,"lng":131.49751,"population":125065},{"id":1859951,"name":"Kashihara-shi","timezone":{"dstOffset":9,"gmtOffset":9,"timeZoneId":"Asia/Tokyo"},"lat":34.50896,"lng":135.7929,"population":124521},{"id":1855425,"name":"Niihama","timezone":{"dstOffset":9,"gmtOffset":9,"timeZoneId":"Asia/Tokyo"},"lat":33.96047,"lng":133.30522,"population":123059},{"id":1859393,"name":"Kisarazu","timezone":{"dstOffset":9,"gmtOffset":9,"timeZoneId":"Asia/Tokyo"},"lat":35.37472,"lng":139.9225,"population":122524},{"id":1855095,"name":"Nobeoka","timezone":{"dstOffset":9,"gmtOffset":9,"timeZoneId":"Asia/Tokyo"},"lat":32.58333,"lng":131.66667,"population":121949},{"id":1864105,"name":"Fujinomiya","timezone":{"dstOffset":9,"gmtOffset":9,"timeZoneId":"Asia/Tokyo"},"lat":35.21667,"lng":138.61667,"population":121515},{"id":1855078,"name":"Noda","timezone":{"dstOffset":9,"gmtOffset":9,"timeZoneId":"Asia/Tokyo"},"lat":35.94111,"lng":139.85806,"population":121411},{"id":1848774,"name":"Yaizu","timezone":{"dstOffset":9,"gmtOffset":9,"timeZoneId":"Asia/Tokyo"},"lat":34.86877,"lng":138.31952,"population":121057},{"id":1849845,"name":"Toyokawa","timezone":{"dstOffset":9,"gmtOffset":9,"timeZoneId":"Asia/Tokyo"},"lat":34.81667,"lng":137.4,"population":120537},{"id":1907301,"name":"Shimotoda","timezone":{"dstOffset":9,"gmtOffset":9,"timeZoneId":"Asia/Tokyo"},"lat":35.81251,"lng":139.6856,"population":118731},{"id":1858964,"name":"Kokubunji","timezone":{"dstOffset":9,"gmtOffset":9,"timeZoneId":"Asia/Tokyo"},"lat":35.70222,"lng":139.47556,"population":118682},{"id":1861749,"name":"Ikoma","timezone":{"dstOffset":9,"gmtOffset":9,"timeZoneId":"Asia/Tokyo"},"lat":34.68333,"lng":135.7,"population":117601},{"id":2112576,"name":"Ishinomaki","timezone":{"dstOffset":9,"gmtOffset":9,"timeZoneId":"Asia/Tokyo"},"lat":38.41667,"lng":141.3,"population":117233},{"id":1862302,"name":"Hōfu","timezone":{"dstOffset":9,"gmtOffset":9,"timeZoneId":"Asia/Tokyo"},"lat":34.05,"lng":131.56667,"population":116925},{"id":1863209,"name":"Handa","timezone":{"dstOffset":9,"gmtOffset":9,"timeZoneId":"Asia/Tokyo"},"lat":34.88333,"lng":136.93333,"population":116119},{"id":1856977,"name":"Mishima","timezone":{"dstOffset":9,"gmtOffset":9,"timeZoneId":"Asia/Tokyo"},"lat":35.11667,"lng":138.91667,"population":113479},{"id":2129537,"name":"Kitami","timezone":{"dstOffset":9,"gmtOffset":9,"timeZoneId":"Asia/Tokyo"},"lat":43.80306,"lng":143.89083,"population":113137},{"id":1862636,"name":"Hikone","timezone":{"dstOffset":9,"gmtOffset":9,"timeZoneId":"Asia/Tokyo"},"lat":35.25,"lng":136.25,"population":110925},{"id":1859405,"name":"Kiryū","timezone":{"dstOffset":9,"gmtOffset":9,"timeZoneId":"Asia/Tokyo"},"lat":36.4,"lng":139.33333,"population":110219},{"id":1858910,"name":"Komatsu","timezone":{"dstOffset":9,"gmtOffset":9,"timeZoneId":"Asia/Tokyo"},"lat":36.40263,"lng":136.45088,"population":109045},{"id":1861164,"name":"Iwatsuki","timezone":{"dstOffset":9,"gmtOffset":9,"timeZoneId":"Asia/Tokyo"},"lat":35.95225,"lng":139.68502,"population":108833},{"id":1851193,"name":"Tajimi","timezone":{"dstOffset":9,"gmtOffset":9,"timeZoneId":"Asia/Tokyo"},"lat":35.31667,"lng":137.13333,"population":107818},{"id":1861864,"name":"Iida","timezone":{"dstOffset":9,"gmtOffset":9,"timeZoneId":"Asia/Tokyo"},"lat":35.51965,"lng":137.82074,"population":107111},{"id":1864031,"name":"Fukayachō","timezone":{"dstOffset":9,"gmtOffset":9,"timeZoneId":"Asia/Tokyo"},"lat":36.2,"lng":139.28333,"population":106595},{"id":1848445,"name":"Yatsushiro","timezone":{"dstOffset":9,"gmtOffset":9,"timeZoneId":"Asia/Tokyo"},"lat":32.5045,"lng":130.60066,"population":104341},{"id":1861212,"name":"Iwakuni","timezone":{"dstOffset":9,"gmtOffset":9,"timeZoneId":"Asia/Tokyo"},"lat":34.16297,"lng":132.22,"population":104004},{"id":1861449,"name":"Isehara","timezone":{"dstOffset":9,"gmtOffset":9,"timeZoneId":"Asia/Tokyo"},"lat":35.39056,"lng":139.30778,"population":103401},{"id":1855189,"name":"Nishio","timezone":{"dstOffset":9,"gmtOffset":9,"timeZoneId":"Asia/Tokyo"},"lat":34.86667,"lng":137.05,"population":103337},{"id":1861602,"name":"Inazawa","timezone":{"dstOffset":9,"gmtOffset":9,"timeZoneId":"Asia/Tokyo"},"lat":35.25,"lng":136.78333,"population":102130},{"id":1850152,"name":"Tokuyama","timezone":{"dstOffset":9,"gmtOffset":9,"timeZoneId":"Asia/Tokyo"},"lat":34.05,"lng":131.81667,"population":101133},{"id":2111684,"name":"Narita","timezone":{"dstOffset":9,"gmtOffset":9,"timeZoneId":"Asia/Tokyo"},"lat":35.78333,"lng":140.31667,"population":100641},{"id":1853140,"name":"Sakata","timezone":{"dstOffset":9,"gmtOffset":9,"timeZoneId":"Asia/Tokyo"},"lat":38.91667,"lng":139.855,"population":100446},{"id":1858836,"name":"Kōnan","timezone":{"dstOffset":9,"gmtOffset":9,"timeZoneId":"Asia/Tokyo"},"lat":35.33165,"lng":136.87042,"population":100389},{"id":1864572,"name":"Chikushino-shi","timezone":{"dstOffset":9,"gmtOffset":9,"timeZoneId":"Asia/Tokyo"},"lat":33.49631,"lng":130.5156,"population":100353},{"id":1849563,"name":"Tsuruoka","timezone":{"dstOffset":9,"gmtOffset":9,"timeZoneId":"Asia/Tokyo"},"lat":38.72167,"lng":139.82167,"population":99820},{"id":1861795,"name":"Ikeda","timezone":{"dstOffset":9,"gmtOffset":9,"timeZoneId":"Asia/Tokyo"},"lat":34.82208,"lng":135.4298,"population":99476},{"id":1861464,"name":"Isahaya","timezone":{"dstOffset":9,"gmtOffset":9,"timeZoneId":"Asia/Tokyo"},"lat":32.84111,"lng":130.04306,"population":97371},{"id":2111855,"name":"Mobara","timezone":{"dstOffset":9,"gmtOffset":9,"timeZoneId":"Asia/Tokyo"},"lat":35.41667,"lng":140.3,"population":97315},{"id":1861450,"name":"Ise","timezone":{"dstOffset":9,"gmtOffset":9,"timeZoneId":"Asia/Tokyo"},"lat":34.48333,"lng":136.7,"population":97314},{"id":1860635,"name":"Kameoka","timezone":{"dstOffset":9,"gmtOffset":9,"timeZoneId":"Asia/Tokyo"},"lat":35,"lng":135.58333,"population":97181},{"id":1853209,"name":"Sakado","timezone":{"dstOffset":9,"gmtOffset":9,"timeZoneId":"Asia/Tokyo"},"lat":35.95694,"lng":139.38889,"population":96656},{"id":2129101,"name":"Muroran","timezone":{"dstOffset":9,"gmtOffset":9,"timeZoneId":"Asia/Tokyo"},"lat":42.31722,"lng":140.98806,"population":96197},{"id":6822146,"name":"Ōnojō","timezone":{"dstOffset":9,"gmtOffset":9,"timeZoneId":"Asia/Tokyo"},"lat":33.53567,"lng":130.47861,"population":94957},{"id":1860098,"name":"Kanuma","timezone":{"dstOffset":9,"gmtOffset":9,"timeZoneId":"Asia/Tokyo"},"lat":36.55,"lng":139.73333,"population":94903},{"id":2110498,"name":"Yonezawa","timezone":{"dstOffset":9,"gmtOffset":9,"timeZoneId":"Asia/Tokyo"},"lat":37.91,"lng":140.11667,"population":94486},{"id":2112227,"name":"Kitakami","timezone":{"dstOffset":9,"gmtOffset":9,"timeZoneId":"Asia/Tokyo"},"lat":39.28333,"lng":141.11667,"population":93854},{"id":2130452,"name":"Chitose","timezone":{"dstOffset":9,"gmtOffset":9,"timeZoneId":"Asia/Tokyo"},"lat":42.81944,"lng":141.65222,"population":92942},{"id":1860765,"name":"Kaizuka","timezone":{"dstOffset":9,"gmtOffset":9,"timeZoneId":"Asia/Tokyo"},"lat":34.45,"lng":135.35,"population":92632},{"id":1857766,"name":"Maizuru","timezone":{"dstOffset":9,"gmtOffset":9,"timeZoneId":"Asia/Tokyo"},"lat":35.45,"lng":135.33333,"population":92465},{"id":1907307,"name":"Kimitsu","timezone":{"dstOffset":9,"gmtOffset":9,"timeZoneId":"Asia/Tokyo"},"lat":35.32528,"lng":139.89111,"population":92126},{"id":1863627,"name":"Ginowan","timezone":{"dstOffset":9,"gmtOffset":9,"timeZoneId":"Asia/Tokyo"},"lat":26.26265,"lng":127.76147,"population":91800},{"id":1853992,"name":"Onomichi","timezone":{"dstOffset":9,"gmtOffset":9,"timeZoneId":"Asia/Tokyo"},"lat":34.41667,"lng":133.2,"population":90936},{"id":1854093,"name":"Ōmura","timezone":{"dstOffset":9,"gmtOffset":9,"timeZoneId":"Asia/Tokyo"},"lat":32.92139,"lng":129.95389,"population":89918},{"id":1849519,"name":"Tsuyama","timezone":{"dstOffset":9,"gmtOffset":9,"timeZoneId":"Asia/Tokyo"},"lat":35.05215,"lng":133.99885,"population":89717},{"id":1861084,"name":"Izumo","timezone":{"dstOffset":9,"gmtOffset":9,"timeZoneId":"Asia/Tokyo"},"lat":35.36667,"lng":132.76667,"population":89286},{"id":1864985,"name":"Ashiya","timezone":{"dstOffset":9,"gmtOffset":9,"timeZoneId":"Asia/Tokyo"},"lat":34.72807,"lng":135.30264,"population":88573},{"id":1861171,"name":"Iwata","timezone":{"dstOffset":9,"gmtOffset":9,"timeZoneId":"Asia/Tokyo"},"lat":34.7,"lng":137.85,"population":88509},{"id":1858794,"name":"Kōnosu","timezone":{"dstOffset":9,"gmtOffset":9,"timeZoneId":"Asia/Tokyo"},"lat":36.06868,"lng":139.51684,"population":88493},{"id":1856293,"name":"Nabari","timezone":{"dstOffset":9,"gmtOffset":9,"timeZoneId":"Asia/Tokyo"},"lat":34.61667,"lng":136.08333,"population":88128},{"id":2110480,"name":"Yotsukaidō","timezone":{"dstOffset":9,"gmtOffset":9,"timeZoneId":"Asia/Tokyo"},"lat":35.65,"lng":140.16667,"population":86701},{"id":1863293,"name":"Hamakita","timezone":{"dstOffset":9,"gmtOffset":9,"timeZoneId":"Asia/Tokyo"},"lat":34.8,"lng":137.78333,"population":86502},{"id":1863482,"name":"Gyōda","timezone":{"dstOffset":9,"gmtOffset":9,"timeZoneId":"Asia/Tokyo"},"lat":36.14074,"lng":139.46011,"population":86343},{"id":1863183,"name":"Hannō","timezone":{"dstOffset":9,"gmtOffset":9,"timeZoneId":"Asia/Tokyo"},"lat":35.85194,"lng":139.31806,"population":86262},{"id":1859908,"name":"Kashiwazaki","timezone":{"dstOffset":9,"gmtOffset":9,"timeZoneId":"Asia/Tokyo"},"lat":37.36667,"lng":138.55,"population":86183},{"id":2111258,"name":"Ryūgasaki","timezone":{"dstOffset":9,"gmtOffset":9,"timeZoneId":"Asia/Tokyo"},"lat":35.9,"lng":140.18333,"population":85761},{"id":2129870,"name":"Iwamizawa","timezone":{"dstOffset":9,"gmtOffset":9,"timeZoneId":"Asia/Tokyo"},"lat":43.20028,"lng":141.75972,"population":85107},{"id":1860728,"name":"Kakegawa","timezone":{"dstOffset":9,"gmtOffset":9,"timeZoneId":"Asia/Tokyo"},"lat":34.76667,"lng":138.01667,"population":84004},{"id":1863528,"name":"Gotemba","timezone":{"dstOffset":9,"gmtOffset":9,"timeZoneId":"Asia/Tokyo"},"lat":35.3,"lng":138.93333,"population":83794},{"id":2110579,"name":"Yachimata","timezone":{"dstOffset":9,"gmtOffset":9,"timeZoneId":"Asia/Tokyo"},"lat":35.65,"lng":140.31667,"population":83322},{"id":2112319,"name":"Katori-shi","timezone":{"dstOffset":9,"gmtOffset":9,"timeZoneId":"Asia/Tokyo"},"lat":35.89767,"lng":140.49943,"population":83181},{"id":8125829,"name":"Kamigyō-ku","timezone":{"dstOffset":9,"gmtOffset":9,"timeZoneId":"Asia/Tokyo"},"lat":35.02954,"lng":135.75666,"population":83000},{"id":1852984,"name":"Sanjō","timezone":{"dstOffset":9,"gmtOffset":9,"timeZoneId":"Asia/Tokyo"},"lat":37.61667,"lng":138.95,"population":82893},{"id":1852964,"name":"Sano","timezone":{"dstOffset":9,"gmtOffset":9,"timeZoneId":"Asia/Tokyo"},"lat":36.31667,"lng":139.58333,"population":82535},{"id":1860112,"name":"Kanoya","timezone":{"dstOffset":9,"gmtOffset":9,"timeZoneId":"Asia/Tokyo"},"lat":31.38333,"lng":130.85,"population":82335},{"id":1850311,"name":"Tochigi","timezone":{"dstOffset":9,"gmtOffset":9,"timeZoneId":"Asia/Tokyo"},"lat":36.38333,"lng":139.73333,"population":82133},{"id":1850693,"name":"Tanashichō","timezone":{"dstOffset":9,"gmtOffset":9,"timeZoneId":"Asia/Tokyo"},"lat":35.7303,"lng":139.53391,"population":82112},{"id":1857665,"name":"Marugame","timezone":{"dstOffset":9,"gmtOffset":9,"timeZoneId":"Asia/Tokyo"},"lat":34.28333,"lng":133.78333,"population":82090},{"id":1848499,"name":"Yashio-shi","timezone":{"dstOffset":9,"gmtOffset":9,"timeZoneId":"Asia/Tokyo"},"lat":35.82255,"lng":139.83905,"population":81345},{"id":1850559,"name":"Tatebayashi","timezone":{"dstOffset":9,"gmtOffset":9,"timeZoneId":"Asia/Tokyo"},"lat":36.25,"lng":139.53333,"population":81274},{"id":1852607,"name":"Shibata","timezone":{"dstOffset":9,"gmtOffset":9,"timeZoneId":"Asia/Tokyo"},"lat":37.95,"lng":139.33333,"population":80793},{"id":1863693,"name":"Gamagōri","timezone":{"dstOffset":9,"gmtOffset":9,"timeZoneId":"Asia/Tokyo"},"lat":34.83333,"lng":137.23333,"population":80786},{"id":1861095,"name":"Izumiōtsu","timezone":{"dstOffset":9,"gmtOffset":9,"timeZoneId":"Asia/Tokyo"},"lat":34.5,"lng":135.4,"population":80772},{"id":2110729,"name":"Toride","timezone":{"dstOffset":9,"gmtOffset":9,"timeZoneId":"Asia/Tokyo"},"lat":35.9,"lng":140.08333,"population":80716},{"id":1857334,"name":"Mihara","timezone":{"dstOffset":9,"gmtOffset":9,"timeZoneId":"Asia/Tokyo"},"lat":34.4,"lng":133.08333,"population":80387},{"id":2110629,"name":"Ushiku","timezone":{"dstOffset":9,"gmtOffset":9,"timeZoneId":"Asia/Tokyo"},"lat":35.96667,"lng":140.13333,"population":80020},{"id":1859952,"name":"Kashihara","timezone":{"dstOffset":9,"gmtOffset":9,"timeZoneId":"Asia/Tokyo"},"lat":34.58333,"lng":135.61667,"population":79058},{"id":1860063,"name":"Karatsu","timezone":{"dstOffset":9,"gmtOffset":9,"timeZoneId":"Asia/Tokyo"},"lat":33.4425,"lng":129.96972,"population":78330},{"id":1861835,"name":"Iizuka","timezone":{"dstOffset":9,"gmtOffset":9,"timeZoneId":"Asia/Tokyo"},"lat":33.63654,"lng":130.68678,"population":78206},{"id":1854803,"name":"Ōbu","timezone":{"dstOffset":9,"gmtOffset":9,"timeZoneId":"Asia/Tokyo"},"lat":35,"lng":136.96667,"population":77864},{"id":1907300,"name":"Wako","timezone":{"dstOffset":9,"gmtOffset":9,"timeZoneId":"Asia/Tokyo"},"lat":35.78944,"lng":139.62333,"population":77435},{"id":1863018,"name":"Hatsukaichi","timezone":{"dstOffset":9,"gmtOffset":9,"timeZoneId":"Asia/Tokyo"},"lat":34.35,"lng":132.33333,"population":77341},{"id":1849561,"name":"Tsurusaki","timezone":{"dstOffset":9,"gmtOffset":9,"timeZoneId":"Asia/Tokyo"},"lat":33.24528,"lng":131.69166,"population":76968},{"id":2112899,"name":"Furukawa","timezone":{"dstOffset":9,"gmtOffset":9,"timeZoneId":"Asia/Tokyo"},"lat":38.57167,"lng":140.95556,"population":76312},{"id":1852472,"name":"Shimada","timezone":{"dstOffset":9,"gmtOffset":9,"timeZoneId":"Asia/Tokyo"},"lat":34.81667,"lng":138.18333,"population":75781},{"id":1850872,"name":"Takefu","timezone":{"dstOffset":9,"gmtOffset":9,"timeZoneId":"Asia/Tokyo"},"lat":35.90393,"lng":136.16687,"population":75753},{"id":1854371,"name":"Okegawa","timezone":{"dstOffset":9,"gmtOffset":9,"timeZoneId":"Asia/Tokyo"},"lat":36,"lng":139.55722,"population":75062},{"id":1857276,"name":"Miki","timezone":{"dstOffset":9,"gmtOffset":9,"timeZoneId":"Asia/Tokyo"},"lat":34.8,"lng":134.98333,"population":74701},{"id":1861528,"name":"Inuyama","timezone":{"dstOffset":9,"gmtOffset":9,"timeZoneId":"Asia/Tokyo"},"lat":35.37995,"lng":136.94295,"population":73995},{"id":1858445,"name":"Kukichūō","timezone":{"dstOffset":9,"gmtOffset":9,"timeZoneId":"Asia/Tokyo"},"lat":36.06739,"lng":139.67498,"population":73373},{"id":1852736,"name":"Sendai","timezone":{"dstOffset":9,"gmtOffset":9,"timeZoneId":"Asia/Tokyo"},"lat":31.81667,"lng":130.3,"population":73132},{"id":2112823,"name":"Hanamaki","timezone":{"dstOffset":9,"gmtOffset":9,"timeZoneId":"Asia/Tokyo"},"lat":39.38333,"lng":141.11667,"population":73115},{"id":1848439,"name":"Yawata","timezone":{"dstOffset":9,"gmtOffset":9,"timeZoneId":"Asia/Tokyo"},"lat":34.87009,"lng":135.7027,"population":71656},{"id":1861290,"name":"Itō","timezone":{"dstOffset":9,"gmtOffset":9,"timeZoneId":"Asia/Tokyo"},"lat":34.96667,"lng":139.08333,"population":71578},{"id":1859586,"name":"Kazo","timezone":{"dstOffset":9,"gmtOffset":9,"timeZoneId":"Asia/Tokyo"},"lat":36.11667,"lng":139.6,"population":71291},{"id":1848087,"name":"Yukuhashi","timezone":{"dstOffset":9,"gmtOffset":9,"timeZoneId":"Asia/Tokyo"},"lat":33.72873,"lng":130.983,"population":71277},{"id":1850396,"name":"Tenri","timezone":{"dstOffset":9,"gmtOffset":9,"timeZoneId":"Asia/Tokyo"},"lat":34.58333,"lng":135.83333,"population":71052},{"id":7422816,"name":"Dazaifu","timezone":{"dstOffset":9,"gmtOffset":9,"timeZoneId":"Asia/Tokyo"},"lat":33.51278,"lng":130.52389,"population":70587},{"id":1857844,"name":"Maebaru-chūō","timezone":{"dstOffset":9,"gmtOffset":9,"timeZoneId":"Asia/Tokyo"},"lat":33.55916,"lng":130.20148,"population":70339},{"id":1850708,"name":"Tanabe","timezone":{"dstOffset":9,"gmtOffset":9,"timeZoneId":"Asia/Tokyo"},"lat":33.73333,"lng":135.36667,"population":69563},{"id":1863451,"name":"Ōmihachiman","timezone":{"dstOffset":9,"gmtOffset":9,"timeZoneId":"Asia/Tokyo"},"lat":35.12861,"lng":136.0976,"population":69189},{"id":1853081,"name":"Saku","timezone":{"dstOffset":9,"gmtOffset":9,"timeZoneId":"Asia/Tokyo"},"lat":36.21667,"lng":138.48333,"population":68885},{"id":1862912,"name":"Hekinan","timezone":{"dstOffset":9,"gmtOffset":9,"timeZoneId":"Asia/Tokyo"},"lat":34.88333,"lng":136.98333,"population":68872},{"id":2110959,"name":"Sukagawa","timezone":{"dstOffset":9,"gmtOffset":9,"timeZoneId":"Asia/Tokyo"},"lat":37.28333,"lng":140.38333,"population":68790},{"id":1864009,"name":"Fukuchiyama","timezone":{"dstOffset":9,"gmtOffset":9,"timeZoneId":"Asia/Tokyo"},"lat":35.3,"lng":135.11667,"population":68735},{"id":1856569,"name":"Moriyama","timezone":{"dstOffset":9,"gmtOffset":9,"timeZoneId":"Asia/Tokyo"},"lat":35.06667,"lng":135.98333,"population":68584},{"id":1849592,"name":"Tsuruga","timezone":{"dstOffset":9,"gmtOffset":9,"timeZoneId":"Asia/Tokyo"},"lat":35.64547,"lng":136.0558,"population":68482},{"id":1857470,"name":"Matsutō","timezone":{"dstOffset":9,"gmtOffset":9,"timeZoneId":"Asia/Tokyo"},"lat":36.51667,"lng":136.56667,"population":68159},{"id":1850742,"name":"Tamano","timezone":{"dstOffset":9,"gmtOffset":9,"timeZoneId":"Asia/Tokyo"},"lat":34.48333,"lng":133.95,"population":67786},{"id":1849539,"name":"Tsushima","timezone":{"dstOffset":9,"gmtOffset":9,"timeZoneId":"Asia/Tokyo"},"lat":35.16667,"lng":136.71667,"population":67658},{"id":1855757,"name":"Nakatsu","timezone":{"dstOffset":9,"gmtOffset":9,"timeZoneId":"Asia/Tokyo"},"lat":33.59811,"lng":131.1883,"population":67372},{"id":1852003,"name":"Shiojiri","timezone":{"dstOffset":9,"gmtOffset":9,"timeZoneId":"Asia/Tokyo"},"lat":36.1,"lng":137.96667,"population":67159},{"id":1864549,"name":"Chiryū","timezone":{"dstOffset":9,"gmtOffset":9,"timeZoneId":"Asia/Tokyo"},"lat":35,"lng":137.03333,"population":67062},{"id":1850892,"name":"Takayama","timezone":{"dstOffset":9,"gmtOffset":9,"timeZoneId":"Asia/Tokyo"},"lat":36.13333,"lng":137.25,"population":66636},{"id":2110774,"name":"Tōgane","timezone":{"dstOffset":9,"gmtOffset":9,"timeZoneId":"Asia/Tokyo"},"lat":35.55,"lng":140.36667,"population":66332},{"id":1853338,"name":"Sabae","timezone":{"dstOffset":9,"gmtOffset":9,"timeZoneId":"Asia/Tokyo"},"lat":35.94647,"lng":136.18498,"population":66291},{"id":1855410,"name":"Niitsu","timezone":{"dstOffset":9,"gmtOffset":9,"timeZoneId":"Asia/Tokyo"},"lat":37.80024,"lng":139.1224,"population":65910},{"id":1850707,"name":"Tanabe","timezone":{"dstOffset":9,"gmtOffset":9,"timeZoneId":"Asia/Tokyo"},"lat":34.82242,"lng":135.76604,"population":65903},{"id":1860748,"name":"Kashima-shi","timezone":{"dstOffset":9,"gmtOffset":9,"timeZoneId":"Asia/Tokyo"},"lat":35.96536,"lng":140.64474,"population":65814},{"id":2111836,"name":"Mooka","timezone":{"dstOffset":9,"gmtOffset":9,"timeZoneId":"Asia/Tokyo"},"lat":36.43333,"lng":140.01667,"population":65717},{"id":1852502,"name":"Shiki","timezone":{"dstOffset":9,"gmtOffset":9,"timeZoneId":"Asia/Tokyo"},"lat":35.83333,"lng":139.58333,"population":65411},{"id":2110793,"name":"Tendō","timezone":{"dstOffset":9,"gmtOffset":9,"timeZoneId":"Asia/Tokyo"},"lat":38.35361,"lng":140.36972,"population":65393},{"id":1863495,"name":"Gushikawa","timezone":{"dstOffset":9,"gmtOffset":9,"timeZoneId":"Asia/Tokyo"},"lat":26.35937,"lng":127.86735,"population":65251},{"id":1907123,"name":"Hasuda","timezone":{"dstOffset":9,"gmtOffset":9,"timeZoneId":"Asia/Tokyo"},"lat":35.97134,"lng":139.6534,"population":65161},{"id":2128787,"name":"Ōdate","timezone":{"dstOffset":9,"gmtOffset":9,"timeZoneId":"Asia/Tokyo"},"lat":40.27178,"lng":140.55756,"population":64543},{"id":1861699,"name":"Imaichi","timezone":{"dstOffset":9,"gmtOffset":9,"timeZoneId":"Asia/Tokyo"},"lat":36.71667,"lng":139.68333,"population":64323},{"id":1855580,"name":"Narutochō-mitsuishi","timezone":{"dstOffset":9,"gmtOffset":9,"timeZoneId":"Asia/Tokyo"},"lat":34.19933,"lng":134.60932,"population":64082},{"id":1852347,"name":"Shimodate","timezone":{"dstOffset":9,"gmtOffset":9,"timeZoneId":"Asia/Tokyo"},"lat":36.3,"lng":139.98333,"population":63666},{"id":1849904,"name":"Tosu","timezone":{"dstOffset":9,"gmtOffset":9,"timeZoneId":"Asia/Tokyo"},"lat":33.36667,"lng":130.51667,"population":63595},{"id":1864099,"name":"Fujioka","timezone":{"dstOffset":9,"gmtOffset":9,"timeZoneId":"Asia/Tokyo"},"lat":36.24624,"lng":139.07204,"population":63358},{"id":1863945,"name":"Fukuroi","timezone":{"dstOffset":9,"gmtOffset":9,"timeZoneId":"Asia/Tokyo"},"lat":34.75,"lng":137.91667,"population":63045},{"id":2112656,"name":"Ichinoseki","timezone":{"dstOffset":9,"gmtOffset":9,"timeZoneId":"Asia/Tokyo"},"lat":38.91667,"lng":141.13333,"population":62970},{"id":1853066,"name":"Sakurai","timezone":{"dstOffset":9,"gmtOffset":9,"timeZoneId":"Asia/Tokyo"},"lat":34.5,"lng":135.85,"population":62964},{"id":2130054,"name":"Kitahiroshima","timezone":{"dstOffset":9,"gmtOffset":9,"timeZoneId":"Asia/Tokyo"},"lat":42.97583,"lng":141.56722,"population":62370},{"id":1907148,"name":"Fussa","timezone":{"dstOffset":9,"gmtOffset":9,"timeZoneId":"Asia/Tokyo"},"lat":35.73667,"lng":139.32361,"population":62296},{"id":1861641,"name":"Ina","timezone":{"dstOffset":9,"gmtOffset":9,"timeZoneId":"Asia/Tokyo"},"lat":35.82756,"lng":137.95378,"population":62104},{"id":1856243,"name":"Nagahama","timezone":{"dstOffset":9,"gmtOffset":9,"timeZoneId":"Asia/Tokyo"},"lat":35.38333,"lng":136.26667,"population":62089},{"id":1862198,"name":"Honjō","timezone":{"dstOffset":9,"gmtOffset":9,"timeZoneId":"Asia/Tokyo"},"lat":36.2378,"lng":139.19023,"population":61868},{"id":1849414,"name":"Ueno-ebisumachi","timezone":{"dstOffset":9,"gmtOffset":9,"timeZoneId":"Asia/Tokyo"},"lat":34.75856,"lng":136.13108,"population":61598},{"id":1862373,"name":"Hita","timezone":{"dstOffset":9,"gmtOffset":9,"timeZoneId":"Asia/Tokyo"},"lat":33.3213,"lng":130.94098,"population":61481},{"id":1850207,"name":"Toki","timezone":{"dstOffset":9,"gmtOffset":9,"timeZoneId":"Asia/Tokyo"},"lat":35.35,"lng":137.18333,"population":61394},{"id":2111859,"name":"Mizusawa","timezone":{"dstOffset":9,"gmtOffset":9,"timeZoneId":"Asia/Tokyo"},"lat":39.13333,"lng":141.13333,"population":61281},{"id":2112077,"name":"Kuroiso","timezone":{"dstOffset":9,"gmtOffset":9,"timeZoneId":"Asia/Tokyo"},"lat":36.96667,"lng":140.05,"population":61230},{"id":1851125,"name":"Takaishi","timezone":{"dstOffset":9,"gmtOffset":9,"timeZoneId":"Asia/Tokyo"},"lat":34.51667,"lng":135.43333,"population":60511},{"id":1848188,"name":"Yoshikawa","timezone":{"dstOffset":9,"gmtOffset":9,"timeZoneId":"Asia/Tokyo"},"lat":35.88528,"lng":139.83944,"population":60510},{"id":1847968,"name":"Zushi","timezone":{"dstOffset":9,"gmtOffset":9,"timeZoneId":"Asia/Tokyo"},"lat":35.29264,"lng":139.57735,"population":60055},{"id":1859094,"name":"Koga","timezone":{"dstOffset":9,"gmtOffset":9,"timeZoneId":"Asia/Tokyo"},"lat":33.73333,"lng":130.46667,"population":60045},{"id":1856068,"name":"Nago","timezone":{"dstOffset":9,"gmtOffset":9,"timeZoneId":"Asia/Tokyo"},"lat":26.61502,"lng":127.98543,"population":59587},{"id":2111049,"name":"Shiogama","timezone":{"dstOffset":9,"gmtOffset":9,"timeZoneId":"Asia/Tokyo"},"lat":38.31667,"lng":141.03333,"population":59526},{"id":1926020,"name":"Uwajima","timezone":{"dstOffset":9,"gmtOffset":9,"timeZoneId":"Asia/Tokyo"},"lat":33.22375,"lng":132.56001,"population":58971},{"id":2111325,"name":"Ōtawara","timezone":{"dstOffset":9,"gmtOffset":9,"timeZoneId":"Asia/Tokyo"},"lat":36.86667,"lng":140.03333,"population":58888},{"id":1926054,"name":"Saijō","timezone":{"dstOffset":9,"gmtOffset":9,"timeZoneId":"Asia/Tokyo"},"lat":33.91667,"lng":133.18333,"population":58823},{"id":1863173,"name":"Hanyū","timezone":{"dstOffset":9,"gmtOffset":9,"timeZoneId":"Asia/Tokyo"},"lat":36.16667,"lng":139.53333,"population":58686},{"id":1864637,"name":"Chichibu","timezone":{"dstOffset":9,"gmtOffset":9,"timeZoneId":"Asia/Tokyo"},"lat":35.99028,"lng":139.07639,"population":58507},{"id":1859990,"name":"Kasaoka","timezone":{"dstOffset":9,"gmtOffset":9,"timeZoneId":"Asia/Tokyo"},"lat":34.50597,"lng":133.50391,"population":58461},{"id":1859093,"name":"Koga","timezone":{"dstOffset":9,"gmtOffset":9,"timeZoneId":"Asia/Tokyo"},"lat":36.18333,"lng":139.71667,"population":58004},{"id":1861677,"name":"Imarichō-kō","timezone":{"dstOffset":9,"gmtOffset":9,"timeZoneId":"Asia/Tokyo"},"lat":33.27362,"lng":129.87877,"population":57940},{"id":1858972,"name":"Kokubu-matsuki","timezone":{"dstOffset":9,"gmtOffset":9,"timeZoneId":"Asia/Tokyo"},"lat":31.73333,"lng":130.76667,"population":57896},{"id":1851606,"name":"Sōja","timezone":{"dstOffset":9,"gmtOffset":9,"timeZoneId":"Asia/Tokyo"},"lat":34.67534,"lng":133.75091,"population":57469},{"id":2129909,"name":"Ishikari","timezone":{"dstOffset":9,"gmtOffset":9,"timeZoneId":"Asia/Tokyo"},"lat":43.23972,"lng":141.35389,"population":57301},{"id":1861280,"name":"Itoman","timezone":{"dstOffset":9,"gmtOffset":9,"timeZoneId":"Asia/Tokyo"},"lat":26.12647,"lng":127.66918,"population":57184},{"id":1863082,"name":"Hashimoto","timezone":{"dstOffset":9,"gmtOffset":9,"timeZoneId":"Asia/Tokyo"},"lat":34.31667,"lng":135.61667,"population":57115},{"id":1853190,"name":"Sakaidechō","timezone":{"dstOffset":9,"gmtOffset":9,"timeZoneId":"Asia/Tokyo"},"lat":34.32278,"lng":133.8356,"population":57090},{"id":1855066,"name":"Nōgata","timezone":{"dstOffset":9,"gmtOffset":9,"timeZoneId":"Asia/Tokyo"},"lat":33.74051,"lng":130.72263,"population":56821},{"id":1864557,"name":"Chino","timezone":{"dstOffset":9,"gmtOffset":9,"timeZoneId":"Asia/Tokyo"},"lat":35.9944,"lng":138.15428,"population":56567},{"id":2111831,"name":"Moriya","timezone":{"dstOffset":9,"gmtOffset":9,"timeZoneId":"Asia/Tokyo"},"lat":35.93333,"lng":140,"population":56566},{"id":1850108,"name":"Tomigusuku","timezone":{"dstOffset":9,"gmtOffset":9,"timeZoneId":"Asia/Tokyo"},"lat":26.18582,"lng":127.68192,"population":55715},{"id":1861244,"name":"Iwade","timezone":{"dstOffset":9,"gmtOffset":9,"timeZoneId":"Asia/Tokyo"},"lat":34.25,"lng":135.31667,"population":55633},{"id":1865309,"name":"Anan","timezone":{"dstOffset":9,"gmtOffset":9,"timeZoneId":"Asia/Tokyo"},"lat":33.91667,"lng":134.65,"population":55421},{"id":6694821,"name":"Nanto-shi","timezone":{"dstOffset":9,"gmtOffset":9,"timeZoneId":"Asia/Tokyo"},"lat":36.56922,"lng":136.91162,"population":55315},{"id":2111018,"name":"Shiroi","timezone":{"dstOffset":9,"gmtOffset":9,"timeZoneId":"Asia/Tokyo"},"lat":35.8,"lng":140.06667,"population":55314},{"id":1852849,"name":"Satte","timezone":{"dstOffset":9,"gmtOffset":9,"timeZoneId":"Asia/Tokyo"},"lat":36.07254,"lng":139.72615,"population":55286},{"id":1855753,"name":"Nakatsugawa","timezone":{"dstOffset":9,"gmtOffset":9,"timeZoneId":"Asia/Tokyo"},"lat":35.48333,"lng":137.5,"population":55011},{"id":1851368,"name":"Suwa","timezone":{"dstOffset":9,"gmtOffset":9,"timeZoneId":"Asia/Tokyo"},"lat":36.03799,"lng":138.11308,"population":54735},{"id":1862612,"name":"Himi","timezone":{"dstOffset":9,"gmtOffset":9,"timeZoneId":"Asia/Tokyo"},"lat":36.85,"lng":136.98333,"population":54510},{"id":1854384,"name":"Okaya","timezone":{"dstOffset":9,"gmtOffset":9,"timeZoneId":"Asia/Tokyo"},"lat":36.05659,"lng":138.0451,"population":54286},{"id":1851357,"name":"Suzaka","timezone":{"dstOffset":9,"gmtOffset":9,"timeZoneId":"Asia/Tokyo"},"lat":36.65,"lng":138.31667,"population":54022},{"id":2111568,"name":"Ōami","timezone":{"dstOffset":9,"gmtOffset":9,"timeZoneId":"Asia/Tokyo"},"lat":35.51667,"lng":140.31667,"population":53239},{"id":1856456,"name":"Mukō","timezone":{"dstOffset":9,"gmtOffset":9,"timeZoneId":"Asia/Tokyo"},"lat":34.96545,"lng":135.70415,"population":53222},{"id":1863023,"name":"Hatogaya-honchō","timezone":{"dstOffset":9,"gmtOffset":9,"timeZoneId":"Asia/Tokyo"},"lat":35.83314,"lng":139.7425,"population":53062},{"id":1858498,"name":"Kudamatsu","timezone":{"dstOffset":9,"gmtOffset":9,"timeZoneId":"Asia/Tokyo"},"lat":34,"lng":131.86667,"population":52772},{"id":1907125,"name":"Kamifukuoka","timezone":{"dstOffset":9,"gmtOffset":9,"timeZoneId":"Asia/Tokyo"},"lat":35.87076,"lng":139.51393,"population":52323},{"id":2112571,"name":"Ishioka","timezone":{"dstOffset":9,"gmtOffset":9,"timeZoneId":"Asia/Tokyo"},"lat":36.18333,"lng":140.26667,"population":52304},{"id":1865412,"name":"Kariya","timezone":{"dstOffset":9,"gmtOffset":9,"timeZoneId":"Asia/Tokyo"},"lat":34.75136,"lng":134.38734,"population":52015},{"id":2111884,"name":"Miyako","timezone":{"dstOffset":9,"gmtOffset":9,"timeZoneId":"Asia/Tokyo"},"lat":39.64692,"lng":141.94057,"population":51721},{"id":1863713,"name":"Futtsu","timezone":{"dstOffset":9,"gmtOffset":9,"timeZoneId":"Asia/Tokyo"},"lat":35.30528,"lng":139.81861,"population":51650},{"id":1851273,"name":"Tagawa","timezone":{"dstOffset":9,"gmtOffset":9,"timeZoneId":"Asia/Tokyo"},"lat":33.63333,"lng":130.8,"population":51608},{"id":1848096,"name":"Yūki","timezone":{"dstOffset":9,"gmtOffset":9,"timeZoneId":"Asia/Tokyo"},"lat":36.3,"lng":139.88333,"population":51574},{"id":6822217,"name":"Minokamo","timezone":{"dstOffset":9,"gmtOffset":9,"timeZoneId":"Asia/Tokyo"},"lat":35.48199,"lng":137.02166,"population":51543},{"id":1907309,"name":"Miura","timezone":{"dstOffset":9,"gmtOffset":9,"timeZoneId":"Asia/Tokyo"},"lat":35.14,"lng":139.61917,"population":51483},{"id":2128867,"name":"Noshiromachi","timezone":{"dstOffset":9,"gmtOffset":9,"timeZoneId":"Asia/Tokyo"},"lat":40.20382,"lng":140.03934,"population":51079},{"id":1851883,"name":"Shiraoka","timezone":{"dstOffset":9,"gmtOffset":9,"timeZoneId":"Asia/Tokyo"},"lat":36.01839,"lng":139.66034,"population":50974},{"id":2112232,"name":"Kitaibaraki","timezone":{"dstOffset":9,"gmtOffset":9,"timeZoneId":"Asia/Tokyo"},"lat":36.78671,"lng":140.74901,"population":50843},{"id":1864155,"name":"Fuchūchō","timezone":{"dstOffset":9,"gmtOffset":9,"timeZoneId":"Asia/Tokyo"},"lat":34.5735,"lng":133.23513,"population":50746},{"id":1854530,"name":"Ōi","timezone":{"dstOffset":9,"gmtOffset":9,"timeZoneId":"Asia/Tokyo"},"lat":35.85091,"lng":139.51998,"population":50593},{"id":1854026,"name":"Ono","timezone":{"dstOffset":9,"gmtOffset":9,"timeZoneId":"Asia/Tokyo"},"lat":34.85,"lng":134.93333,"population":50230},{"id":1850523,"name":"Tateyama","timezone":{"dstOffset":9,"gmtOffset":9,"timeZoneId":"Asia/Tokyo"},"lat":34.98333,"lng":139.86667,"population":50064},{"id":1851504,"name":"Sugito","timezone":{"dstOffset":9,"gmtOffset":9,"timeZoneId":"Asia/Tokyo"},"lat":36.03107,"lng":139.72636,"population":49817},{"id":1850185,"name":"Tokoname","timezone":{"dstOffset":9,"gmtOffset":9,"timeZoneId":"Asia/Tokyo"},"lat":34.88333,"lng":136.85,"population":49554},{"id":1850091,"name":"Tomioka","timezone":{"dstOffset":9,"gmtOffset":9,"timeZoneId":"Asia/Tokyo"},"lat":36.25411,"lng":138.89813,"population":49281},{"id":2127878,"name":"Mutsu","timezone":{"dstOffset":9,"gmtOffset":9,"timeZoneId":"Asia/Tokyo"},"lat":41.28944,"lng":141.21694,"population":49220},{"id":2131612,"name":"Goshogawara","timezone":{"dstOffset":9,"gmtOffset":9,"timeZoneId":"Asia/Tokyo"},"lat":40.80444,"lng":140.44139,"population":49110},{"id":1853237,"name":"Saiki","timezone":{"dstOffset":9,"gmtOffset":9,"timeZoneId":"Asia/Tokyo"},"lat":32.95,"lng":131.9,"population":49065},{"id":1857594,"name":"Masuda","timezone":{"dstOffset":9,"gmtOffset":9,"timeZoneId":"Asia/Tokyo"},"lat":34.66667,"lng":131.85,"population":48576},{"id":1854979,"name":"Nonoichi","timezone":{"dstOffset":9,"gmtOffset":9,"timeZoneId":"Asia/Tokyo"},"lat":36.53333,"lng":136.61667,"population":48354},{"id":1858301,"name":"Kurayoshi","timezone":{"dstOffset":9,"gmtOffset":9,"timeZoneId":"Asia/Tokyo"},"lat":35.43333,"lng":133.81667,"population":48347},{"id":1852595,"name":"Shibukawa","timezone":{"dstOffset":9,"gmtOffset":9,"timeZoneId":"Asia/Tokyo"},"lat":36.48333,"lng":139,"population":48322},{"id":2113115,"name":"Ami","timezone":{"dstOffset":9,"gmtOffset":9,"timeZoneId":"Asia/Tokyo"},"lat":36.03333,"lng":140.2,"population":48256},{"id":1865290,"name":"Annaka","timezone":{"dstOffset":9,"gmtOffset":9,"timeZoneId":"Asia/Tokyo"},"lat":36.3301,"lng":138.89585,"population":48235},{"id":1861207,"name":"Iwakura","timezone":{"dstOffset":9,"gmtOffset":9,"timeZoneId":"Asia/Tokyo"},"lat":35.28333,"lng":136.86667,"population":48007},{"id":1852901,"name":"Sasayama","timezone":{"dstOffset":9,"gmtOffset":9,"timeZoneId":"Asia/Tokyo"},"lat":35.06667,"lng":135.21667,"population":47204},{"id":2111173,"name":"Sawara","timezone":{"dstOffset":9,"gmtOffset":9,"timeZoneId":"Asia/Tokyo"},"lat":35.88333,"lng":140.5,"population":47199},{"id":6822108,"name":"Inashiki","timezone":{"dstOffset":9,"gmtOffset":9,"timeZoneId":"Asia/Tokyo"},"lat":35.95633,"lng":140.32356,"population":46994},{"id":6822219,"name":"Gujō","timezone":{"dstOffset":9,"gmtOffset":9,"timeZoneId":"Asia/Tokyo"},"lat":35.73691,"lng":136.95852,"population":46918},{"id":2111749,"name":"Naka","timezone":{"dstOffset":9,"gmtOffset":9,"timeZoneId":"Asia/Tokyo"},"lat":36.05,"lng":140.16667,"population":46760},{"id":1855907,"name":"Nakama","timezone":{"dstOffset":9,"gmtOffset":9,"timeZoneId":"Asia/Tokyo"},"lat":33.81667,"lng":130.7,"population":46745},{"id":1849831,"name":"Toyooka","timezone":{"dstOffset":9,"gmtOffset":9,"timeZoneId":"Asia/Tokyo"},"lat":35.54008,"lng":134.82038,"population":46500},{"id":1858858,"name":"Komoro","timezone":{"dstOffset":9,"gmtOffset":9,"timeZoneId":"Asia/Tokyo"},"lat":36.31667,"lng":138.43333,"population":46272},{"id":1896348,"name":"Hikari","timezone":{"dstOffset":9,"gmtOffset":9,"timeZoneId":"Asia/Tokyo"},"lat":33.955,"lng":131.95,"population":45885},{"id":1849237,"name":"Uozu","timezone":{"dstOffset":9,"gmtOffset":9,"timeZoneId":"Asia/Tokyo"},"lat":36.8,"lng":137.4,"population":45848},{"id":2112758,"name":"Higashine","timezone":{"dstOffset":9,"gmtOffset":9,"timeZoneId":"Asia/Tokyo"},"lat":38.43889,"lng":140.40056,"population":45779},{"id":1863310,"name":"Hamada","timezone":{"dstOffset":9,"gmtOffset":9,"timeZoneId":"Asia/Tokyo"},"lat":34.88333,"lng":132.08333,"population":45750},{"id":1850745,"name":"Tamana","timezone":{"dstOffset":9,"gmtOffset":9,"timeZoneId":"Asia/Tokyo"},"lat":32.91667,"lng":130.56667,"population":45661},{"id":1854905,"name":"Numata","timezone":{"dstOffset":9,"gmtOffset":9,"timeZoneId":"Asia/Tokyo"},"lat":36.63333,"lng":139.05,"population":45526},{"id":1848382,"name":"Youkaichi","timezone":{"dstOffset":9,"gmtOffset":9,"timeZoneId":"Asia/Tokyo"},"lat":35.11626,"lng":136.19768,"population":45338},{"id":1855670,"name":"Nanao","timezone":{"dstOffset":9,"gmtOffset":9,"timeZoneId":"Asia/Tokyo"},"lat":37.05,"lng":136.96667,"population":45309},{"id":1854807,"name":"Obita","timezone":{"dstOffset":9,"gmtOffset":9,"timeZoneId":"Asia/Tokyo"},"lat":32.81667,"lng":129.88333,"population":45293},{"id":2127896,"name":"Takikawa","timezone":{"dstOffset":9,"gmtOffset":9,"timeZoneId":"Asia/Tokyo"},"lat":43.55278,"lng":141.90639,"population":45131},{"id":1861416,"name":"Ishigaki","timezone":{"dstOffset":9,"gmtOffset":9,"timeZoneId":"Asia/Tokyo"},"lat":24.34478,"lng":124.15717,"population":44802},{"id":1860122,"name":"Kan’onjichō","timezone":{"dstOffset":9,"gmtOffset":9,"timeZoneId":"Asia/Tokyo"},"lat":34.1276,"lng":133.64598,"population":44363},{"id":1854018,"name":"Onoda","timezone":{"dstOffset":9,"gmtOffset":9,"timeZoneId":"Asia/Tokyo"},"lat":34.00139,"lng":131.18361,"population":44295},{"id":1849788,"name":"Tsubame","timezone":{"dstOffset":9,"gmtOffset":9,"timeZoneId":"Asia/Tokyo"},"lat":37.6645,"lng":138.92518,"population":44284},{"id":1855476,"name":"Nichinan","timezone":{"dstOffset":9,"gmtOffset":9,"timeZoneId":"Asia/Tokyo"},"lat":31.6,"lng":131.36667,"population":44243},{"id":1863418,"name":"Hagi","timezone":{"dstOffset":9,"gmtOffset":9,"timeZoneId":"Asia/Tokyo"},"lat":34.4,"lng":131.41667,"population":43826},{"id":1858756,"name":"Kosai-shi","timezone":{"dstOffset":9,"gmtOffset":9,"timeZoneId":"Asia/Tokyo"},"lat":34.7184,"lng":137.53175,"population":43700},{"id":2111248,"name":"Sagae","timezone":{"dstOffset":9,"gmtOffset":9,"timeZoneId":"Asia/Tokyo"},"lat":38.3725,"lng":140.2725,"population":43544},{"id":1860785,"name":"Kainan","timezone":{"dstOffset":9,"gmtOffset":9,"timeZoneId":"Asia/Tokyo"},"lat":34.15,"lng":135.2,"population":43369},{"id":1856878,"name":"Mitsuke","timezone":{"dstOffset":9,"gmtOffset":9,"timeZoneId":"Asia/Tokyo"},"lat":37.53333,"lng":138.93333,"population":43180},{"id":1853354,"name":"Ryūō","timezone":{"dstOffset":9,"gmtOffset":9,"timeZoneId":"Asia/Tokyo"},"lat":35.65,"lng":138.5,"population":43180},{"id":1863978,"name":"Nishifukuma","timezone":{"dstOffset":9,"gmtOffset":9,"timeZoneId":"Asia/Tokyo"},"lat":33.76627,"lng":130.47461,"population":43154},{"id":2112444,"name":"Kamaishi","timezone":{"dstOffset":9,"gmtOffset":9,"timeZoneId":"Asia/Tokyo"},"lat":39.27694,"lng":141.86801,"population":43107},{"id":2129211,"name":"Misawa","timezone":{"dstOffset":9,"gmtOffset":9,"timeZoneId":"Asia/Tokyo"},"lat":40.68682,"lng":141.38969,"population":42805},{"id":1855863,"name":"Nakano","timezone":{"dstOffset":9,"gmtOffset":9,"timeZoneId":"Asia/Tokyo"},"lat":36.75,"lng":138.36667,"population":42708},{"id":1856667,"name":"Mizunami","timezone":{"dstOffset":9,"gmtOffset":9,"timeZoneId":"Asia/Tokyo"},"lat":35.36667,"lng":137.25,"population":42617},{"id":1858902,"name":"Komatsushimachō","timezone":{"dstOffset":9,"gmtOffset":9,"timeZoneId":"Asia/Tokyo"},"lat":34,"lng":134.58333,"population":42598},{"id":1850746,"name":"Tamamura","timezone":{"dstOffset":9,"gmtOffset":9,"timeZoneId":"Asia/Tokyo"},"lat":36.3,"lng":139.11667,"population":42566},{"id":2110744,"name":"Tomiya","timezone":{"dstOffset":9,"gmtOffset":9,"timeZoneId":"Asia/Tokyo"},"lat":38.39306,"lng":140.88611,"population":42500},{"id":2130741,"name":"Abashiri","timezone":{"dstOffset":9,"gmtOffset":9,"timeZoneId":"Asia/Tokyo"},"lat":44.02127,"lng":144.26971,"population":42498},{"id":1861223,"name":"Iwai","timezone":{"dstOffset":9,"gmtOffset":9,"timeZoneId":"Asia/Tokyo"},"lat":36.05,"lng":139.9,"population":42497},{"id":2112527,"name":"Iwanuma","timezone":{"dstOffset":9,"gmtOffset":9,"timeZoneId":"Asia/Tokyo"},"lat":38.10472,"lng":140.85944,"population":42411},{"id":1865375,"name":"Amagi","timezone":{"dstOffset":9,"gmtOffset":9,"timeZoneId":"Asia/Tokyo"},"lat":33.41804,"lng":130.65413,"population":42312},{"id":2113077,"name":"Asahi","timezone":{"dstOffset":9,"gmtOffset":9,"timeZoneId":"Asia/Tokyo"},"lat":35.71667,"lng":140.65,"population":41720},{"id":1850818,"name":"Taketoyo","timezone":{"dstOffset":9,"gmtOffset":9,"timeZoneId":"Asia/Tokyo"},"lat":34.85,"lng":136.91667,"population":41679},{"id":1862389,"name":"Hisai-motomachi","timezone":{"dstOffset":9,"gmtOffset":9,"timeZoneId":"Asia/Tokyo"},"lat":34.66667,"lng":136.46667,"population":41642},{"id":2127515,"name":"Wakkanai","timezone":{"dstOffset":9,"gmtOffset":9,"timeZoneId":"Asia/Tokyo"},"lat":45.40944,"lng":141.67389,"population":41556},{"id":1851813,"name":"Shirone","timezone":{"dstOffset":9,"gmtOffset":9,"timeZoneId":"Asia/Tokyo"},"lat":37.76354,"lng":139.02199,"population":41406},{"id":1855540,"name":"Naze","timezone":{"dstOffset":9,"gmtOffset":9,"timeZoneId":"Asia/Tokyo"},"lat":28.36667,"lng":129.48333,"population":41365},{"id":1856881,"name":"Mitsukaidō","timezone":{"dstOffset":9,"gmtOffset":9,"timeZoneId":"Asia/Tokyo"},"lat":36.01667,"lng":139.98333,"population":41147},{"id":2111065,"name":"Shinjō","timezone":{"dstOffset":9,"gmtOffset":9,"timeZoneId":"Asia/Tokyo"},"lat":38.75861,"lng":140.30083,"population":41140},{"id":1850217,"name":"Tōkamachi","timezone":{"dstOffset":9,"gmtOffset":9,"timeZoneId":"Asia/Tokyo"},"lat":37.13333,"lng":138.76667,"population":41136},{"id":2128558,"name":"Otofuke","timezone":{"dstOffset":9,"gmtOffset":9,"timeZoneId":"Asia/Tokyo"},"lat":42.99167,"lng":143.20028,"population":40944},{"id":1862230,"name":"Hondo","timezone":{"dstOffset":9,"gmtOffset":9,"timeZoneId":"Asia/Tokyo"},"lat":32.45,"lng":130.2,"population":40787},{"id":1860176,"name":"Kannabechō-yahiro","timezone":{"dstOffset":9,"gmtOffset":9,"timeZoneId":"Asia/Tokyo"},"lat":34.55808,"lng":133.41796,"population":40766},{"id":1858866,"name":"Komono","timezone":{"dstOffset":9,"gmtOffset":9,"timeZoneId":"Asia/Tokyo"},"lat":35,"lng":136.51667,"population":40740},{"id":1864945,"name":"Atami","timezone":{"dstOffset":9,"gmtOffset":9,"timeZoneId":"Asia/Tokyo"},"lat":35.08944,"lng":139.06861,"population":40687},{"id":1854444,"name":"Ojiya","timezone":{"dstOffset":9,"gmtOffset":9,"timeZoneId":"Asia/Tokyo"},"lat":37.3,"lng":138.8,"population":40549},{"id":1851155,"name":"Takahama","timezone":{"dstOffset":9,"gmtOffset":9,"timeZoneId":"Asia/Tokyo"},"lat":34.91667,"lng":136.98333,"population":40501},{"id":1848573,"name":"Yanagawa","timezone":{"dstOffset":9,"gmtOffset":9,"timeZoneId":"Asia/Tokyo"},"lat":33.16667,"lng":130.4,"population":40386},{"id":1850499,"name":"Tatsunochō-tominaga","timezone":{"dstOffset":9,"gmtOffset":9,"timeZoneId":"Asia/Tokyo"},"lat":34.86437,"lng":134.552,"population":40011},{"id":1860626,"name":"Kameyama","timezone":{"dstOffset":9,"gmtOffset":9,"timeZoneId":"Asia/Tokyo"},"lat":34.85,"lng":136.45,"population":39899},{"id":1849299,"name":"Umi","timezone":{"dstOffset":9,"gmtOffset":9,"timeZoneId":"Asia/Tokyo"},"lat":33.56826,"lng":130.51009,"population":39772},{"id":1859175,"name":"Kobayashi","timezone":{"dstOffset":9,"gmtOffset":9,"timeZoneId":"Asia/Tokyo"},"lat":31.98333,"lng":130.98333,"population":39747},{"id":1857379,"name":"Mibu","timezone":{"dstOffset":9,"gmtOffset":9,"timeZoneId":"Asia/Tokyo"},"lat":36.41667,"lng":139.8,"population":39728},{"id":1856560,"name":"Morohongō","timezone":{"dstOffset":9,"gmtOffset":9,"timeZoneId":"Asia/Tokyo"},"lat":35.93556,"lng":139.30444,"population":39693},{"id":1851426,"name":"Sumoto","timezone":{"dstOffset":9,"gmtOffset":9,"timeZoneId":"Asia/Tokyo"},"lat":34.35,"lng":134.9,"population":39546},{"id":2111016,"name":"Shiroishi","timezone":{"dstOffset":9,"gmtOffset":9,"timeZoneId":"Asia/Tokyo"},"lat":38.00333,"lng":140.61833,"population":39481},{"id":1863279,"name":"Hamanoichi","timezone":{"dstOffset":9,"gmtOffset":9,"timeZoneId":"Asia/Tokyo"},"lat":31.71667,"lng":130.73333,"population":39475},{"id":1856698,"name":"Miyoshi","timezone":{"dstOffset":9,"gmtOffset":9,"timeZoneId":"Asia/Tokyo"},"lat":34.8,"lng":132.85,"population":39257},{"id":1849069,"name":"Uto","timezone":{"dstOffset":9,"gmtOffset":9,"timeZoneId":"Asia/Tokyo"},"lat":32.68333,"lng":130.66667,"population":39234},{"id":1854405,"name":"Ōkawa","timezone":{"dstOffset":9,"gmtOffset":9,"timeZoneId":"Asia/Tokyo"},"lat":33.2,"lng":130.35,"population":39223},{"id":1861108,"name":"Izumi","timezone":{"dstOffset":9,"gmtOffset":9,"timeZoneId":"Asia/Tokyo"},"lat":32.08333,"lng":130.36667,"population":39217},{"id":2112802,"name":"Hasaki","timezone":{"dstOffset":9,"gmtOffset":9,"timeZoneId":"Asia/Tokyo"},"lat":35.73333,"lng":140.83333,"population":39209},{"id":2110506,"name":"Yokotemachi","timezone":{"dstOffset":9,"gmtOffset":9,"timeZoneId":"Asia/Tokyo"},"lat":39.31691,"lng":140.55034,"population":39178},{"id":1857209,"name":"Minakuchichō-matoba","timezone":{"dstOffset":9,"gmtOffset":9,"timeZoneId":"Asia/Tokyo"},"lat":34.96667,"lng":136.16667,"population":38986},{"id":1926055,"name":"Ōzu","timezone":{"dstOffset":9,"gmtOffset":9,"timeZoneId":"Asia/Tokyo"},"lat":33.5,"lng":132.55,"population":38833},{"id":2111435,"name":"Ōmagari","timezone":{"dstOffset":9,"gmtOffset":9,"timeZoneId":"Asia/Tokyo"},"lat":39.45,"lng":140.48333,"population":38805},{"id":1848243,"name":"Yorii","timezone":{"dstOffset":9,"gmtOffset":9,"timeZoneId":"Asia/Tokyo"},"lat":36.11567,"lng":139.19428,"population":38717},{"id":1849782,"name":"Tsubata","timezone":{"dstOffset":9,"gmtOffset":9,"timeZoneId":"Asia/Tokyo"},"lat":36.67012,"lng":136.7403,"population":38644},{"id":2129395,"name":"Kuroishi","timezone":{"dstOffset":9,"gmtOffset":9,"timeZoneId":"Asia/Tokyo"},"lat":40.64581,"lng":140.58354,"population":38615},{"id":1851259,"name":"Tahara","timezone":{"dstOffset":9,"gmtOffset":9,"timeZoneId":"Asia/Tokyo"},"lat":34.66667,"lng":137.26667,"population":38177},{"id":1852479,"name":"Shimabara","timezone":{"dstOffset":9,"gmtOffset":9,"timeZoneId":"Asia/Tokyo"},"lat":32.78333,"lng":130.36667,"population":38113},{"id":2129766,"name":"Kamiiso","timezone":{"dstOffset":9,"gmtOffset":9,"timeZoneId":"Asia/Tokyo"},"lat":41.82013,"lng":140.64482,"population":38098},{"id":1862352,"name":"Hitoyoshi","timezone":{"dstOffset":9,"gmtOffset":9,"timeZoneId":"Asia/Tokyo"},"lat":32.21667,"lng":130.75,"population":38006},{"id":1926116,"name":"Kawanoechō","timezone":{"dstOffset":9,"gmtOffset":9,"timeZoneId":"Asia/Tokyo"},"lat":34.01654,"lng":133.57844,"population":37641},{"id":1864873,"name":"Ayabe","timezone":{"dstOffset":9,"gmtOffset":9,"timeZoneId":"Asia/Tokyo"},"lat":35.3,"lng":135.25,"population":37612},{"id":1854022,"name":"Ono","timezone":{"dstOffset":9,"gmtOffset":9,"timeZoneId":"Asia/Tokyo"},"lat":35.98106,"lng":136.48727,"population":37469},{"id":1854665,"name":"Ogawa","timezone":{"dstOffset":9,"gmtOffset":9,"timeZoneId":"Asia/Tokyo"},"lat":36.05342,"lng":139.26612,"population":37443},{"id":1863540,"name":"Gosen","timezone":{"dstOffset":9,"gmtOffset":9,"timeZoneId":"Asia/Tokyo"},"lat":37.73333,"lng":139.16667,"population":37360},{"id":2110743,"name":"Tomobe","timezone":{"dstOffset":9,"gmtOffset":9,"timeZoneId":"Asia/Tokyo"},"lat":36.35,"lng":140.3,"population":37146},{"id":1859319,"name":"Kitakata","timezone":{"dstOffset":9,"gmtOffset":9,"timeZoneId":"Asia/Tokyo"},"lat":37.65,"lng":139.86667,"population":37140},{"id":1860211,"name":"Kanekomachi","timezone":{"dstOffset":9,"gmtOffset":9,"timeZoneId":"Asia/Tokyo"},"lat":36.41097,"lng":138.99621,"population":37107},{"id":1855134,"name":"Nishiwaki","timezone":{"dstOffset":9,"gmtOffset":9,"timeZoneId":"Asia/Tokyo"},"lat":34.98419,"lng":134.97407,"population":36953},{"id":2130146,"name":"Hanawa","timezone":{"dstOffset":9,"gmtOffset":9,"timeZoneId":"Asia/Tokyo"},"lat":40.18361,"lng":140.78722,"population":36925},{"id":1860191,"name":"Kanie","timezone":{"dstOffset":9,"gmtOffset":9,"timeZoneId":"Asia/Tokyo"},"lat":35.13333,"lng":136.8,"population":36592},{"id":1853174,"name":"Sakaiminato","timezone":{"dstOffset":9,"gmtOffset":9,"timeZoneId":"Asia/Tokyo"},"lat":35.55,"lng":133.23333,"population":36324},{"id":2110586,"name":"Watari","timezone":{"dstOffset":9,"gmtOffset":9,"timeZoneId":"Asia/Tokyo"},"lat":38.035,"lng":140.85111,"population":36321},{"id":2111656,"name":"Nihommatsu","timezone":{"dstOffset":9,"gmtOffset":9,"timeZoneId":"Asia/Tokyo"},"lat":37.58333,"lng":140.43333,"population":36287},{"id":1848776,"name":"Yaita","timezone":{"dstOffset":9,"gmtOffset":9,"timeZoneId":"Asia/Tokyo"},"lat":36.8,"lng":139.93333,"population":36275},{"id":1860234,"name":"Kanda","timezone":{"dstOffset":9,"gmtOffset":9,"timeZoneId":"Asia/Tokyo"},"lat":33.78333,"lng":130.98333,"population":36122},{"id":1852046,"name":"Shinshiro","timezone":{"dstOffset":9,"gmtOffset":9,"timeZoneId":"Asia/Tokyo"},"lat":34.9,"lng":137.5,"population":36069},{"id":1852385,"name":"Nishishinminato","timezone":{"dstOffset":9,"gmtOffset":9,"timeZoneId":"Asia/Tokyo"},"lat":36.77957,"lng":137.07576,"population":35994},{"id":2112409,"name":"Kaminoyama","timezone":{"dstOffset":9,"gmtOffset":9,"timeZoneId":"Asia/Tokyo"},"lat":38.15389,"lng":140.27361,"population":35593},{"id":2111530,"name":"Ōfunato","timezone":{"dstOffset":9,"gmtOffset":9,"timeZoneId":"Asia/Tokyo"},"lat":39.07167,"lng":141.71667,"population":35418},{"id":2112913,"name":"Funaishikawa","timezone":{"dstOffset":9,"gmtOffset":9,"timeZoneId":"Asia/Tokyo"},"lat":36.46667,"lng":140.56667,"population":35318},{"id":2130421,"name":"Date","timezone":{"dstOffset":9,"gmtOffset":9,"timeZoneId":"Asia/Tokyo"},"lat":42.46806,"lng":140.86806,"population":35301},{"id":2111277,"name":"Rifu","timezone":{"dstOffset":9,"gmtOffset":9,"timeZoneId":"Asia/Tokyo"},"lat":38.33092,"lng":140.97691,"population":35037},{"id":1849094,"name":"Usuki","timezone":{"dstOffset":9,"gmtOffset":9,"timeZoneId":"Asia/Tokyo"},"lat":33.12342,"lng":131.80401,"population":35001},{"id":1855694,"name":"Namerikawa","timezone":{"dstOffset":9,"gmtOffset":9,"timeZoneId":"Asia/Tokyo"},"lat":36.76667,"lng":137.33333,"population":34638},{"id":2111441,"name":"Okunoya","timezone":{"dstOffset":9,"gmtOffset":9,"timeZoneId":"Asia/Tokyo"},"lat":36.28333,"lng":140.41667,"population":34627},{"id":1855891,"name":"Nakamura","timezone":{"dstOffset":9,"gmtOffset":9,"timeZoneId":"Asia/Tokyo"},"lat":32.98333,"lng":132.93333,"population":34559},{"id":1862034,"name":"Ibara","timezone":{"dstOffset":9,"gmtOffset":9,"timeZoneId":"Asia/Tokyo"},"lat":34.6,"lng":133.46667,"population":34424},{"id":1862505,"name":"Hirara","timezone":{"dstOffset":9,"gmtOffset":9,"timeZoneId":"Asia/Tokyo"},"lat":24.80379,"lng":125.30222,"population":34354},{"id":1863592,"name":"Gojō","timezone":{"dstOffset":9,"gmtOffset":9,"timeZoneId":"Asia/Tokyo"},"lat":34.35,"lng":135.7,"population":34342},{"id":1849647,"name":"Tsuma","timezone":{"dstOffset":9,"gmtOffset":9,"timeZoneId":"Asia/Tokyo"},"lat":32.1,"lng":131.4,"population":34318},{"id":1863426,"name":"Katsuren-haebaru","timezone":{"dstOffset":9,"gmtOffset":9,"timeZoneId":"Asia/Tokyo"},"lat":26.33294,"lng":127.87403,"population":34239},{"id":1850834,"name":"Takeochō-takeo","timezone":{"dstOffset":9,"gmtOffset":9,"timeZoneId":"Asia/Tokyo"},"lat":33.19008,"lng":130.02084,"population":34230},{"id":2110893,"name":"Takahagi","timezone":{"dstOffset":9,"gmtOffset":9,"timeZoneId":"Asia/Tokyo"},"lat":36.71667,"lng":140.71667,"population":33576},{"id":1857651,"name":"Maruoka","timezone":{"dstOffset":9,"gmtOffset":9,"timeZoneId":"Asia/Tokyo"},"lat":36.1534,"lng":136.27029,"population":33563},{"id":2110460,"name":"Yuzawa","timezone":{"dstOffset":9,"gmtOffset":9,"timeZoneId":"Asia/Tokyo"},"lat":39.16667,"lng":140.5,"population":33536},{"id":1855363,"name":"Nirasaki","timezone":{"dstOffset":9,"gmtOffset":9,"timeZoneId":"Asia/Tokyo"},"lat":35.7,"lng":138.45,"population":33263},{"id":2112455,"name":"Kakuda","timezone":{"dstOffset":9,"gmtOffset":9,"timeZoneId":"Asia/Tokyo"},"lat":37.97451,"lng":140.77202,"population":33221},{"id":1858695,"name":"Kuragaki-kosugi","timezone":{"dstOffset":9,"gmtOffset":9,"timeZoneId":"Asia/Tokyo"},"lat":36.73403,"lng":137.14186,"population":33200},{"id":1862098,"name":"Hotaka","timezone":{"dstOffset":9,"gmtOffset":9,"timeZoneId":"Asia/Tokyo"},"lat":36.3396,"lng":137.88254,"population":33195},{"id":2112940,"name":"Fujishiro","timezone":{"dstOffset":9,"gmtOffset":9,"timeZoneId":"Asia/Tokyo"},"lat":35.91667,"lng":140.11667,"population":33148},{"id":1854849,"name":"Obama","timezone":{"dstOffset":9,"gmtOffset":9,"timeZoneId":"Asia/Tokyo"},"lat":35.49576,"lng":135.74604,"population":32896},{"id":1863541,"name":"Gose","timezone":{"dstOffset":9,"gmtOffset":9,"timeZoneId":"Asia/Tokyo"},"lat":34.45,"lng":135.73333,"population":32870},{"id":1860648,"name":"Kameda-honchō","timezone":{"dstOffset":9,"gmtOffset":9,"timeZoneId":"Asia/Tokyo"},"lat":37.87214,"lng":139.1099,"population":32765},{"id":1850472,"name":"Tawaramoto","timezone":{"dstOffset":9,"gmtOffset":9,"timeZoneId":"Asia/Tokyo"},"lat":34.5542,"lng":135.79297,"population":32659},{"id":2110518,"name":"Yōkaichiba","timezone":{"dstOffset":9,"gmtOffset":9,"timeZoneId":"Asia/Tokyo"},"lat":35.7,"lng":140.55,"population":32651},{"id":1854492,"name":"Ōiso","timezone":{"dstOffset":9,"gmtOffset":9,"timeZoneId":"Asia/Tokyo"},"lat":35.30306,"lng":139.30278,"population":32595},{"id":1852915,"name":"Sasaguri","timezone":{"dstOffset":9,"gmtOffset":9,"timeZoneId":"Asia/Tokyo"},"lat":33.61561,"lng":130.55106,"population":32588},{"id":1858249,"name":"Kuroda","timezone":{"dstOffset":9,"gmtOffset":9,"timeZoneId":"Asia/Tokyo"},"lat":35.35,"lng":136.78333,"population":32586},{"id":1859941,"name":"Kashima","timezone":{"dstOffset":9,"gmtOffset":9,"timeZoneId":"Asia/Tokyo"},"lat":33.10611,"lng":130.09056,"population":32410},{"id":1865661,"name":"Aioi","timezone":{"dstOffset":9,"gmtOffset":9,"timeZoneId":"Asia/Tokyo"},"lat":34.80361,"lng":134.46806,"population":32394},{"id":1848705,"name":"Yamaga","timezone":{"dstOffset":9,"gmtOffset":9,"timeZoneId":"Asia/Tokyo"},"lat":33.01667,"lng":130.68333,"population":32298},{"id":1848550,"name":"Yanai","timezone":{"dstOffset":9,"gmtOffset":9,"timeZoneId":"Asia/Tokyo"},"lat":33.96667,"lng":132.11667,"population":32229},{"id":1860341,"name":"Kamo","timezone":{"dstOffset":9,"gmtOffset":9,"timeZoneId":"Asia/Tokyo"},"lat":37.66442,"lng":139.03502,"population":32129},{"id":2110541,"name":"Yamoto","timezone":{"dstOffset":9,"gmtOffset":9,"timeZoneId":"Asia/Tokyo"},"lat":38.42738,"lng":141.21487,"population":32028},{"id":1854774,"name":"Ōdachō-ōda","timezone":{"dstOffset":9,"gmtOffset":9,"timeZoneId":"Asia/Tokyo"},"lat":35.19025,"lng":132.50846,"population":31867},{"id":1849424,"name":"Ueki","timezone":{"dstOffset":9,"gmtOffset":9,"timeZoneId":"Asia/Tokyo"},"lat":32.9,"lng":130.68333,"population":31688},{"id":1847947,"name":"Shingū","timezone":{"dstOffset":9,"gmtOffset":9,"timeZoneId":"Asia/Tokyo"},"lat":33.73333,"lng":135.98333,"population":31619},{"id":1855380,"name":"Ninomiya","timezone":{"dstOffset":9,"gmtOffset":9,"timeZoneId":"Asia/Tokyo"},"lat":35.30333,"lng":139.25333,"population":31412},{"id":1856434,"name":"Murakami","timezone":{"dstOffset":9,"gmtOffset":9,"timeZoneId":"Asia/Tokyo"},"lat":38.23333,"lng":139.48333,"population":31334},{"id":1853192,"name":"Sakai-nakajima","timezone":{"dstOffset":9,"gmtOffset":9,"timeZoneId":"Asia/Tokyo"},"lat":36.26667,"lng":139.25,"population":31268},{"id":1853564,"name":"Ōtsuki","timezone":{"dstOffset":9,"gmtOffset":9,"timeZoneId":"Asia/Tokyo"},"lat":35.6,"lng":138.93333,"population":31226},{"id":2128975,"name":"Nemuro","timezone":{"dstOffset":9,"gmtOffset":9,"timeZoneId":"Asia/Tokyo"},"lat":43.32361,"lng":145.575,"population":31223},{"id":1862992,"name":"Hayama","timezone":{"dstOffset":9,"gmtOffset":9,"timeZoneId":"Asia/Tokyo"},"lat":35.27651,"lng":139.57733,"population":31136},{"id":2111781,"name":"Nagai","timezone":{"dstOffset":9,"gmtOffset":9,"timeZoneId":"Asia/Tokyo"},"lat":38.10361,"lng":140.035,"population":31026},{"id":1861285,"name":"Itoigawa","timezone":{"dstOffset":9,"gmtOffset":9,"timeZoneId":"Asia/Tokyo"},"lat":37.03333,"lng":137.85,"population":30865},{"id":1860458,"name":"Kaminokawa","timezone":{"dstOffset":9,"gmtOffset":9,"timeZoneId":"Asia/Tokyo"},"lat":36.43333,"lng":139.91667,"population":30827},{"id":1926006,"name":"Iyo","timezone":{"dstOffset":9,"gmtOffset":9,"timeZoneId":"Asia/Tokyo"},"lat":33.75139,"lng":132.70139,"population":30760},{"id":1854186,"name":"Ōmachi","timezone":{"dstOffset":9,"gmtOffset":9,"timeZoneId":"Asia/Tokyo"},"lat":36.5,"lng":137.86667,"population":30599},{"id":1926101,"name":"Masaki","timezone":{"dstOffset":9,"gmtOffset":9,"timeZoneId":"Asia/Tokyo"},"lat":33.78757,"lng":132.71124,"population":30548},{"id":1850860,"name":"Takehara","timezone":{"dstOffset":9,"gmtOffset":9,"timeZoneId":"Asia/Tokyo"},"lat":34.33833,"lng":132.91667,"population":30506},{"id":1849367,"name":"Ujiie","timezone":{"dstOffset":9,"gmtOffset":9,"timeZoneId":"Asia/Tokyo"},"lat":36.68333,"lng":139.96667,"population":30366},{"id":1853662,"name":"Ōtake","timezone":{"dstOffset":9,"gmtOffset":9,"timeZoneId":"Asia/Tokyo"},"lat":34.2,"lng":132.21667,"population":30151},{"id":2129003,"name":"Nanae","timezone":{"dstOffset":9,"gmtOffset":9,"timeZoneId":"Asia/Tokyo"},"lat":41.88333,"lng":140.68333,"population":30008},{"id":1853433,"name":"Ōzu","timezone":{"dstOffset":9,"gmtOffset":9,"timeZoneId":"Asia/Tokyo"},"lat":32.86667,"lng":130.86667,"population":29820},{"id":1862010,"name":"Ibusuki","timezone":{"dstOffset":9,"gmtOffset":9,"timeZoneId":"Asia/Tokyo"},"lat":31.23333,"lng":130.65,"population":29710},{"id":1861454,"name":"Isawa","timezone":{"dstOffset":9,"gmtOffset":9,"timeZoneId":"Asia/Tokyo"},"lat":35.65,"lng":138.63333,"population":29616},{"id":2112343,"name":"Kasama","timezone":{"dstOffset":9,"gmtOffset":9,"timeZoneId":"Asia/Tokyo"},"lat":36.38333,"lng":140.26667,"population":29477},{"id":1857208,"name":"Minamata","timezone":{"dstOffset":9,"gmtOffset":9,"timeZoneId":"Asia/Tokyo"},"lat":32.21667,"lng":130.4,"population":29428},{"id":1848482,"name":"Yasugichō","timezone":{"dstOffset":9,"gmtOffset":9,"timeZoneId":"Asia/Tokyo"},"lat":35.42146,"lng":133.24224,"population":29368},{"id":1850269,"name":"Togitsu","timezone":{"dstOffset":9,"gmtOffset":9,"timeZoneId":"Asia/Tokyo"},"lat":32.83333,"lng":129.85,"population":29364},{"id":1856476,"name":"Muikamachi","timezone":{"dstOffset":9,"gmtOffset":9,"timeZoneId":"Asia/Tokyo"},"lat":37.06667,"lng":138.88333,"population":29123},{"id":2112297,"name":"Kawaguchi","timezone":{"dstOffset":9,"gmtOffset":9,"timeZoneId":"Asia/Tokyo"},"lat":35.0969,"lng":140.1003,"population":29119},{"id":1850600,"name":"Tarui","timezone":{"dstOffset":9,"gmtOffset":9,"timeZoneId":"Asia/Tokyo"},"lat":35.36667,"lng":136.53333,"population":29070},{"id":1857751,"name":"Maki","timezone":{"dstOffset":9,"gmtOffset":9,"timeZoneId":"Asia/Tokyo"},"lat":37.75,"lng":138.88333,"population":29041},{"id":2130534,"name":"Bibai","timezone":{"dstOffset":9,"gmtOffset":9,"timeZoneId":"Asia/Tokyo"},"lat":43.32472,"lng":141.85861,"population":29028},{"id":1850630,"name":"Tanuma","timezone":{"dstOffset":9,"gmtOffset":9,"timeZoneId":"Asia/Tokyo"},"lat":36.36667,"lng":139.58333,"population":28723},{"id":1864025,"name":"Fukiage-fujimi","timezone":{"dstOffset":9,"gmtOffset":9,"timeZoneId":"Asia/Tokyo"},"lat":36.1,"lng":139.45,"population":28334},{"id":1862471,"name":"Hiratachō","timezone":{"dstOffset":9,"gmtOffset":9,"timeZoneId":"Asia/Tokyo"},"lat":35.43333,"lng":132.81667,"population":28154},{"id":1926142,"name":"Hōjō","timezone":{"dstOffset":9,"gmtOffset":9,"timeZoneId":"Asia/Tokyo"},"lat":33.97661,"lng":132.77767,"population":27992},{"id":6324583,"name":"Aso","timezone":{"dstOffset":9,"gmtOffset":9,"timeZoneId":"Asia/Tokyo"},"lat":32.93726,"lng":131.08008,"population":27978},{"id":1862689,"name":"Hiji","timezone":{"dstOffset":9,"gmtOffset":9,"timeZoneId":"Asia/Tokyo"},"lat":33.37081,"lng":131.53025,"population":27864},{"id":1864652,"name":"Chatan","timezone":{"dstOffset":9,"gmtOffset":9,"timeZoneId":"Asia/Tokyo"},"lat":26.30948,"lng":127.77024,"population":27844},{"id":1849407,"name":"Uenohara","timezone":{"dstOffset":9,"gmtOffset":9,"timeZoneId":"Asia/Tokyo"},"lat":35.61667,"lng":139.11667,"population":27840},{"id":1849817,"name":"Toyoshina","timezone":{"dstOffset":9,"gmtOffset":9,"timeZoneId":"Asia/Tokyo"},"lat":36.29991,"lng":137.90108,"population":27834},{"id":1858283,"name":"Kurihashi","timezone":{"dstOffset":9,"gmtOffset":9,"timeZoneId":"Asia/Tokyo"},"lat":36.13333,"lng":139.7,"population":27813},{"id":1857403,"name":"Menuma","timezone":{"dstOffset":9,"gmtOffset":9,"timeZoneId":"Asia/Tokyo"},"lat":36.22245,"lng":139.38205,"population":27684},{"id":2111425,"name":"Ōmiya","timezone":{"dstOffset":9,"gmtOffset":9,"timeZoneId":"Asia/Tokyo"},"lat":36.55,"lng":140.41667,"population":27588},{"id":1854868,"name":"Nyūzen","timezone":{"dstOffset":9,"gmtOffset":9,"timeZoneId":"Asia/Tokyo"},"lat":36.93744,"lng":137.50059,"population":27585},{"id":1848113,"name":"Yugawara","timezone":{"dstOffset":9,"gmtOffset":9,"timeZoneId":"Asia/Tokyo"},"lat":35.15,"lng":139.06667,"population":27567},{"id":1865207,"name":"Arai","timezone":{"dstOffset":9,"gmtOffset":9,"timeZoneId":"Asia/Tokyo"},"lat":37.00059,"lng":138.2259,"population":27481},{"id":1863614,"name":"Gobō","timezone":{"dstOffset":9,"gmtOffset":9,"timeZoneId":"Asia/Tokyo"},"lat":33.88333,"lng":135.15,"population":27169},{"id":1859765,"name":"Katsuyama","timezone":{"dstOffset":9,"gmtOffset":9,"timeZoneId":"Asia/Tokyo"},"lat":36.06173,"lng":136.50101,"population":27088},{"id":1853193,"name":"Sakai","timezone":{"dstOffset":9,"gmtOffset":9,"timeZoneId":"Asia/Tokyo"},"lat":36.1,"lng":139.8,"population":26918},{"id":2129163,"name":"Mombetsu","timezone":{"dstOffset":9,"gmtOffset":9,"timeZoneId":"Asia/Tokyo"},"lat":44.3525,"lng":143.3525,"population":26895},{"id":8198709,"name":"Buzen","timezone":{"dstOffset":9,"gmtOffset":9,"timeZoneId":"Asia/Tokyo"},"lat":33.61153,"lng":131.13002,"population":26886},{"id":2110735,"name":"Tōno","timezone":{"dstOffset":9,"gmtOffset":9,"timeZoneId":"Asia/Tokyo"},"lat":39.31667,"lng":141.53333,"population":26781},{"id":1852357,"name":"Shimoda","timezone":{"dstOffset":9,"gmtOffset":9,"timeZoneId":"Asia/Tokyo"},"lat":34.66667,"lng":138.95,"population":26704},{"id":1859492,"name":"Kikuchi","timezone":{"dstOffset":9,"gmtOffset":9,"timeZoneId":"Asia/Tokyo"},"lat":32.98333,"lng":130.81667,"population":26677},{"id":1863997,"name":"Fukuechō","timezone":{"dstOffset":9,"gmtOffset":9,"timeZoneId":"Asia/Tokyo"},"lat":32.69732,"lng":128.84561,"population":26636},{"id":2128983,"name":"Nayoro","timezone":{"dstOffset":9,"gmtOffset":9,"timeZoneId":"Asia/Tokyo"},"lat":44.35056,"lng":142.45778,"population":26457},{"id":2128382,"name":"Rumoi","timezone":{"dstOffset":9,"gmtOffset":9,"timeZoneId":"Asia/Tokyo"},"lat":43.93444,"lng":141.64278,"population":26454},{"id":1861400,"name":"Ishii","timezone":{"dstOffset":9,"gmtOffset":9,"timeZoneId":"Asia/Tokyo"},"lat":34.06752,"lng":134.44208,"population":26394},{"id":2110891,"name":"Takahata","timezone":{"dstOffset":9,"gmtOffset":9,"timeZoneId":"Asia/Tokyo"},"lat":38.0025,"lng":140.19111,"population":26347},{"id":1851390,"name":"Susaki","timezone":{"dstOffset":9,"gmtOffset":9,"timeZoneId":"Asia/Tokyo"},"lat":33.39471,"lng":133.29128,"population":26195},{"id":1854028,"name":"Ōno-hara","timezone":{"dstOffset":9,"gmtOffset":9,"timeZoneId":"Asia/Tokyo"},"lat":34.28333,"lng":132.26667,"population":26190},{"id":1857560,"name":"Matsubase","timezone":{"dstOffset":9,"gmtOffset":9,"timeZoneId":"Asia/Tokyo"},"lat":32.65,"lng":130.66667,"population":26163},{"id":2130332,"name":"Fukagawa","timezone":{"dstOffset":9,"gmtOffset":9,"timeZoneId":"Asia/Tokyo"},"lat":43.70806,"lng":142.03917,"population":26152},{"id":1861586,"name":"Innoshima","timezone":{"dstOffset":9,"gmtOffset":9,"timeZoneId":"Asia/Tokyo"},"lat":34.28333,"lng":133.18333,"population":26141},{"id":2111999,"name":"Mashiko","timezone":{"dstOffset":9,"gmtOffset":9,"timeZoneId":"Asia/Tokyo"},"lat":36.46667,"lng":140.1,"population":26045},{"id":1852109,"name":"Shingū","timezone":{"dstOffset":9,"gmtOffset":9,"timeZoneId":"Asia/Tokyo"},"lat":33.71399,"lng":130.4313,"population":25991},{"id":2129324,"name":"Makubetsu","timezone":{"dstOffset":9,"gmtOffset":9,"timeZoneId":"Asia/Tokyo"},"lat":45.37139,"lng":141.82111,"population":25935},{"id":1853280,"name":"Sagara","timezone":{"dstOffset":9,"gmtOffset":9,"timeZoneId":"Asia/Tokyo"},"lat":34.68503,"lng":138.20461,"population":25922},{"id":2128147,"name":"Shimo-furano","timezone":{"dstOffset":9,"gmtOffset":9,"timeZoneId":"Asia/Tokyo"},"lat":43.35,"lng":142.38333,"population":25872},{"id":2112555,"name":"Itako","timezone":{"dstOffset":9,"gmtOffset":9,"timeZoneId":"Asia/Tokyo"},"lat":35.93333,"lng":140.55,"population":25791},{"id":1851462,"name":"Sukumo","timezone":{"dstOffset":9,"gmtOffset":9,"timeZoneId":"Asia/Tokyo"},"lat":32.93333,"lng":132.73333,"population":25784},{"id":2111429,"name":"Omigawa","timezone":{"dstOffset":9,"gmtOffset":9,"timeZoneId":"Asia/Tokyo"},"lat":35.85,"lng":140.61667,"population":25763},{"id":1858041,"name":"Kushikino","timezone":{"dstOffset":9,"gmtOffset":9,"timeZoneId":"Asia/Tokyo"},"lat":31.71667,"lng":130.26667,"population":25744},{"id":2111677,"name":"Narutō","timezone":{"dstOffset":9,"gmtOffset":9,"timeZoneId":"Asia/Tokyo"},"lat":35.6,"lng":140.41667,"population":25696},{"id":1848194,"name":"Yoshii","timezone":{"dstOffset":9,"gmtOffset":9,"timeZoneId":"Asia/Tokyo"},"lat":36.25,"lng":138.98333,"population":25655},{"id":1848210,"name":"Yoshida-kasugachō","timezone":{"dstOffset":9,"gmtOffset":9,"timeZoneId":"Asia/Tokyo"},"lat":37.68333,"lng":138.88333,"population":25500},{"id":1857659,"name":"Kamimaruko","timezone":{"dstOffset":9,"gmtOffset":9,"timeZoneId":"Asia/Tokyo"},"lat":36.31865,"lng":138.2733,"population":25403},{"id":1861838,"name":"Iiyama","timezone":{"dstOffset":9,"gmtOffset":9,"timeZoneId":"Asia/Tokyo"},"lat":36.85,"lng":138.36667,"population":25281},{"id":1861825,"name":"Ijūin","timezone":{"dstOffset":9,"gmtOffset":9,"timeZoneId":"Asia/Tokyo"},"lat":31.61667,"lng":130.4,"population":25217},{"id":1864180,"name":"Enzan","timezone":{"dstOffset":9,"gmtOffset":9,"timeZoneId":"Asia/Tokyo"},"lat":35.7,"lng":138.73333,"population":25142},{"id":1848633,"name":"Yamazakichō-nakabirose","timezone":{"dstOffset":9,"gmtOffset":9,"timeZoneId":"Asia/Tokyo"},"lat":35,"lng":134.55,"population":25115},{"id":1865401,"name":"Akune","timezone":{"dstOffset":9,"gmtOffset":9,"timeZoneId":"Asia/Tokyo"},"lat":32.01667,"lng":130.2,"population":25089},{"id":1857712,"name":"Makurazaki","timezone":{"dstOffset":9,"gmtOffset":9,"timeZoneId":"Asia/Tokyo"},"lat":31.26667,"lng":130.31667,"population":24971},{"id":1861261,"name":"Itsukaichi","timezone":{"dstOffset":9,"gmtOffset":9,"timeZoneId":"Asia/Tokyo"},"lat":35.72528,"lng":139.21778,"population":24954},{"id":1861406,"name":"Ishige","timezone":{"dstOffset":9,"gmtOffset":9,"timeZoneId":"Asia/Tokyo"},"lat":36.11667,"lng":139.96667,"population":24948},{"id":1851137,"name":"Takahashi","timezone":{"dstOffset":9,"gmtOffset":9,"timeZoneId":"Asia/Tokyo"},"lat":34.78333,"lng":133.61667,"population":24819},{"id":1863521,"name":"Gōtsuchō","timezone":{"dstOffset":9,"gmtOffset":9,"timeZoneId":"Asia/Tokyo"},"lat":35.00856,"lng":132.2257,"population":24597},{"id":1863341,"name":"Hakui","timezone":{"dstOffset":9,"gmtOffset":9,"timeZoneId":"Asia/Tokyo"},"lat":36.88333,"lng":136.78333,"population":24529},{"id":2112692,"name":"Hobaramachi","timezone":{"dstOffset":9,"gmtOffset":9,"timeZoneId":"Asia/Tokyo"},"lat":37.81667,"lng":140.55,"population":24515},{"id":1860321,"name":"Kamojimachō-jōgejima","timezone":{"dstOffset":9,"gmtOffset":9,"timeZoneId":"Asia/Tokyo"},"lat":34.06803,"lng":134.35033,"population":24374},{"id":1861584,"name":"Ino","timezone":{"dstOffset":9,"gmtOffset":9,"timeZoneId":"Asia/Tokyo"},"lat":33.55,"lng":133.43333,"population":24123},{"id":1852673,"name":"Setakamachi-takayanagi","timezone":{"dstOffset":9,"gmtOffset":9,"timeZoneId":"Asia/Tokyo"},"lat":33.14858,"lng":130.46548,"population":23985},{"id":1861383,"name":"Ishiki","timezone":{"dstOffset":9,"gmtOffset":9,"timeZoneId":"Asia/Tokyo"},"lat":34.8,"lng":137.01667,"population":23966},{"id":1851170,"name":"BungoTakada","timezone":{"dstOffset":9,"gmtOffset":9,"timeZoneId":"Asia/Tokyo"},"lat":33.5567,"lng":131.44506,"population":23856},{"id":1859335,"name":"Kitahama","timezone":{"dstOffset":9,"gmtOffset":9,"timeZoneId":"Asia/Tokyo"},"lat":35.16667,"lng":135.91667,"population":23836},{"id":1855416,"name":"Niimi","timezone":{"dstOffset":9,"gmtOffset":9,"timeZoneId":"Asia/Tokyo"},"lat":34.98333,"lng":133.46667,"population":23787},{"id":1859964,"name":"Kaseda-shirakame","timezone":{"dstOffset":9,"gmtOffset":9,"timeZoneId":"Asia/Tokyo"},"lat":31.41667,"lng":130.31667,"population":23710},{"id":1857062,"name":"Mino","timezone":{"dstOffset":9,"gmtOffset":9,"timeZoneId":"Asia/Tokyo"},"lat":35.53333,"lng":136.91667,"population":23566},{"id":2112903,"name":"Funehikimachi-funehiki","timezone":{"dstOffset":9,"gmtOffset":9,"timeZoneId":"Asia/Tokyo"},"lat":37.44722,"lng":140.5771,"population":23524},{"id":1854629,"name":"Ogōri-shimogō","timezone":{"dstOffset":9,"gmtOffset":9,"timeZoneId":"Asia/Tokyo"},"lat":34.1,"lng":131.4,"population":23516},{"id":1851282,"name":"Tadotsu","timezone":{"dstOffset":9,"gmtOffset":9,"timeZoneId":"Asia/Tokyo"},"lat":34.275,"lng":133.75,"population":23514},{"id":1857260,"name":"Mikuni","timezone":{"dstOffset":9,"gmtOffset":9,"timeZoneId":"Asia/Tokyo"},"lat":36.21706,"lng":136.15185,"population":23480},{"id":1851622,"name":"Sobue","timezone":{"dstOffset":9,"gmtOffset":9,"timeZoneId":"Asia/Tokyo"},"lat":35.25,"lng":136.71667,"population":23372},{"id":1859234,"name":"Kitsuki","timezone":{"dstOffset":9,"gmtOffset":9,"timeZoneId":"Asia/Tokyo"},"lat":33.41998,"lng":131.61836,"population":23353},{"id":2111461,"name":"Ōkawara","timezone":{"dstOffset":9,"gmtOffset":9,"timeZoneId":"Asia/Tokyo"},"lat":38.05,"lng":140.73361,"population":23340},{"id":1850345,"name":"Toba","timezone":{"dstOffset":9,"gmtOffset":9,"timeZoneId":"Asia/Tokyo"},"lat":34.4833,"lng":136.84186,"population":23303},{"id":1851935,"name":"Shirahama","timezone":{"dstOffset":9,"gmtOffset":9,"timeZoneId":"Asia/Tokyo"},"lat":34.78333,"lng":134.71667,"population":23180},{"id":1899102,"name":"Nagato","timezone":{"dstOffset":9,"gmtOffset":9,"timeZoneId":"Asia/Tokyo"},"lat":34.38333,"lng":131.2,"population":23101},{"id":7281819,"name":"Fujikawaguchiko","timezone":{"dstOffset":9,"gmtOffset":9,"timeZoneId":"Asia/Tokyo"},"lat":35.48933,"lng":138.68832,"population":23097},{"id":1850307,"name":"Tochio-honchō","timezone":{"dstOffset":9,"gmtOffset":9,"timeZoneId":"Asia/Tokyo"},"lat":37.47642,"lng":138.99513,"population":23045},{"id":1860563,"name":"Kamiichi","timezone":{"dstOffset":9,"gmtOffset":9,"timeZoneId":"Asia/Tokyo"},"lat":36.7,"lng":137.36667,"population":23004},{"id":1860750,"name":"Kajiki","timezone":{"dstOffset":9,"gmtOffset":9,"timeZoneId":"Asia/Tokyo"},"lat":31.73333,"lng":130.66667,"population":22997},{"id":2127383,"name":"Bihoro","timezone":{"dstOffset":9,"gmtOffset":9,"timeZoneId":"Asia/Tokyo"},"lat":43.82278,"lng":144.10444,"population":22972},{"id":1852561,"name":"Shido","timezone":{"dstOffset":9,"gmtOffset":9,"timeZoneId":"Asia/Tokyo"},"lat":34.32333,"lng":134.17333,"population":22859},{"id":2129218,"name":"Yoichi","timezone":{"dstOffset":9,"gmtOffset":9,"timeZoneId":"Asia/Tokyo"},"lat":43.20389,"lng":140.77028,"population":22788},{"id":1862601,"name":"Hino","timezone":{"dstOffset":9,"gmtOffset":9,"timeZoneId":"Asia/Tokyo"},"lat":35,"lng":136.25,"population":22767},{"id":1850405,"name":"Tennō","timezone":{"dstOffset":9,"gmtOffset":9,"timeZoneId":"Asia/Tokyo"},"lat":39.9,"lng":139.96667,"population":22740},{"id":2111824,"name":"Motomiya","timezone":{"dstOffset":9,"gmtOffset":9,"timeZoneId":"Asia/Tokyo"},"lat":37.51391,"lng":140.40063,"population":22705},{"id":1859998,"name":"Kasamatsuchō","timezone":{"dstOffset":9,"gmtOffset":9,"timeZoneId":"Asia/Tokyo"},"lat":35.36667,"lng":136.76667,"population":22671},{"id":1862555,"name":"Hirado","timezone":{"dstOffset":9,"gmtOffset":9,"timeZoneId":"Asia/Tokyo"},"lat":33.36853,"lng":129.55247,"population":22516},{"id":1851068,"name":"Takanabe","timezone":{"dstOffset":9,"gmtOffset":9,"timeZoneId":"Asia/Tokyo"},"lat":32.13333,"lng":131.5,"population":22513},{"id":2128025,"name":"Shizunai-furukawachō","timezone":{"dstOffset":9,"gmtOffset":9,"timeZoneId":"Asia/Tokyo"},"lat":42.33389,"lng":142.36694,"population":22436},{"id":1854246,"name":"Ōkuchi-shinohara","timezone":{"dstOffset":9,"gmtOffset":9,"timeZoneId":"Asia/Tokyo"},"lat":32.06779,"lng":130.62439,"population":22425},{"id":1861393,"name":"Ishikawa","timezone":{"dstOffset":9,"gmtOffset":9,"timeZoneId":"Asia/Tokyo"},"lat":26.42333,"lng":127.82139,"population":22412},{"id":2112989,"name":"Daigo","timezone":{"dstOffset":9,"gmtOffset":9,"timeZoneId":"Asia/Tokyo"},"lat":36.76667,"lng":140.35,"population":22310},{"id":2112309,"name":"Katsuura","timezone":{"dstOffset":9,"gmtOffset":9,"timeZoneId":"Asia/Tokyo"},"lat":35.14297,"lng":140.31388,"population":22307},{"id":1848447,"name":"Yatsuomachi-higashikumisaka","timezone":{"dstOffset":9,"gmtOffset":9,"timeZoneId":"Asia/Tokyo"},"lat":36.56667,"lng":137.13333,"population":22205},{"id":1851711,"name":"Shōbu","timezone":{"dstOffset":9,"gmtOffset":9,"timeZoneId":"Asia/Tokyo"},"lat":36.06667,"lng":139.6,"population":22156},{"id":1895695,"name":"Kushima","timezone":{"dstOffset":9,"gmtOffset":9,"timeZoneId":"Asia/Tokyo"},"lat":31.48621,"lng":131.2421,"population":22102},{"id":1858591,"name":"Kozakai-chō","timezone":{"dstOffset":9,"gmtOffset":9,"timeZoneId":"Asia/Tokyo"},"lat":34.8,"lng":137.35889,"population":22064},{"id":1849584,"name":"Tsurugi-asahimachi","timezone":{"dstOffset":9,"gmtOffset":9,"timeZoneId":"Asia/Tokyo"},"lat":36.45,"lng":136.63333,"population":22042},{"id":1853514,"name":"Owase","timezone":{"dstOffset":9,"gmtOffset":9,"timeZoneId":"Asia/Tokyo"},"lat":34.06667,"lng":136.2,"population":22038},{"id":2112521,"name":"Iwase","timezone":{"dstOffset":9,"gmtOffset":9,"timeZoneId":"Asia/Tokyo"},"lat":36.35,"lng":140.1,"population":21980},{"id":1849850,"name":"Toyohama","timezone":{"dstOffset":9,"gmtOffset":9,"timeZoneId":"Asia/Tokyo"},"lat":34.70933,"lng":136.93425,"population":21917},{"id":2111704,"name":"Namie","timezone":{"dstOffset":9,"gmtOffset":9,"timeZoneId":"Asia/Tokyo"},"lat":37.48333,"lng":141,"population":21866},{"id":2127802,"name":"Tōbetsu","timezone":{"dstOffset":9,"gmtOffset":9,"timeZoneId":"Asia/Tokyo"},"lat":43.21694,"lng":141.51694,"population":21818},{"id":2128206,"name":"Shibetsu","timezone":{"dstOffset":9,"gmtOffset":9,"timeZoneId":"Asia/Tokyo"},"lat":43.65899,"lng":145.13197,"population":21744},{"id":1853486,"name":"Ōyama","timezone":{"dstOffset":9,"gmtOffset":9,"timeZoneId":"Asia/Tokyo"},"lat":34.60359,"lng":138.21719,"population":21744},{"id":1849661,"name":"Tsukumiura","timezone":{"dstOffset":9,"gmtOffset":9,"timeZoneId":"Asia/Tokyo"},"lat":33.07539,"lng":131.86907,"population":21658},{"id":1856703,"name":"Miyazu","timezone":{"dstOffset":9,"gmtOffset":9,"timeZoneId":"Asia/Tokyo"},"lat":35.53333,"lng":135.18333,"population":21632},{"id":1848498,"name":"Yashiro","timezone":{"dstOffset":9,"gmtOffset":9,"timeZoneId":"Asia/Tokyo"},"lat":34.91667,"lng":134.96667,"population":21554},{"id":1859113,"name":"Kodamachō-kodamaminami","timezone":{"dstOffset":9,"gmtOffset":9,"timeZoneId":"Asia/Tokyo"},"lat":36.18497,"lng":139.13191,"population":21544},{"id":1850498,"name":"Tatsuno","timezone":{"dstOffset":9,"gmtOffset":9,"timeZoneId":"Asia/Tokyo"},"lat":35.98426,"lng":137.99721,"population":21499},{"id":1854177,"name":"Ōmamachō-ōmama","timezone":{"dstOffset":9,"gmtOffset":9,"timeZoneId":"Asia/Tokyo"},"lat":36.43181,"lng":139.27534,"population":21286},{"id":1850627,"name":"Tanushimarumachi-toyoki","timezone":{"dstOffset":9,"gmtOffset":9,"timeZoneId":"Asia/Tokyo"},"lat":33.35,"lng":130.68333,"population":21156},{"id":1852102,"name":"Shin’ichi","timezone":{"dstOffset":9,"gmtOffset":9,"timeZoneId":"Asia/Tokyo"},