[{"id":1835848,"name":"Seoul","timezone":{"dstOffset":9,"gmtOffset":9,"timeZoneId":"Asia/Seoul"},"lat":37.566,"lng":126.9784,"population":10349312},{"id":1838524,"name":"Busan","timezone":{"dstOffset":9,"gmtOffset":9,"timeZoneId":"Asia/Seoul"},"lat":35.10278,"lng":129.04028,"population":3678555},{"id":1843564,"name":"Incheon","timezone":{"dstOffset":9,"gmtOffset":9,"timeZoneId":"Asia/Seoul"},"lat":37.45646,"lng":126.70515,"population":2628000},{"id":1835329,"name":"Daegu","timezone":{"dstOffset":9,"gmtOffset":9,"timeZoneId":"Asia/Seoul"},"lat":35.87028,"lng":128.59111,"population":2566540},{"id":1835235,"name":"Daejeon","timezone":{"dstOffset":9,"gmtOffset":9,"timeZoneId":"Asia/Seoul"},"lat":36.32139,"lng":127.41972,"population":1475221},{"id":1841811,"name":"Gwangju","timezone":{"dstOffset":9,"gmtOffset":9,"timeZoneId":"Asia/Seoul"},"lat":35.15472,"lng":126.91556,"population":1416938},{"id":1835553,"name":"Suwon-si","timezone":{"dstOffset":9,"gmtOffset":9,"timeZoneId":"Asia/Seoul"},"lat":37.29111,"lng":127.00889,"population":1242724},{"id":1842485,"name":"Goyang-si","timezone":{"dstOffset":9,"gmtOffset":9,"timeZoneId":"Asia/Seoul"},"lat":37.65639,"lng":126.835,"population":1073069},{"id":1897000,"name":"Seongnam-si","timezone":{"dstOffset":9,"gmtOffset":9,"timeZoneId":"Asia/Seoul"},"lat":37.43861,"lng":127.13778,"population":1031935},{"id":1833747,"name":"Ulsan","timezone":{"dstOffset":9,"gmtOffset":9,"timeZoneId":"Asia/Seoul"},"lat":35.53722,"lng":129.31667,"population":962865},{"id":1838716,"name":"Bucheon-si","timezone":{"dstOffset":9,"gmtOffset":9,"timeZoneId":"Asia/Seoul"},"lat":37.49889,"lng":126.78306,"population":850731},{"id":1845457,"name":"Jeonju","timezone":{"dstOffset":9,"gmtOffset":9,"timeZoneId":"Asia/Seoul"},"lat":35.82194,"lng":127.14889,"population":711424},{"id":1846918,"name":"Ansan-si","timezone":{"dstOffset":9,"gmtOffset":9,"timeZoneId":"Asia/Seoul"},"lat":37.32361,"lng":126.82194,"population":650728},{"id":1845604,"name":"Cheongju-si","timezone":{"dstOffset":9,"gmtOffset":9,"timeZoneId":"Asia/Seoul"},"lat":36.63722,"lng":127.48972,"population":634596},{"id":1846898,"name":"Anyang-si","timezone":{"dstOffset":9,"gmtOffset":9,"timeZoneId":"Asia/Seoul"},"lat":37.3925,"lng":126.92694,"population":634367},{"id":1846326,"name":"Changwon","timezone":{"dstOffset":9,"gmtOffset":9,"timeZoneId":"Asia/Seoul"},"lat":35.22806,"lng":128.68111,"population":550000},{"id":1839071,"name":"Pohang","timezone":{"dstOffset":9,"gmtOffset":9,"timeZoneId":"Asia/Seoul"},"lat":36.03222,"lng":129.365,"population":500000},{"id":1833788,"name":"Uijeongbu-si","timezone":{"dstOffset":9,"gmtOffset":9,"timeZoneId":"Asia/Seoul"},"lat":37.7415,"lng":127.0474,"population":479141},{"id":1843847,"name":"Hwaseong-si","timezone":{"dstOffset":9,"gmtOffset":9,"timeZoneId":"Asia/Seoul"},"lat":37.20682,"lng":126.8169,"population":476297},{"id":1846266,"name":"Jeju-si","timezone":{"dstOffset":9,"gmtOffset":9,"timeZoneId":"Asia/Seoul"},"lat":33.50972,"lng":126.52194,"population":408364},{"id":1845759,"name":"Cheonan","timezone":{"dstOffset":9,"gmtOffset":9,"timeZoneId":"Asia/Seoul"},"lat":36.8065,"lng":127.1522,"population":365114},{"id":1948005,"name":"Kwangmyŏng","timezone":{"dstOffset":9,"gmtOffset":9,"timeZoneId":"Asia/Seoul"},"lat":37.47722,"lng":126.86639,"population":357545},{"id":1842943,"name":"Gimhae","timezone":{"dstOffset":9,"gmtOffset":9,"timeZoneId":"Asia/Seoul"},"lat":35.23417,"lng":128.88111,"population":356242},{"id":1846052,"name":"Jinju","timezone":{"dstOffset":9,"gmtOffset":9,"timeZoneId":"Asia/Seoul"},"lat":35.19278,"lng":128.08472,"population":307242},{"id":1884138,"name":"Yeosu","timezone":{"dstOffset":9,"gmtOffset":9,"timeZoneId":"Asia/Seoul"},"lat":34.76278,"lng":127.66528,"population":295538},{"id":1842225,"name":"Gumi","timezone":{"dstOffset":9,"gmtOffset":9,"timeZoneId":"Asia/Seoul"},"lat":36.1136,"lng":128.336,"population":291006},{"id":1843491,"name":"Iksan","timezone":{"dstOffset":9,"gmtOffset":9,"timeZoneId":"Asia/Seoul"},"lat":35.94389,"lng":126.95444,"population":283501},{"id":1841066,"name":"Moppo","timezone":{"dstOffset":9,"gmtOffset":9,"timeZoneId":"Asia/Seoul"},"lat":34.79361,"lng":126.38861,"population":268402},{"id":1842025,"name":"Gunsan","timezone":{"dstOffset":9,"gmtOffset":9,"timeZoneId":"Asia/Seoul"},"lat":35.97861,"lng":126.71139,"population":243406},{"id":1833105,"name":"Wŏnju","timezone":{"dstOffset":9,"gmtOffset":9,"timeZoneId":"Asia/Seoul"},"lat":37.35139,"lng":127.94528,"population":243387},{"id":1835648,"name":"Suncheon","timezone":{"dstOffset":9,"gmtOffset":9,"timeZoneId":"Asia/Seoul"},"lat":34.94808,"lng":127.48947,"population":230796},{"id":1845136,"name":"Chuncheon","timezone":{"dstOffset":9,"gmtOffset":9,"timeZoneId":"Asia/Seoul"},"lat":37.87472,"lng":127.73417,"population":209746},{"id":1843702,"name":"Icheon-si","timezone":{"dstOffset":9,"gmtOffset":9,"timeZoneId":"Asia/Seoul"},"lat":37.27917,"lng":127.4425,"population":196230},{"id":1841988,"name":"Guri-si","timezone":{"dstOffset":9,"gmtOffset":9,"timeZoneId":"Asia/Seoul"},"lat":37.5986,"lng":127.1394,"population":195236},{"id":1843137,"name":"Gangneung","timezone":{"dstOffset":9,"gmtOffset":9,"timeZoneId":"Asia/Seoul"},"lat":37.75556,"lng":128.89611,"population":180611},{"id":1832847,"name":"Yangju","timezone":{"dstOffset":9,"gmtOffset":9,"timeZoneId":"Asia/Seoul"},"lat":37.83311,"lng":127.06169,"population":179923},{"id":1839652,"name":"Osan","timezone":{"dstOffset":9,"gmtOffset":9,"timeZoneId":"Asia/Seoul"},"lat":37.15222,"lng":127.07056,"population":158978},{"id":6621166,"name":"Seogwipo","timezone":{"dstOffset":9,"gmtOffset":9,"timeZoneId":"Asia/Seoul"},"lat":33.25333,"lng":126.56181,"population":155691},{"id":1841603,"name":"Gyeongju","timezone":{"dstOffset":9,"gmtOffset":9,"timeZoneId":"Asia/Seoul"},"lat":35.84278,"lng":129.21167,"population":155237},{"id":1842944,"name":"Gimcheon","timezone":{"dstOffset":9,"gmtOffset":9,"timeZoneId":"Asia/Seoul"},"lat":36.12176,"lng":128.11981,"population":150000},{"id":1897007,"name":"Hanam","timezone":{"dstOffset":9,"gmtOffset":9,"timeZoneId":"Asia/Seoul"},"lat":37.54,"lng":127.20556,"population":134902},{"id":1841598,"name":"Gyeongsan-si","timezone":{"dstOffset":9,"gmtOffset":9,"timeZoneId":"Asia/Seoul"},"lat":35.82333,"lng":128.73778,"population":129903},{"id":1846986,"name":"Andong","timezone":{"dstOffset":9,"gmtOffset":9,"timeZoneId":"Asia/Seoul"},"lat":36.56556,"lng":128.725,"population":129319},{"id":1897118,"name":"Hwado","timezone":{"dstOffset":9,"gmtOffset":9,"timeZoneId":"Asia/Seoul"},"lat":37.6525,"lng":127.3075,"population":106358},{"id":1892823,"name":"Tonghae","timezone":{"dstOffset":9,"gmtOffset":9,"timeZoneId":"Asia/Seoul"},"lat":37.54389,"lng":129.10694,"population":101128},{"id":1839726,"name":"Asan","timezone":{"dstOffset":9,"gmtOffset":9,"timeZoneId":"Asia/Seoul"},"lat":36.78361,"lng":127.00417,"population":97749},{"id":1912209,"name":"Wabu","timezone":{"dstOffset":9,"gmtOffset":9,"timeZoneId":"Asia/Seoul"},"lat":37.58972,"lng":127.22028,"population":96775},{"id":1897122,"name":"Namyangju","timezone":{"dstOffset":9,"gmtOffset":9,"timeZoneId":"Asia/Seoul"},"lat":37.63667,"lng":127.21417,"population":90798},{"id":1841775,"name":"Kwangyang","timezone":{"dstOffset":9,"gmtOffset":9,"timeZoneId":"Asia/Seoul"},"lat":34.97528,"lng":127.58917,"population":89281},{"id":1844174,"name":"Hongsung","timezone":{"dstOffset":9,"gmtOffset":9,"timeZoneId":"Asia/Seoul"},"lat":36.6009,"lng":126.665,"population":89174},{"id":1836553,"name":"Sokcho","timezone":{"dstOffset":9,"gmtOffset":9,"timeZoneId":"Asia/Seoul"},"lat":38.20701,"lng":128.59181,"population":89047},{"id":1832384,"name":"Eisen","timezone":{"dstOffset":9,"gmtOffset":9,"timeZoneId":"Asia/Seoul"},"lat":36.82167,"lng":128.63083,"population":84625},{"id":1833466,"name":"Wanju","timezone":{"dstOffset":9,"gmtOffset":9,"timeZoneId":"Asia/Seoul"},"lat":35.84509,"lng":127.14752,"population":84009},{"id":1832830,"name":"Yangp'yŏng","timezone":{"dstOffset":9,"gmtOffset":9,"timeZoneId":"Asia/Seoul"},"lat":37.48972,"lng":127.49056,"population":83367},{"id":1912205,"name":"Ungsang","timezone":{"dstOffset":9,"gmtOffset":9,"timeZoneId":"Asia/Seoul"},"lat":35.40611,"lng":129.16861,"population":83360},{"id":1882056,"name":"Sinhyeon","timezone":{"dstOffset":9,"gmtOffset":9,"timeZoneId":"Asia/Seoul"},"lat":34.8825,"lng":128.62667,"population":82560},{"id":1841810,"name":"Kwangju","timezone":{"dstOffset":9,"gmtOffset":9,"timeZoneId":"Asia/Seoul"},"lat":37.41,"lng":127.25722,"population":81780},{"id":1840886,"name":"Mungyeong","timezone":{"dstOffset":9,"gmtOffset":9,"timeZoneId":"Asia/Seoul"},"lat":36.59458,"lng":128.19946,"population":81525},{"id":1925936,"name":"Naesŏ","timezone":{"dstOffset":9,"gmtOffset":9,"timeZoneId":"Asia/Seoul"},"lat":35.24972,"lng":128.52,"population":80987},{"id":1840982,"name":"Muan","timezone":{"dstOffset":9,"gmtOffset":9,"timeZoneId":"Asia/Seoul"},"lat":34.99014,"lng":126.47899,"population":75718},{"id":1844191,"name":"Hongch’ŏn","timezone":{"dstOffset":9,"gmtOffset":9,"timeZoneId":"Asia/Seoul"},"lat":37.6918,"lng":127.8857,"population":75251},{"id":6903078,"name":"Changnyeong","timezone":{"dstOffset":9,"gmtOffset":9,"timeZoneId":"Asia/Seoul"},"lat":35.54145,"lng":128.49506,"population":74668},{"id":1835895,"name":"Seosan City","timezone":{"dstOffset":9,"gmtOffset":9,"timeZoneId":"Asia/Seoul"},"lat":36.78167,"lng":126.45222,"population":74208},{"id":1842859,"name":"Koch'ang","timezone":{"dstOffset":9,"gmtOffset":9,"timeZoneId":"Asia/Seoul"},"lat":35.43333,"lng":126.7,"population":72996},{"id":1842616,"name":"Gongju","timezone":{"dstOffset":9,"gmtOffset":9,"timeZoneId":"Asia/Seoul"},"lat":36.45556,"lng":127.12472,"population":72435},{"id":1842754,"name":"Kyosai","timezone":{"dstOffset":9,"gmtOffset":9,"timeZoneId":"Asia/Seoul"},"lat":34.85028,"lng":128.58861,"population":72124},{"id":1832828,"name":"Yangsan","timezone":{"dstOffset":9,"gmtOffset":9,"timeZoneId":"Asia/Seoul"},"lat":35.33861,"lng":129.03861,"population":71936},{"id":1846912,"name":"Anseong","timezone":{"dstOffset":9,"gmtOffset":9,"timeZoneId":"Asia/Seoul"},"lat":37.01083,"lng":127.27028,"population":69255},{"id":1925943,"name":"Hwawŏn","timezone":{"dstOffset":9,"gmtOffset":9,"timeZoneId":"Asia/Seoul"},"lat":35.80167,"lng":128.50083,"population":64718},{"id":1896953,"name":"Pubal","timezone":{"dstOffset":9,"gmtOffset":9,"timeZoneId":"Asia/Seoul"},"lat":37.29167,"lng":127.50778,"population":63026},{"id":1840179,"name":"Kosong","timezone":{"dstOffset":9,"gmtOffset":9,"timeZoneId":"Asia/Seoul"},"lat":38.37881,"lng":128.4676,"population":62446},{"id":1835447,"name":"Taisen-ri","timezone":{"dstOffset":9,"gmtOffset":9,"timeZoneId":"Asia/Seoul"},"lat":36.34931,"lng":126.59772,"population":62039},{"id":1846095,"name":"Chinch'ŏn","timezone":{"dstOffset":9,"gmtOffset":9,"timeZoneId":"Asia/Seoul"},"lat":36.85667,"lng":127.44333,"population":60964},{"id":1843841,"name":"Hwasun","timezone":{"dstOffset":9,"gmtOffset":9,"timeZoneId":"Asia/Seoul"},"lat":35.05944,"lng":126.985,"population":59914},{"id":1840379,"name":"Nangen","timezone":{"dstOffset":9,"gmtOffset":9,"timeZoneId":"Asia/Seoul"},"lat":35.41,"lng":127.38583,"population":58057},{"id":1839873,"name":"Okcheon","timezone":{"dstOffset":9,"gmtOffset":9,"timeZoneId":"Asia/Seoul"},"lat":36.3012,"lng":127.568,"population":56634},{"id":1832617,"name":"Eisen","timezone":{"dstOffset":9,"gmtOffset":9,"timeZoneId":"Asia/Seoul"},"lat":35.9675,"lng":128.93083,"population":56006},{"id":1837706,"name":"Sangju","timezone":{"dstOffset":9,"gmtOffset":9,"timeZoneId":"Asia/Seoul"},"lat":36.41528,"lng":128.16056,"population":55640},{"id":1843082,"name":"Gapyeong County","timezone":{"dstOffset":9,"gmtOffset":9,"timeZoneId":"Asia/Seoul"},"lat":37.83101,"lng":127.51059,"population":55415},{"id":6395804,"name":"Sinan","timezone":{"dstOffset":9,"gmtOffset":9,"timeZoneId":"Asia/Seoul"},"lat":34.8262,"lng":126.10863,"population":53150},{"id":1841149,"name":"Miryang","timezone":{"dstOffset":9,"gmtOffset":9,"timeZoneId":"Asia/Seoul"},"lat":35.49333,"lng":128.74889,"population":53103},{"id":1835515,"name":"T’aebaek","timezone":{"dstOffset":9,"gmtOffset":9,"timeZoneId":"Asia/Seoul"},"lat":37.1759,"lng":128.9889,"population":48962},{"id":1842939,"name":"Kimje","timezone":{"dstOffset":9,"gmtOffset":9,"timeZoneId":"Asia/Seoul"},"lat":35.80167,"lng":126.88889,"population":44894},{"id":1842800,"name":"Koesan","timezone":{"dstOffset":9,"gmtOffset":9,"timeZoneId":"Asia/Seoul"},"lat":36.81083,"lng":127.79472,"population":44461},{"id":1840211,"name":"Nonsan","timezone":{"dstOffset":9,"gmtOffset":9,"timeZoneId":"Asia/Seoul"},"lat":36.20389,"lng":127.08472,"population":43845},{"id":1840862,"name":"Munsan","timezone":{"dstOffset":9,"gmtOffset":9,"timeZoneId":"Asia/Seoul"},"lat":37.85944,"lng":126.785,"population":43208},{"id":1842966,"name":"Gijang","timezone":{"dstOffset":9,"gmtOffset":9,"timeZoneId":"Asia/Seoul"},"lat":35.24417,"lng":129.21389,"population":43064},{"id":1840536,"name":"Naju","timezone":{"dstOffset":9,"gmtOffset":9,"timeZoneId":"Asia/Seoul"},"lat":35.02833,"lng":126.7175,"population":42459},{"id":1838069,"name":"Santyoku","timezone":{"dstOffset":9,"gmtOffset":9,"timeZoneId":"Asia/Seoul"},"lat":37.44056,"lng":129.17083,"population":42145},{"id":1832215,"name":"Enjitsu","timezone":{"dstOffset":9,"gmtOffset":9,"timeZoneId":"Asia/Seoul"},"lat":35.99417,"lng":129.345,"population":40852},{"id":1844308,"name":"Hayang","timezone":{"dstOffset":9,"gmtOffset":9,"timeZoneId":"Asia/Seoul"},"lat":35.91333,"lng":128.82,"population":40423},{"id":1832771,"name":"Yesan","timezone":{"dstOffset":9,"gmtOffset":9,"timeZoneId":"Asia/Seoul"},"lat":36.67756,"lng":126.84272,"population":39409},{"id":1843585,"name":"Imsil","timezone":{"dstOffset":9,"gmtOffset":9,"timeZoneId":"Asia/Seoul"},"lat":35.61306,"lng":127.27944,"population":37514},{"id":1832743,"name":"Yeoju","timezone":{"dstOffset":9,"gmtOffset":9,"timeZoneId":"Asia/Seoul"},"lat":37.29583,"lng":127.63389,"population":37490},{"id":1832015,"name":"Heung-hai","timezone":{"dstOffset":9,"gmtOffset":9,"timeZoneId":"Asia/Seoul"},"lat":36.1125,"lng":129.35222,"population":36080},{"id":1842016,"name":"Kunwi","timezone":{"dstOffset":9,"gmtOffset":9,"timeZoneId":"Asia/Seoul"},"lat":36.23472,"lng":128.57278,"population":34293},{"id":8553570,"name":"Duryu-dong","timezone":{"dstOffset":9,"gmtOffset":9,"timeZoneId":"Asia/Seoul"},"lat":35.8551,"lng":128.56544,"population":34280},{"id":1834885,"name":"Tangjin","timezone":{"dstOffset":9,"gmtOffset":9,"timeZoneId":"Asia/Seoul"},"lat":36.89444,"lng":126.62972,"population":32778},{"id":1838508,"name":"Fuyo","timezone":{"dstOffset":9,"gmtOffset":9,"timeZoneId":"Asia/Seoul"},"lat":36.28194,"lng":126.9125,"population":32642},{"id":1845519,"name":"Cheongsong gun","timezone":{"dstOffset":9,"gmtOffset":9,"timeZoneId":"Asia/Seoul"},"lat":36.43351,"lng":129.057,"population":31313},{"id":1846114,"name":"Jinan-gun","timezone":{"dstOffset":9,"gmtOffset":9,"timeZoneId":"Asia/Seoul"},"lat":35.79167,"lng":127.42528,"population":31273},{"id":1841976,"name":"Kurye","timezone":{"dstOffset":9,"gmtOffset":9,"timeZoneId":"Asia/Seoul"},"lat":35.20944,"lng":127.46444,"population":30000},{"id":1833514,"name":"Chilgok","timezone":{"dstOffset":9,"gmtOffset":9,"timeZoneId":"Asia/Seoul"},"lat":35.99175,"lng":128.39732,"population":29691},{"id":1836208,"name":"Seonghwan","timezone":{"dstOffset":9,"gmtOffset":9,"timeZoneId":"Asia/Seoul"},"lat":36.91556,"lng":127.13139,"population":29239},{"id":1842518,"name":"Goseong","timezone":{"dstOffset":9,"gmtOffset":9,"timeZoneId":"Asia/Seoul"},"lat":34.97631,"lng":128.32361,"population":26704},{"id":1846355,"name":"Changsu","timezone":{"dstOffset":9,"gmtOffset":9,"timeZoneId":"Asia/Seoul"},"lat":35.64842,"lng":127.51523,"population":26463},{"id":1843163,"name":"Ganghwa-gun","timezone":{"dstOffset":9,"gmtOffset":9,"timeZoneId":"Asia/Seoul"},"lat":37.74722,"lng":126.48556,"population":25535},{"id":1832257,"name":"Neietsu","timezone":{"dstOffset":9,"gmtOffset":9,"timeZoneId":"Asia/Seoul"},"lat":37.18447,"lng":128.46821,"population":25413},{"id":1842153,"name":"Kinzan","timezone":{"dstOffset":9,"gmtOffset":9,"timeZoneId":"Asia/Seoul"},"lat":36.10306,"lng":127.48889,"population":25243},{"id":1886598,"name":"Yŏnmu","timezone":{"dstOffset":9,"gmtOffset":9,"timeZoneId":"Asia/Seoul"},"lat":36.12944,"lng":127.1,"population":25015},{"id":1832566,"name":"Yeongdong","timezone":{"dstOffset":9,"gmtOffset":9,"timeZoneId":"Asia/Seoul"},"lat":36.175,"lng":127.77639,"population":24154},{"id":1832909,"name":"Yanggu","timezone":{"dstOffset":9,"gmtOffset":9,"timeZoneId":"Asia/Seoul"},"lat":38.10583,"lng":127.98944,"population":24027},{"id":1844751,"name":"Haenam","timezone":{"dstOffset":9,"gmtOffset":9,"timeZoneId":"Asia/Seoul"},"lat":34.57111,"lng":126.59889,"population":23928},{"id":1844045,"name":"Hwacheon","timezone":{"dstOffset":9,"gmtOffset":9,"timeZoneId":"Asia/Seoul"},"lat":38.10611,"lng":127.70667,"population":23822},{"id":1847050,"name":"Gaigeturi","timezone":{"dstOffset":9,"gmtOffset":9,"timeZoneId":"Asia/Seoul"},"lat":33.46444,"lng":126.31833,"population":23717},{"id":1835096,"name":"Taesal-li","timezone":{"dstOffset":9,"gmtOffset":9,"timeZoneId":"Asia/Seoul"},"lat":36.9714,"lng":126.4542,"population":23149},{"id":1838722,"name":"Puan","timezone":{"dstOffset":9,"gmtOffset":9,"timeZoneId":"Asia/Seoul"},"lat":35.72806,"lng":126.73194,"population":22267},{"id":1835967,"name":"Seonsan","timezone":{"dstOffset":9,"gmtOffset":9,"timeZoneId":"Asia/Seoul"},"lat":36.24083,"lng":128.2975,"population":20673},{"id":1832501,"name":"Reiko","timezone":{"dstOffset":9,"gmtOffset":9,"timeZoneId":"Asia/Seoul"},"lat":35.275,"lng":126.50944,"population":19909},{"id":1839011,"name":"Beolgyo","timezone":{"dstOffset":9,"gmtOffset":9,"timeZoneId":"Asia/Seoul"},"lat":34.84494,"lng":127.34293,"population":19842},{"id":1836839,"name":"Sintansin","timezone":{"dstOffset":9,"gmtOffset":9,"timeZoneId":"Asia/Seoul"},"lat":36.45361,"lng":127.43111,"population":15000},{"id":6888788,"name":"Songgangdong","timezone":{"dstOffset":9,"gmtOffset":9,"timeZoneId":"Asia/Seoul"},"lat":36.43406,"lng":127.37559,"population":10000},{"id":1951567,"name":"Paju","timezone":{"dstOffset":9,"gmtOffset":9,"timeZoneId":"Asia/Seoul"},"lat":37.83278,"lng":126.81694,"population":0},{"id":1836649,"name":"Seogeom-ri","timezone":{"dstOffset":9,"gmtOffset":9,"timeZoneId":"Asia/Seoul"},"lat":37.71871,"lng":126.23304,"population":0},{"id":1839110,"name":"Beobwon","timezone":{"dstOffset":9,"gmtOffset":9,"timeZoneId":"Asia/Seoul"},"lat":37.84902,"lng":126.87533,"population":0},{"id":1832699,"name":"Yeoncheon","timezone":{"dstOffset":9,"gmtOffset":9,"timeZoneId":"Asia/Seoul"},"lat":38.10113,"lng":127.07727,"population":0},{"id":1845388,"name":"Cheorwon","timezone":{"dstOffset":9,"gmtOffset":9,"timeZoneId":"Asia/Seoul"},"lat":38.20917,"lng":127.2175,"population":0},{"id":1845547,"name":"Cheongpyeong","timezone":{"dstOffset":9,"gmtOffset":9,"timeZoneId":"Asia/Seoul"},"lat":37.7355,"lng":127.4174,"population":0},{"id":1845556,"name":"Jeongok","timezone":{"dstOffset":9,"gmtOffset":9,"timeZoneId":"Asia/Seoul"},"lat":38.02596,"lng":127.07021,"population":0},{"id":8606441,"name":"Seonwon","timezone":{"dstOffset":9,"gmtOffset":9,"timeZoneId":"Asia/Seoul"},"lat":37.71223,"lng":126.48439,"population":0},{"id":8606530,"name":"Wolgot","timezone":{"dstOffset":9,"gmtOffset":9,"timeZoneId":"Asia/Seoul"},"lat":37.71646,"lng":126.55429,"population":0},{"id":8573616,"name":"Songhae","timezone":{"dstOffset":9,"gmtOffset":9,"timeZoneId":"Asia/Seoul"},"lat":37.7636,"lng":126.46577,"population":0},{"id":8576887,"name":"Hajeom","timezone":{"dstOffset":9,"gmtOffset":9,"timeZoneId":"Asia/Seoul"},"lat":37.77419,"lng":126.41226,"population":0},{"id":8577030,"name":"Yangsa","timezone":{"dstOffset":9,"gmtOffset":9,"timeZoneId":"Asia/Seoul"},"lat":37.79872,"lng":126.408,"population":0},{"id":8577660,"name":"Samsan","timezone":{"dstOffset":9,"gmtOffset":9,"timeZoneId":"Asia/Seoul"},"lat":37.70306,"lng":126.32136,"population":0},{"id":8607799,"name":"Haseong","timezone":{"dstOffset":9,"gmtOffset":9,"timeZoneId":"Asia/Seoul"},"lat":37.71953,"lng":126.63107,"population":0},{"id":8607823,"name":"Tongjin","timezone":{"dstOffset":9,"gmtOffset":9,"timeZoneId":"Asia/Seoul"},"lat":37.69191,"lng":126.59855,"population":0},{"id":8608340,"name":"Gyodong","timezone":{"dstOffset":9,"gmtOffset":9,"timeZoneId":"Asia/Seoul"},"lat":37.78272,"lng":126.28117,"population":0},{"id":8608410,"name":"Gwangtan","timezone":{"dstOffset":9,"gmtOffset":9,"timeZoneId":"Asia/Seoul"},"lat":37.78055,"lng":126.85004,"population":0},{"id":8610689,"name":"Jangheung","timezone":{"dstOffset":9,"gmtOffset":9,"timeZoneId":"Asia/Seoul"},"lat":37.71727,"lng":126.94122,"population":0},{"id":8624484,"name":"Tanhyeon","timezone":{"dstOffset":9,"gmtOffset":9,"timeZoneId":"Asia/Seoul"},"lat":37.8024,"lng":126.71598,"population":0},{"id":8693393,"name":"Gwangjeok","timezone":{"dstOffset":9,"gmtOffset":9,"timeZoneId":"Asia/Seoul"},"lat":37.82566,"lng":126.98349,"population":0},{"id":8730237,"name":"Jinjeop","timezone":{"dstOffset":9,"gmtOffset":9,"timeZoneId":"Asia/Seoul"},"lat":37.72722,"lng":127.18992,"population":0},{"id":8734356,"name":"Onam","timezone":{"dstOffset":9,"gmtOffset":9,"timeZoneId":"Asia/Seoul"},"lat":37.69834,"lng":127.20578,"population":0},{"id":8715276,"name":"Su-dong","timezone":{"dstOffset":9,"gmtOffset":9,"timeZoneId":"Asia/Seoul"},"lat":37.70353,"lng":127.3258,"population":0},{"id":8716259,"name":"Sindong","timezone":{"dstOffset":9,"gmtOffset":9,"timeZoneId":"Asia/Seoul"},"lat":37.81735,"lng":127.71656,"population":0},{"id":8716274,"name":"Dongnae","timezone":{"dstOffset":9,"gmtOffset":9,"timeZoneId":"Asia/Seoul"},"lat":37.84747,"lng":127.76164,"population":0},{"id":8718041,"name":"Seoseok","timezone":{"dstOffset":9,"gmtOffset":9,"timeZoneId":"Asia/Seoul"},"lat":37.7119,"lng":128.18712,"population":0},{"id":9806499,"name":"Haean","timezone":{"dstOffset":9,"gmtOffset":9,"timeZoneId":"Asia/Seoul"},"lat":38.28634,"lng":128.13774,"population":0},{"id":9808772,"name":"Toseong","timezone":{"dstOffset":9,"gmtOffset":9,"timeZoneId":"Asia/Seoul"},"lat":38.25679,"lng":128.55968,"population":0},{"id":9887776,"name":"Dongmyeon","timezone":{"dstOffset":9,"gmtOffset":9,"timeZoneId":"Asia/Seoul"},"lat":38.20135,"lng":128.04327,"population":0},{"id":9887758,"name":"Bangsan","timezone":{"dstOffset":9,"gmtOffset":9,"timeZoneId":"Asia/Seoul"},"lat":38.2088,"lng":127.95028,"population":0},{"id":9864040,"name":"Sinseo","timezone":{"dstOffset":9,"gmtOffset":9,"timeZoneId":"Asia/Seoul"},"lat":38.18562,"lng":127.10819,"population":0},{"id":9864088,"name":"Gwanin","timezone":{"dstOffset":9,"gmtOffset":9,"timeZoneId":"Asia/Seoul"},"lat":38.15921,"lng":127.24935,"population":0}]