[{"id":276781,"name":"Beirut","timezone":{"dstOffset":3,"gmtOffset":2,"timeZoneId":"Asia/Beirut"},"lat":33.88894,"lng":35.49442,"population":1916100},{"id":268743,"name":"Ra’s Bayrūt","timezone":{"dstOffset":3,"gmtOffset":2,"timeZoneId":"Asia/Beirut"},"lat":33.9,"lng":35.48333,"population":1251739},{"id":266826,"name":"Tripoli","timezone":{"dstOffset":3,"gmtOffset":2,"timeZoneId":"Asia/Beirut"},"lat":34.43667,"lng":35.84972,"population":229398},{"id":268064,"name":"Sidon","timezone":{"dstOffset":3,"gmtOffset":2,"timeZoneId":"Asia/Beirut"},"lat":33.55993,"lng":35.37564,"population":163554},{"id":267008,"name":"Tyre","timezone":{"dstOffset":3,"gmtOffset":2,"timeZoneId":"Asia/Beirut"},"lat":33.27333,"lng":35.19389,"population":135204},{"id":278913,"name":"Nabatîyé et Tahta","timezone":{"dstOffset":3,"gmtOffset":2,"timeZoneId":"Asia/Beirut"},"lat":33.37889,"lng":35.48389,"population":120000},{"id":274874,"name":"Habboûch","timezone":{"dstOffset":3,"gmtOffset":2,"timeZoneId":"Asia/Beirut"},"lat":33.40729,"lng":35.48169,"population":98433},{"id":273140,"name":"Djounie","timezone":{"dstOffset":3,"gmtOffset":2,"timeZoneId":"Asia/Beirut"},"lat":33.98083,"lng":35.61778,"population":96315},{"id":266045,"name":"Zahle","timezone":{"dstOffset":3,"gmtOffset":2,"timeZoneId":"Asia/Beirut"},"lat":33.84675,"lng":35.90203,"population":78145},{"id":277130,"name":"Baalbek","timezone":{"dstOffset":3,"gmtOffset":2,"timeZoneId":"Asia/Beirut"},"lat":34.00583,"lng":36.21806,"population":30916},{"id":278832,"name":"En Nâqoûra","timezone":{"dstOffset":3,"gmtOffset":2,"timeZoneId":"Asia/Beirut"},"lat":33.11806,"lng":35.13972,"population":24910},{"id":273203,"name":"Byblos","timezone":{"dstOffset":3,"gmtOffset":2,"timeZoneId":"Asia/Beirut"},"lat":34.12111,"lng":35.64806,"population":20784},{"id":276359,"name":"Bcharré","timezone":{"dstOffset":3,"gmtOffset":2,"timeZoneId":"Asia/Beirut"},"lat":34.25083,"lng":36.01056,"population":20000},{"id":280328,"name":"Batroûn","timezone":{"dstOffset":3,"gmtOffset":2,"timeZoneId":"Asia/Beirut"},"lat":34.25528,"lng":35.65806,"population":10852},{"id":277226,"name":"Baabda","timezone":{"dstOffset":3,"gmtOffset":2,"timeZoneId":"Asia/Beirut"},"lat":33.83389,"lng":35.54417,"population":9000},{"id":276632,"name":"Bhamdoun","timezone":{"dstOffset":3,"gmtOffset":2,"timeZoneId":"Asia/Beirut"},"lat":33.80861,"lng":35.65972,"population":5000},{"id":277467,"name":"Ain Ebel","timezone":{"dstOffset":3,"gmtOffset":2,"timeZoneId":"Asia/Beirut"},"lat":33.11023,"lng":35.40251,"population":2000},{"id":276633,"name":"Bhamdoun","timezone":{"dstOffset":3,"gmtOffset":2,"timeZoneId":"Asia/Beirut"},"lat":33.795,"lng":35.65111,"population":1500},{"id":267156,"name":"Sîr ed Danniyé","timezone":{"dstOffset":3,"gmtOffset":2,"timeZoneId":"Asia/Beirut"},"lat":34.38528,"lng":36.03111,"population":0},{"id":271226,"name":"Marjayoûn","timezone":{"dstOffset":3,"gmtOffset":2,"timeZoneId":"Asia/Beirut"},"lat":33.36028,"lng":35.59111,"population":0},{"id":273185,"name":"Joubb Jannîne","timezone":{"dstOffset":3,"gmtOffset":2,"timeZoneId":"Asia/Beirut"},"lat":33.62694,"lng":35.78417,"population":0},{"id":273360,"name":"Jezzîne","timezone":{"dstOffset":3,"gmtOffset":2,"timeZoneId":"Asia/Beirut"},"lat":33.54167,"lng":35.58444,"population":0},{"id":274313,"name":"Hâsbaïya","timezone":{"dstOffset":3,"gmtOffset":2,"timeZoneId":"Asia/Beirut"},"lat":33.39778,"lng":35.685,"population":0},{"id":274723,"name":"Halba","timezone":{"dstOffset":3,"gmtOffset":2,"timeZoneId":"Asia/Beirut"},"lat":34.54278,"lng":36.07972,"population":0},{"id":276592,"name":"Bent Jbaïl","timezone":{"dstOffset":3,"gmtOffset":2,"timeZoneId":"Asia/Beirut"},"lat":33.11944,"lng":35.43333,"population":0},{"id":276771,"name":"Beït ed Dîne","timezone":{"dstOffset":3,"gmtOffset":2,"timeZoneId":"Asia/Beirut"},"lat":33.69417,"lng":35.58083,"population":0},{"id":278936,"name":"Amioûn","timezone":{"dstOffset":3,"gmtOffset":2,"timeZoneId":"Asia/Beirut"},"lat":34.3,"lng":35.80889,"population":0},{"id":279854,"name":"Jdaidet el Matn","timezone":{"dstOffset":3,"gmtOffset":2,"timeZoneId":"Asia/Beirut"},"lat":33.89056,"lng":35.56639,"population":0},{"id":279997,"name":"El Hermel","timezone":{"dstOffset":3,"gmtOffset":2,"timeZoneId":"Asia/Beirut"},"lat":34.39417,"lng":36.38472,"population":0},{"id":280425,"name":"Aaley","timezone":{"dstOffset":3,"gmtOffset":2,"timeZoneId":"Asia/Beirut"},"lat":33.80528,"lng":35.6,"population":0},{"id":265846,"name":"Zghartā","timezone":{"dstOffset":3,"gmtOffset":2,"timeZoneId":"Asia/Beirut"},"lat":34.39739,"lng":35.89493,"population":0},{"id":6253857,"name":"Râchaïya el Ouadi","timezone":{"dstOffset":3,"gmtOffset":2,"timeZoneId":"Asia/Beirut"},"lat":33.50089,"lng":35.8437,"population":0}]