[{"id":3042041,"name":"Schaan","timezone":{"dstOffset":2,"gmtOffset":1,"timeZoneId":"Europe/Vaduz"},"lat":47.16498,"lng":9.50867,"population":5748},{"id":3042030,"name":"Vaduz","timezone":{"dstOffset":2,"gmtOffset":1,"timeZoneId":"Europe/Vaduz"},"lat":47.14151,"lng":9.52154,"population":5197},{"id":3042035,"name":"Triesen","timezone":{"dstOffset":2,"gmtOffset":1,"timeZoneId":"Europe/Vaduz"},"lat":47.10752,"lng":9.52815,"population":4701},{"id":3042073,"name":"Balzers","timezone":{"dstOffset":2,"gmtOffset":1,"timeZoneId":"Europe/Vaduz"},"lat":47.06667,"lng":9.5,"population":4447},{"id":3042068,"name":"Eschen","timezone":{"dstOffset":2,"gmtOffset":1,"timeZoneId":"Europe/Vaduz"},"lat":47.21071,"lng":9.52223,"population":4008},{"id":3042055,"name":"Mauren","timezone":{"dstOffset":2,"gmtOffset":1,"timeZoneId":"Europe/Vaduz"},"lat":47.21805,"lng":9.5442,"population":3626},{"id":3042033,"name":"Triesenberg","timezone":{"dstOffset":2,"gmtOffset":1,"timeZoneId":"Europe/Vaduz"},"lat":47.11815,"lng":9.54197,"population":2689},{"id":3042046,"name":"Ruggell","timezone":{"dstOffset":2,"gmtOffset":1,"timeZoneId":"Europe/Vaduz"},"lat":47.23799,"lng":9.5254,"population":1862},{"id":3042062,"name":"Gamprin","timezone":{"dstOffset":2,"gmtOffset":1,"timeZoneId":"Europe/Vaduz"},"lat":47.22038,"lng":9.50935,"population":1268},{"id":3042037,"name":"Schellenberg","timezone":{"dstOffset":2,"gmtOffset":1,"timeZoneId":"Europe/Vaduz"},"lat":47.23123,"lng":9.54678,"population":1004},{"id":3042049,"name":"Planken","timezone":{"dstOffset":2,"gmtOffset":1,"timeZoneId":"Europe/Vaduz"},"lat":47.18516,"lng":9.54437,"population":377}]