[{"id":1248991,"name":"Colombo","timezone":{"dstOffset":5.5,"gmtOffset":5.5,"timeZoneId":"Asia/Colombo"},"lat":6.93194,"lng":79.84778,"population":648034},{"id":1246321,"name":"Galkissa","timezone":{"dstOffset":5.5,"gmtOffset":5.5,"timeZoneId":"Asia/Colombo"},"lat":6.8293,"lng":79.863,"population":215941},{"id":1234633,"name":"Moratuwa","timezone":{"dstOffset":5.5,"gmtOffset":5.5,"timeZoneId":"Asia/Colombo"},"lat":6.773,"lng":79.8816,"population":185031},{"id":1242833,"name":"Jaffna","timezone":{"dstOffset":5.5,"gmtOffset":5.5,"timeZoneId":"Asia/Colombo"},"lat":9.66845,"lng":80.00742,"population":169102},{"id":1233369,"name":"Negombo","timezone":{"dstOffset":5.5,"gmtOffset":5.5,"timeZoneId":"Asia/Colombo"},"lat":7.2083,"lng":79.8358,"population":137223},{"id":1230089,"name":"Pita Kotte","timezone":{"dstOffset":5.5,"gmtOffset":5.5,"timeZoneId":"Asia/Colombo"},"lat":6.8905,"lng":79.9015,"population":118179},{"id":1238992,"name":"Sri Jayewardenepura Kotte","timezone":{"dstOffset":5.5,"gmtOffset":5.5,"timeZoneId":"Asia/Colombo"},"lat":6.88297,"lng":79.90708,"population":115826},{"id":1241622,"name":"Kandy","timezone":{"dstOffset":5.5,"gmtOffset":5.5,"timeZoneId":"Asia/Colombo"},"lat":7.2955,"lng":80.6356,"population":111701},{"id":1226260,"name":"Trincomalee","timezone":{"dstOffset":5.5,"gmtOffset":5.5,"timeZoneId":"Asia/Colombo"},"lat":8.5711,"lng":81.2335,"population":108420},{"id":1242110,"name":"Kalmunai","timezone":{"dstOffset":5.5,"gmtOffset":5.5,"timeZoneId":"Asia/Colombo"},"lat":7.40902,"lng":81.83472,"population":100171},{"id":1246294,"name":"Galle","timezone":{"dstOffset":5.5,"gmtOffset":5.5,"timeZoneId":"Asia/Colombo"},"lat":6.0367,"lng":80.217,"population":93118},{"id":1229989,"name":"Point Pedro","timezone":{"dstOffset":5.5,"gmtOffset":5.5,"timeZoneId":"Asia/Colombo"},"lat":9.81667,"lng":80.23333,"population":89810},{"id":1250161,"name":"Batticaloa","timezone":{"dstOffset":5.5,"gmtOffset":5.5,"timeZoneId":"Asia/Colombo"},"lat":7.7102,"lng":81.6924,"population":86742},{"id":1240935,"name":"Katunayaka","timezone":{"dstOffset":5.5,"gmtOffset":5.5,"timeZoneId":"Asia/Colombo"},"lat":7.16992,"lng":79.88837,"population":84643},{"id":1225142,"name":"Valvedditturai","timezone":{"dstOffset":5.5,"gmtOffset":5.5,"timeZoneId":"Asia/Colombo"},"lat":9.81667,"lng":80.16667,"population":78205},{"id":1235846,"name":"Matara","timezone":{"dstOffset":5.5,"gmtOffset":5.5,"timeZoneId":"Asia/Colombo"},"lat":5.94851,"lng":80.53528,"population":76254},{"id":1250164,"name":"Battaramulla South","timezone":{"dstOffset":5.5,"gmtOffset":5.5,"timeZoneId":"Asia/Colombo"},"lat":6.8964,"lng":79.9181,"population":75633},{"id":1248749,"name":"Dambulla","timezone":{"dstOffset":5.5,"gmtOffset":5.5,"timeZoneId":"Asia/Colombo"},"lat":7.86,"lng":80.65167,"population":66716},{"id":1236854,"name":"Maharagama","timezone":{"dstOffset":5.5,"gmtOffset":5.5,"timeZoneId":"Asia/Colombo"},"lat":6.848,"lng":79.9265,"population":66576},{"id":1239047,"name":"Kotikawatta","timezone":{"dstOffset":5.5,"gmtOffset":5.5,"timeZoneId":"Asia/Colombo"},"lat":6.9269,"lng":79.9095,"population":64565},{"id":1251081,"name":"Anuradhapura","timezone":{"dstOffset":5.5,"gmtOffset":5.5,"timeZoneId":"Asia/Colombo"},"lat":8.31223,"lng":80.41306,"population":60943},{"id":1225018,"name":"Vavuniya","timezone":{"dstOffset":5.5,"gmtOffset":5.5,"timeZoneId":"Asia/Colombo"},"lat":8.7514,"lng":80.4971,"population":60176},{"id":1239593,"name":"Kolonnawa","timezone":{"dstOffset":5.5,"gmtOffset":5.5,"timeZoneId":"Asia/Colombo"},"lat":6.9329,"lng":79.8848,"population":58076},{"id":1244397,"name":"Hendala","timezone":{"dstOffset":5.5,"gmtOffset":5.5,"timeZoneId":"Asia/Colombo"},"lat":6.9909,"lng":79.883,"population":56978},{"id":1228730,"name":"Ratnapura","timezone":{"dstOffset":5.5,"gmtOffset":5.5,"timeZoneId":"Asia/Colombo"},"lat":6.68278,"lng":80.39917,"population":47832},{"id":1250615,"name":"Badulla","timezone":{"dstOffset":5.5,"gmtOffset":5.5,"timeZoneId":"Asia/Colombo"},"lat":6.9895,"lng":81.0557,"population":47587},{"id":1229293,"name":"Puttalam","timezone":{"dstOffset":5.5,"gmtOffset":5.5,"timeZoneId":"Asia/Colombo"},"lat":8.0362,"lng":79.8283,"population":45661},{"id":1223648,"name":"Welisara","timezone":{"dstOffset":5.5,"gmtOffset":5.5,"timeZoneId":"Asia/Colombo"},"lat":7.0281,"lng":79.9014,"population":41306},{"id":1241964,"name":"Kalutara","timezone":{"dstOffset":5.5,"gmtOffset":5.5,"timeZoneId":"Asia/Colombo"},"lat":6.5831,"lng":79.9593,"population":38000},{"id":1249978,"name":"Bentota","timezone":{"dstOffset":5.5,"gmtOffset":5.5,"timeZoneId":"Asia/Colombo"},"lat":6.42598,"lng":79.99575,"population":37000},{"id":1243936,"name":"Homagama","timezone":{"dstOffset":5.5,"gmtOffset":5.5,"timeZoneId":"Asia/Colombo"},"lat":6.844,"lng":80.0024,"population":34664},{"id":1249931,"name":"Beruwala","timezone":{"dstOffset":5.5,"gmtOffset":5.5,"timeZoneId":"Asia/Colombo"},"lat":6.4788,"lng":79.9828,"population":34250},{"id":1231410,"name":"Panadura","timezone":{"dstOffset":5.5,"gmtOffset":5.5,"timeZoneId":"Asia/Colombo"},"lat":6.7132,"lng":79.9026,"population":33735},{"id":1234378,"name":"Mulleriyawa","timezone":{"dstOffset":5.5,"gmtOffset":5.5,"timeZoneId":"Asia/Colombo"},"lat":6.933,"lng":79.9297,"population":33540},{"id":1241750,"name":"Kandana","timezone":{"dstOffset":5.5,"gmtOffset":5.5,"timeZoneId":"Asia/Colombo"},"lat":7.048,"lng":79.8937,"population":33424},{"id":1242835,"name":"Ja Ela","timezone":{"dstOffset":5.5,"gmtOffset":5.5,"timeZoneId":"Asia/Colombo"},"lat":7.0744,"lng":79.8919,"population":32175},{"id":1224085,"name":"Wattala","timezone":{"dstOffset":5.5,"gmtOffset":5.5,"timeZoneId":"Asia/Colombo"},"lat":6.9779,"lng":79.8898,"population":30725},{"id":1230613,"name":"Peliyagoda","timezone":{"dstOffset":5.5,"gmtOffset":5.5,"timeZoneId":"Asia/Colombo"},"lat":6.9685,"lng":79.8836,"population":30717},{"id":1240622,"name":"Kelaniya","timezone":{"dstOffset":5.5,"gmtOffset":5.5,"timeZoneId":"Asia/Colombo"},"lat":6.9553,"lng":79.922,"population":28846},{"id":1237980,"name":"Kurunegala","timezone":{"dstOffset":5.5,"gmtOffset":5.5,"timeZoneId":"Asia/Colombo"},"lat":7.4863,"lng":80.3623,"population":28571},{"id":1232783,"name":"Nuwara Eliya","timezone":{"dstOffset":5.5,"gmtOffset":5.5,"timeZoneId":"Asia/Colombo"},"lat":6.97078,"lng":80.78286,"population":25775},{"id":1246000,"name":"Gampola","timezone":{"dstOffset":5.5,"gmtOffset":5.5,"timeZoneId":"Asia/Colombo"},"lat":7.1643,"lng":80.5696,"population":24730},{"id":1249145,"name":"Chilaw","timezone":{"dstOffset":5.5,"gmtOffset":5.5,"timeZoneId":"Asia/Colombo"},"lat":7.57583,"lng":79.79528,"population":24712},{"id":1246924,"name":"Eravur Town","timezone":{"dstOffset":5.5,"gmtOffset":5.5,"timeZoneId":"Asia/Colombo"},"lat":7.7782,"lng":81.6038,"population":22982},{"id":1244773,"name":"Hanwella Ihala","timezone":{"dstOffset":5.5,"gmtOffset":5.5,"timeZoneId":"Asia/Colombo"},"lat":6.9012,"lng":80.0852,"population":22918},{"id":1223738,"name":"Weligama","timezone":{"dstOffset":5.5,"gmtOffset":5.5,"timeZoneId":"Asia/Colombo"},"lat":5.97501,"lng":80.42968,"population":22179},{"id":1251574,"name":"Ambalangoda","timezone":{"dstOffset":5.5,"gmtOffset":5.5,"timeZoneId":"Asia/Colombo"},"lat":6.2355,"lng":80.0538,"population":20133},{"id":8260318,"name":"Shanjeev Home","timezone":{"dstOffset":5.5,"gmtOffset":5.5,"timeZoneId":"Asia/Colombo"},"lat":7.38216,"lng":81.84198,"population":20000},{"id":1251459,"name":"Ampara","timezone":{"dstOffset":5.5,"gmtOffset":5.5,"timeZoneId":"Asia/Colombo"},"lat":7.29754,"lng":81.68202,"population":18348},{"id":1244596,"name":"Hatton","timezone":{"dstOffset":5.5,"gmtOffset":5.5,"timeZoneId":"Asia/Colombo"},"lat":6.8916,"lng":80.5955,"population":15073},{"id":1229901,"name":"Polonnaruwa","timezone":{"dstOffset":5.5,"gmtOffset":5.5,"timeZoneId":"Asia/Colombo"},"lat":7.93965,"lng":81.00274,"population":13900},{"id":1240372,"name":"Kilinochchi","timezone":{"dstOffset":5.5,"gmtOffset":5.5,"timeZoneId":"Asia/Colombo"},"lat":9.3961,"lng":80.3982,"population":13006},{"id":1227037,"name":"Tangalle","timezone":{"dstOffset":5.5,"gmtOffset":5.5,"timeZoneId":"Asia/Colombo"},"lat":6.024,"lng":80.7911,"population":10497},{"id":1234808,"name":"Monaragala","timezone":{"dstOffset":5.5,"gmtOffset":5.5,"timeZoneId":"Asia/Colombo"},"lat":6.8714,"lng":81.3487,"population":10236},{"id":1246007,"name":"Gampaha","timezone":{"dstOffset":5.5,"gmtOffset":5.5,"timeZoneId":"Asia/Colombo"},"lat":7.0897,"lng":79.9925,"population":9350},{"id":1243867,"name":"Horana South","timezone":{"dstOffset":5.5,"gmtOffset":5.5,"timeZoneId":"Asia/Colombo"},"lat":6.7159,"lng":80.0626,"population":8982},{"id":1224061,"name":"Wattegama","timezone":{"dstOffset":5.5,"gmtOffset":5.5,"timeZoneId":"Asia/Colombo"},"lat":6.7989,"lng":81.4808,"population":8000},{"id":1235000,"name":"Minuwangoda","timezone":{"dstOffset":5.5,"gmtOffset":5.5,"timeZoneId":"Asia/Colombo"},"lat":7.1663,"lng":79.9533,"population":7772},{"id":6285792,"name":"Horawala Junction","timezone":{"dstOffset":5.5,"gmtOffset":5.5,"timeZoneId":"Asia/Colombo"},"lat":6.48088,"lng":80.12708,"population":7500},{"id":1238427,"name":"Kuliyapitiya","timezone":{"dstOffset":5.5,"gmtOffset":5.5,"timeZoneId":"Asia/Colombo"},"lat":7.4688,"lng":80.0401,"population":6877},{"id":1244713,"name":"Haputale","timezone":{"dstOffset":5.5,"gmtOffset":5.5,"timeZoneId":"Asia/Colombo"},"lat":6.76566,"lng":80.95104,"population":4721},{"id":1227300,"name":"Talawakele","timezone":{"dstOffset":5.5,"gmtOffset":5.5,"timeZoneId":"Asia/Colombo"},"lat":6.9371,"lng":80.6581,"population":3545},{"id":1227217,"name":"Talpe","timezone":{"dstOffset":5.5,"gmtOffset":5.5,"timeZoneId":"Asia/Colombo"},"lat":5.9999,"lng":80.2787,"population":3000},{"id":1225514,"name":"Unawatuna","timezone":{"dstOffset":5.5,"gmtOffset":5.5,"timeZoneId":"Asia/Colombo"},"lat":6.0212,"lng":80.2503,"population":2000},{"id":1244178,"name":"Hikkaduwa","timezone":{"dstOffset":5.5,"gmtOffset":5.5,"timeZoneId":"Asia/Colombo"},"lat":6.1407,"lng":80.1012,"population":1300},{"id":1242571,"name":"Kadugannawa","timezone":{"dstOffset":5.5,"gmtOffset":5.5,"timeZoneId":"Asia/Colombo"},"lat":7.2547,"lng":80.5242,"population":1214},{"id":1228051,"name":"Sigiriya","timezone":{"dstOffset":5.5,"gmtOffset":5.5,"timeZoneId":"Asia/Colombo"},"lat":7.94946,"lng":80.75037,"population":1001},{"id":8714432,"name":"Padaviya Divisional Secretariat","timezone":{"dstOffset":5.5,"gmtOffset":5.5,"timeZoneId":"Asia/Colombo"},"lat":8.845,"lng":80.7625,"population":0}]