[{"id":932505,"name":"Maseru","timezone":{"dstOffset":2,"gmtOffset":2,"timeZoneId":"Africa/Maseru"},"lat":-29.31667,"lng":27.48333,"population":118355},{"id":932614,"name":"Mafeteng","timezone":{"dstOffset":2,"gmtOffset":2,"timeZoneId":"Africa/Maseru"},"lat":-29.823,"lng":27.23744,"population":57059},{"id":932698,"name":"Hlotse","timezone":{"dstOffset":2,"gmtOffset":2,"timeZoneId":"Africa/Maseru"},"lat":-28.87185,"lng":28.04501,"population":47675},{"id":932521,"name":"Maputsoe","timezone":{"dstOffset":2,"gmtOffset":2,"timeZoneId":"Africa/Maseru"},"lat":-28.8866,"lng":27.89914,"population":32117},{"id":932438,"name":"Mohale's Hoek","timezone":{"dstOffset":2,"gmtOffset":2,"timeZoneId":"Africa/Maseru"},"lat":-30.15137,"lng":27.47691,"population":28310},{"id":932218,"name":"Qacha's Nek","timezone":{"dstOffset":2,"gmtOffset":2,"timeZoneId":"Africa/Maseru"},"lat":-30.11537,"lng":28.68936,"population":25573},{"id":932183,"name":"Quthing","timezone":{"dstOffset":2,"gmtOffset":2,"timeZoneId":"Africa/Maseru"},"lat":-30.40001,"lng":27.70027,"population":24130},{"id":932886,"name":"Butha-Buthe","timezone":{"dstOffset":2,"gmtOffset":2,"timeZoneId":"Africa/Maseru"},"lat":-28.76659,"lng":28.24936,"population":16330},{"id":932320,"name":"Nako","timezone":{"dstOffset":2,"gmtOffset":2,"timeZoneId":"Africa/Maseru"},"lat":-29.61667,"lng":27.76667,"population":13146},{"id":932416,"name":"Mokhotlong","timezone":{"dstOffset":2,"gmtOffset":2,"timeZoneId":"Africa/Maseru"},"lat":-29.28939,"lng":29.06751,"population":8809},{"id":1106835,"name":"Thaba-Tseka","timezone":{"dstOffset":2,"gmtOffset":2,"timeZoneId":"Africa/Maseru"},"lat":-29.52204,"lng":28.6084,"population":5423},{"id":932035,"name":"Teyateyaneng","timezone":{"dstOffset":2,"gmtOffset":2,"timeZoneId":"Africa/Maseru"},"lat":-29.14719,"lng":27.74895,"population":5115}]