[{"id":2960316,"name":"Luxembourg","timezone":{"dstOffset":2,"gmtOffset":1,"timeZoneId":"Europe/Luxembourg"},"lat":49.61167,"lng":6.13,"population":76684},{"id":2960596,"name":"Esch-sur-Alzette","timezone":{"dstOffset":2,"gmtOffset":1,"timeZoneId":"Europe/Luxembourg"},"lat":49.49583,"lng":5.98056,"population":28228},{"id":2960634,"name":"Dudelange","timezone":{"dstOffset":2,"gmtOffset":1,"timeZoneId":"Europe/Luxembourg"},"lat":49.48056,"lng":6.0875,"population":18013},{"id":2960102,"name":"Schifflange","timezone":{"dstOffset":2,"gmtOffset":1,"timeZoneId":"Europe/Luxembourg"},"lat":49.50639,"lng":6.01278,"population":8155},{"id":2960777,"name":"Bettembourg","timezone":{"dstOffset":2,"gmtOffset":1,"timeZoneId":"Europe/Luxembourg"},"lat":49.51861,"lng":6.10278,"population":7437},{"id":2960187,"name":"Pétange","timezone":{"dstOffset":2,"gmtOffset":1,"timeZoneId":"Europe/Luxembourg"},"lat":49.55833,"lng":5.88056,"population":7187},{"id":2960589,"name":"Ettelbruck","timezone":{"dstOffset":2,"gmtOffset":1,"timeZoneId":"Europe/Luxembourg"},"lat":49.8475,"lng":6.10417,"population":6364},{"id":2960657,"name":"Diekirch","timezone":{"dstOffset":2,"gmtOffset":1,"timeZoneId":"Europe/Luxembourg"},"lat":49.86778,"lng":6.15583,"population":6242},{"id":2960054,"name":"Strassen","timezone":{"dstOffset":2,"gmtOffset":1,"timeZoneId":"Europe/Luxembourg"},"lat":49.62056,"lng":6.07333,"population":6006},{"id":2960782,"name":"Bertrange","timezone":{"dstOffset":2,"gmtOffset":1,"timeZoneId":"Europe/Luxembourg"},"lat":49.61111,"lng":6.05,"population":5615},{"id":2960800,"name":"Belvaux","timezone":{"dstOffset":2,"gmtOffset":1,"timeZoneId":"Europe/Luxembourg"},"lat":49.51278,"lng":5.92944,"population":5313},{"id":2960651,"name":"Differdange","timezone":{"dstOffset":2,"gmtOffset":1,"timeZoneId":"Europe/Luxembourg"},"lat":49.52417,"lng":5.89139,"population":5296},{"id":2960299,"name":"Mamer","timezone":{"dstOffset":2,"gmtOffset":1,"timeZoneId":"Europe/Luxembourg"},"lat":49.6275,"lng":6.02333,"population":5017},{"id":2960067,"name":"Soleuvre","timezone":{"dstOffset":2,"gmtOffset":1,"timeZoneId":"Europe/Luxembourg"},"lat":49.52556,"lng":5.94056,"population":4988},{"id":2959977,"name":"Wiltz","timezone":{"dstOffset":2,"gmtOffset":1,"timeZoneId":"Europe/Luxembourg"},"lat":49.96889,"lng":5.93194,"population":4816},{"id":2960630,"name":"Echternach","timezone":{"dstOffset":2,"gmtOffset":1,"timeZoneId":"Europe/Luxembourg"},"lat":49.80556,"lng":6.42222,"population":4787},{"id":2960143,"name":"Rodange","timezone":{"dstOffset":2,"gmtOffset":1,"timeZoneId":"Europe/Luxembourg"},"lat":49.54639,"lng":5.84083,"population":4683},{"id":2960207,"name":"Obercorn","timezone":{"dstOffset":2,"gmtOffset":1,"timeZoneId":"Europe/Luxembourg"},"lat":49.51361,"lng":5.89611,"population":4666},{"id":2960815,"name":"Bascharage","timezone":{"dstOffset":2,"gmtOffset":1,"timeZoneId":"Europe/Luxembourg"},"lat":49.5675,"lng":5.91028,"population":4645},{"id":2960391,"name":"Kayl","timezone":{"dstOffset":2,"gmtOffset":1,"timeZoneId":"Europe/Luxembourg"},"lat":49.48917,"lng":6.03972,"population":4396},{"id":2960515,"name":"Grevenmacher","timezone":{"dstOffset":2,"gmtOffset":1,"timeZoneId":"Europe/Luxembourg"},"lat":49.67472,"lng":6.44194,"population":3958},{"id":2960795,"name":"Béreldange","timezone":{"dstOffset":2,"gmtOffset":1,"timeZoneId":"Europe/Luxembourg"},"lat":49.65694,"lng":6.1275,"population":3627},{"id":2960380,"name":"Luxembourg-Kirchberg","timezone":{"dstOffset":2,"gmtOffset":1,"timeZoneId":"Europe/Luxembourg"},"lat":49.62389,"lng":6.14944,"population":3534},{"id":2960276,"name":"Mersch","timezone":{"dstOffset":2,"gmtOffset":1,"timeZoneId":"Europe/Luxembourg"},"lat":49.74889,"lng":6.10611,"population":3464},{"id":2960258,"name":"Mondercange","timezone":{"dstOffset":2,"gmtOffset":1,"timeZoneId":"Europe/Luxembourg"},"lat":49.53306,"lng":5.98833,"population":3306},{"id":2960154,"name":"Remich","timezone":{"dstOffset":2,"gmtOffset":1,"timeZoneId":"Europe/Luxembourg"},"lat":49.545,"lng":6.36694,"population":3187},{"id":2960228,"name":"Niedercorn","timezone":{"dstOffset":2,"gmtOffset":1,"timeZoneId":"Europe/Luxembourg"},"lat":49.53611,"lng":5.89306,"population":3164},{"id":2960257,"name":"Mondorf-les-Bains","timezone":{"dstOffset":2,"gmtOffset":1,"timeZoneId":"Europe/Luxembourg"},"lat":49.505,"lng":6.28111,"population":3113},{"id":2960042,"name":"Tétange","timezone":{"dstOffset":2,"gmtOffset":1,"timeZoneId":"Europe/Luxembourg"},"lat":49.47583,"lng":6.04222,"population":2929},{"id":2960759,"name":"Bissen","timezone":{"dstOffset":2,"gmtOffset":1,"timeZoneId":"Europe/Luxembourg"},"lat":49.7875,"lng":6.06944,"population":2547},{"id":2960117,"name":"Sandweiler","timezone":{"dstOffset":2,"gmtOffset":1,"timeZoneId":"Europe/Luxembourg"},"lat":49.61333,"lng":6.21889,"population":2522},{"id":2960115,"name":"Sanem","timezone":{"dstOffset":2,"gmtOffset":1,"timeZoneId":"Europe/Luxembourg"},"lat":49.54806,"lng":5.92889,"population":2489},{"id":2960358,"name":"Lamadelaine","timezone":{"dstOffset":2,"gmtOffset":1,"timeZoneId":"Europe/Luxembourg"},"lat":49.54639,"lng":5.85639,"population":2428},{"id":2960720,"name":"Bridel","timezone":{"dstOffset":2,"gmtOffset":1,"timeZoneId":"Europe/Luxembourg"},"lat":49.65833,"lng":6.08222,"population":2404},{"id":2960400,"name":"Junglinster","timezone":{"dstOffset":2,"gmtOffset":1,"timeZoneId":"Europe/Luxembourg"},"lat":49.70722,"lng":6.25306,"population":2358},{"id":2960007,"name":"Wasserbillig","timezone":{"dstOffset":2,"gmtOffset":1,"timeZoneId":"Europe/Luxembourg"},"lat":49.71,"lng":6.50028,"population":2327},{"id":2960061,"name":"Steinfort","timezone":{"dstOffset":2,"gmtOffset":1,"timeZoneId":"Europe/Luxembourg"},"lat":49.66139,"lng":5.91917,"population":2225},{"id":2960468,"name":"Helmsange","timezone":{"dstOffset":2,"gmtOffset":1,"timeZoneId":"Europe/Luxembourg"},"lat":49.65278,"lng":6.14139,"population":2193},{"id":2960457,"name":"Hesperange","timezone":{"dstOffset":2,"gmtOffset":1,"timeZoneId":"Europe/Luxembourg"},"lat":49.56806,"lng":6.15139,"population":1937},{"id":2960335,"name":"Leudelange","timezone":{"dstOffset":2,"gmtOffset":1,"timeZoneId":"Europe/Luxembourg"},"lat":49.56833,"lng":6.06528,"population":1924},{"id":2960058,"name":"Steinsel","timezone":{"dstOffset":2,"gmtOffset":1,"timeZoneId":"Europe/Luxembourg"},"lat":49.67694,"lng":6.12389,"population":1879},{"id":2960410,"name":"Itzig","timezone":{"dstOffset":2,"gmtOffset":1,"timeZoneId":"Europe/Luxembourg"},"lat":49.58417,"lng":6.17361,"population":1836},{"id":2960687,"name":"Clemency","timezone":{"dstOffset":2,"gmtOffset":1,"timeZoneId":"Europe/Luxembourg"},"lat":49.59667,"lng":5.87583,"population":1821},{"id":2960680,"name":"Colmar","timezone":{"dstOffset":2,"gmtOffset":1,"timeZoneId":"Europe/Luxembourg"},"lat":49.81028,"lng":6.09722,"population":1776},{"id":2960328,"name":"Lintgen","timezone":{"dstOffset":2,"gmtOffset":1,"timeZoneId":"Europe/Luxembourg"},"lat":49.71583,"lng":6.13361,"population":1752},{"id":2960389,"name":"Kehlen","timezone":{"dstOffset":2,"gmtOffset":1,"timeZoneId":"Europe/Luxembourg"},"lat":49.66833,"lng":6.03583,"population":1658},{"id":2960021,"name":"Vianden","timezone":{"dstOffset":2,"gmtOffset":1,"timeZoneId":"Europe/Luxembourg"},"lat":49.935,"lng":6.20889,"population":1626},{"id":2960472,"name":"Heisdorf-sur-Alzette","timezone":{"dstOffset":2,"gmtOffset":1,"timeZoneId":"Europe/Luxembourg"},"lat":49.66861,"lng":6.14222,"population":1586},{"id":2960618,"name":"Eischen","timezone":{"dstOffset":2,"gmtOffset":1,"timeZoneId":"Europe/Luxembourg"},"lat":49.68556,"lng":5.87861,"population":1559},{"id":2960791,"name":"Bergem","timezone":{"dstOffset":2,"gmtOffset":1,"timeZoneId":"Europe/Luxembourg"},"lat":49.525,"lng":6.04222,"population":1535},{"id":2960231,"name":"Niederanven","timezone":{"dstOffset":2,"gmtOffset":1,"timeZoneId":"Europe/Luxembourg"},"lat":49.6475,"lng":6.26,"population":1508},{"id":2960485,"name":"Hautcharage","timezone":{"dstOffset":2,"gmtOffset":1,"timeZoneId":"Europe/Luxembourg"},"lat":49.5775,"lng":5.91083,"population":1495},{"id":2960270,"name":"Mertzig","timezone":{"dstOffset":2,"gmtOffset":1,"timeZoneId":"Europe/Luxembourg"},"lat":49.83389,"lng":6.0075,"population":1482},{"id":2960532,"name":"Gonderange","timezone":{"dstOffset":2,"gmtOffset":1,"timeZoneId":"Europe/Luxembourg"},"lat":49.68889,"lng":6.24833,"population":1469},{"id":2960197,"name":"Olm","timezone":{"dstOffset":2,"gmtOffset":1,"timeZoneId":"Europe/Luxembourg"},"lat":49.65722,"lng":6.00028,"population":1459},{"id":2960030,"name":"Troisvierges","timezone":{"dstOffset":2,"gmtOffset":1,"timeZoneId":"Europe/Luxembourg"},"lat":50.12111,"lng":6.00028,"population":1457},{"id":2960133,"name":"Rollingen","timezone":{"dstOffset":2,"gmtOffset":1,"timeZoneId":"Europe/Luxembourg"},"lat":49.74167,"lng":6.11444,"population":1448},{"id":2960809,"name":"Beaufort","timezone":{"dstOffset":2,"gmtOffset":1,"timeZoneId":"Europe/Luxembourg"},"lat":49.83583,"lng":6.29167,"population":1418},{"id":2960350,"name":"Larochette","timezone":{"dstOffset":2,"gmtOffset":1,"timeZoneId":"Europe/Luxembourg"},"lat":49.77694,"lng":6.22111,"population":1410},{"id":2960104,"name":"Schieren","timezone":{"dstOffset":2,"gmtOffset":1,"timeZoneId":"Europe/Luxembourg"},"lat":49.83056,"lng":6.09861,"population":1397},{"id":2960832,"name":"Alzingen","timezone":{"dstOffset":2,"gmtOffset":1,"timeZoneId":"Europe/Luxembourg"},"lat":49.565,"lng":6.16361,"population":1376},{"id":2960665,"name":"Dalheim","timezone":{"dstOffset":2,"gmtOffset":1,"timeZoneId":"Europe/Luxembourg"},"lat":49.54083,"lng":6.25972,"population":1364},{"id":2960556,"name":"Frisange","timezone":{"dstOffset":2,"gmtOffset":1,"timeZoneId":"Europe/Luxembourg"},"lat":49.515,"lng":6.19167,"population":1355},{"id":2960697,"name":"Capellen","timezone":{"dstOffset":2,"gmtOffset":1,"timeZoneId":"Europe/Luxembourg"},"lat":49.645,"lng":5.99083,"population":1330},{"id":2960584,"name":"Fentange","timezone":{"dstOffset":2,"gmtOffset":1,"timeZoneId":"Europe/Luxembourg"},"lat":49.56278,"lng":6.15389,"population":1302},{"id":2960672,"name":"Crauthem","timezone":{"dstOffset":2,"gmtOffset":1,"timeZoneId":"Europe/Luxembourg"},"lat":49.53556,"lng":6.14694,"population":1278},{"id":2960675,"name":"Consdorf","timezone":{"dstOffset":2,"gmtOffset":1,"timeZoneId":"Europe/Luxembourg"},"lat":49.77306,"lng":6.33833,"population":1241},{"id":2960008,"name":"Warken","timezone":{"dstOffset":2,"gmtOffset":1,"timeZoneId":"Europe/Luxembourg"},"lat":49.85444,"lng":6.095,"population":1188},{"id":2960252,"name":"Moutfort","timezone":{"dstOffset":2,"gmtOffset":1,"timeZoneId":"Europe/Luxembourg"},"lat":49.58528,"lng":6.25556,"population":1171},{"id":2960160,"name":"Redange","timezone":{"dstOffset":2,"gmtOffset":1,"timeZoneId":"Europe/Luxembourg"},"lat":49.76556,"lng":5.89083,"population":1164},{"id":2960271,"name":"Mertert","timezone":{"dstOffset":2,"gmtOffset":1,"timeZoneId":"Europe/Luxembourg"},"lat":49.69611,"lng":6.48139,"population":1163},{"id":2960577,"name":"Niederfeulen","timezone":{"dstOffset":2,"gmtOffset":1,"timeZoneId":"Europe/Luxembourg"},"lat":49.85556,"lng":6.04722,"population":1125},{"id":2960684,"name":"Clervaux","timezone":{"dstOffset":2,"gmtOffset":1,"timeZoneId":"Europe/Luxembourg"},"lat":50.05472,"lng":6.03139,"population":1103},{"id":2960085,"name":"Schouweiler","timezone":{"dstOffset":2,"gmtOffset":1,"timeZoneId":"Europe/Luxembourg"},"lat":49.5825,"lng":5.95639,"population":1090},{"id":2960673,"name":"Contern","timezone":{"dstOffset":2,"gmtOffset":1,"timeZoneId":"Europe/Luxembourg"},"lat":49.58194,"lng":6.22667,"population":1083},{"id":2960775,"name":"Bettendorf","timezone":{"dstOffset":2,"gmtOffset":1,"timeZoneId":"Europe/Luxembourg"},"lat":49.87667,"lng":6.21806,"population":1072},{"id":2960367,"name":"Koerich","timezone":{"dstOffset":2,"gmtOffset":1,"timeZoneId":"Europe/Luxembourg"},"lat":49.67,"lng":5.95,"population":1066},{"id":2960084,"name":"Schrassig","timezone":{"dstOffset":2,"gmtOffset":1,"timeZoneId":"Europe/Luxembourg"},"lat":49.60583,"lng":6.25889,"population":1051},{"id":2960453,"name":"Hobscheid","timezone":{"dstOffset":2,"gmtOffset":1,"timeZoneId":"Europe/Luxembourg"},"lat":49.68861,"lng":5.91472,"population":1051},{"id":2960250,"name":"Müllendorf","timezone":{"dstOffset":2,"gmtOffset":1,"timeZoneId":"Europe/Luxembourg"},"lat":49.68028,"lng":6.13,"population":1024},{"id":2960823,"name":"Aspelt","timezone":{"dstOffset":2,"gmtOffset":1,"timeZoneId":"Europe/Luxembourg"},"lat":49.52278,"lng":6.22472,"population":1013},{"id":2960174,"name":"Pontpierre","timezone":{"dstOffset":2,"gmtOffset":1,"timeZoneId":"Europe/Luxembourg"},"lat":49.53639,"lng":6.02944,"population":1009},{"id":2960283,"name":"Medernach","timezone":{"dstOffset":2,"gmtOffset":1,"timeZoneId":"Europe/Luxembourg"},"lat":49.80194,"lng":6.21833,"population":907},{"id":2960796,"name":"Berdorf","timezone":{"dstOffset":2,"gmtOffset":1,"timeZoneId":"Europe/Luxembourg"},"lat":49.81361,"lng":6.35028,"population":900},{"id":2960601,"name":"Erpeldange","timezone":{"dstOffset":2,"gmtOffset":1,"timeZoneId":"Europe/Luxembourg"},"lat":49.86472,"lng":6.11472,"population":845},{"id":2960082,"name":"Schuttrange","timezone":{"dstOffset":2,"gmtOffset":1,"timeZoneId":"Europe/Luxembourg"},"lat":49.62056,"lng":6.26861,"population":841},{"id":2960549,"name":"Garnich","timezone":{"dstOffset":2,"gmtOffset":1,"timeZoneId":"Europe/Luxembourg"},"lat":49.61667,"lng":5.9525,"population":824},{"id":2960429,"name":"Hosingen","timezone":{"dstOffset":2,"gmtOffset":1,"timeZoneId":"Europe/Luxembourg"},"lat":50.01778,"lng":6.09333,"population":811},{"id":2960648,"name":"Dippach","timezone":{"dstOffset":2,"gmtOffset":1,"timeZoneId":"Europe/Luxembourg"},"lat":49.58833,"lng":5.98333,"population":808},{"id":2959959,"name":"Wormeldange","timezone":{"dstOffset":2,"gmtOffset":1,"timeZoneId":"Europe/Luxembourg"},"lat":49.60833,"lng":6.40583,"population":786},{"id":2960322,"name":"Lorentzweiler","timezone":{"dstOffset":2,"gmtOffset":1,"timeZoneId":"Europe/Luxembourg"},"lat":49.69472,"lng":6.1425,"population":772},{"id":2960019,"name":"Vichten","timezone":{"dstOffset":2,"gmtOffset":1,"timeZoneId":"Europe/Luxembourg"},"lat":49.80306,"lng":6,"population":764},{"id":2960063,"name":"Stadtbredimus","timezone":{"dstOffset":2,"gmtOffset":1,"timeZoneId":"Europe/Luxembourg"},"lat":49.56278,"lng":6.36444,"population":749},{"id":2960010,"name":"Walferdange","timezone":{"dstOffset":2,"gmtOffset":1,"timeZoneId":"Europe/Luxembourg"},"lat":49.65833,"lng":6.13722,"population":740},{"id":2960135,"name":"Roeser","timezone":{"dstOffset":2,"gmtOffset":1,"timeZoneId":"Europe/Luxembourg"},"lat":49.54222,"lng":6.15,"population":708},{"id":2959989,"name":"Weiswampach","timezone":{"dstOffset":2,"gmtOffset":1,"timeZoneId":"Europe/Luxembourg"},"lat":50.13722,"lng":6.075,"population":691},{"id":2960127,"name":"Rosport","timezone":{"dstOffset":2,"gmtOffset":1,"timeZoneId":"Europe/Luxembourg"},"lat":49.79778,"lng":6.50417,"population":681},{"id":2960806,"name":"Beckerich","timezone":{"dstOffset":2,"gmtOffset":1,"timeZoneId":"Europe/Luxembourg"},"lat":49.73056,"lng":5.88722,"population":672},{"id":2960022,"name":"Useldange","timezone":{"dstOffset":2,"gmtOffset":1,"timeZoneId":"Europe/Luxembourg"},"lat":49.76972,"lng":5.98222,"population":657},{"id":2960363,"name":"Kopstal","timezone":{"dstOffset":2,"gmtOffset":1,"timeZoneId":"Europe/Luxembourg"},"lat":49.66444,"lng":6.07306,"population":657},{"id":2960510,"name":"Grosbous","timezone":{"dstOffset":2,"gmtOffset":1,"timeZoneId":"Europe/Luxembourg"},"lat":49.82778,"lng":5.96722,"population":656},{"id":2960757,"name":"Biwer","timezone":{"dstOffset":2,"gmtOffset":1,"timeZoneId":"Europe/Luxembourg"},"lat":49.70278,"lng":6.37472,"population":653},{"id":2960481,"name":"Heffingen","timezone":{"dstOffset":2,"gmtOffset":1,"timeZoneId":"Europe/Luxembourg"},"lat":49.7625,"lng":6.24139,"population":623},{"id":2960027,"name":"Tuntange","timezone":{"dstOffset":2,"gmtOffset":1,"timeZoneId":"Europe/Luxembourg"},"lat":49.71778,"lng":6.01028,"population":605},{"id":2960747,"name":"Boevange-sur-Attert","timezone":{"dstOffset":2,"gmtOffset":1,"timeZoneId":"Europe/Luxembourg"},"lat":49.77528,"lng":6.01556,"population":576},{"id":2960164,"name":"Reckange-sur-Mess","timezone":{"dstOffset":2,"gmtOffset":1,"timeZoneId":"Europe/Luxembourg"},"lat":49.5625,"lng":6.00889,"population":571},{"id":2960732,"name":"Bous","timezone":{"dstOffset":2,"gmtOffset":1,"timeZoneId":"Europe/Luxembourg"},"lat":49.55389,"lng":6.32917,"population":560},{"id":2960156,"name":"Reisdorf","timezone":{"dstOffset":2,"gmtOffset":1,"timeZoneId":"Europe/Luxembourg"},"lat":49.86861,"lng":6.26778,"population":493},{"id":2959996,"name":"Weiler-la-Tour","timezone":{"dstOffset":2,"gmtOffset":1,"timeZoneId":"Europe/Luxembourg"},"lat":49.54083,"lng":6.20083,"population":484},{"id":2960107,"name":"Schengen","timezone":{"dstOffset":2,"gmtOffset":1,"timeZoneId":"Europe/Luxembourg"},"lat":49.47167,"lng":6.36583,"population":470},{"id":2960296,"name":"Manternach","timezone":{"dstOffset":2,"gmtOffset":1,"timeZoneId":"Europe/Luxembourg"},"lat":49.70278,"lng":6.42639,"population":443},{"id":2960013,"name":"Waldbredimus","timezone":{"dstOffset":2,"gmtOffset":1,"timeZoneId":"Europe/Luxembourg"},"lat":49.555,"lng":6.2875,"population":416},{"id":2960014,"name":"Waldbillig","timezone":{"dstOffset":2,"gmtOffset":1,"timeZoneId":"Europe/Luxembourg"},"lat":49.78889,"lng":6.28667,"population":408},{"id":2960167,"name":"Rambrouch","timezone":{"dstOffset":2,"gmtOffset":1,"timeZoneId":"Europe/Luxembourg"},"lat":49.83083,"lng":5.845,"population":401},{"id":2960737,"name":"Boulaide","timezone":{"dstOffset":2,"gmtOffset":1,"timeZoneId":"Europe/Luxembourg"},"lat":49.88778,"lng":5.81639,"population":396},{"id":2960807,"name":"Bech","timezone":{"dstOffset":2,"gmtOffset":1,"timeZoneId":"Europe/Luxembourg"},"lat":49.74611,"lng":6.36361,"population":380},{"id":2960070,"name":"Septfontaines","timezone":{"dstOffset":2,"gmtOffset":1,"timeZoneId":"Europe/Luxembourg"},"lat":49.70111,"lng":5.96722,"population":363},{"id":2960616,"name":"Ell","timezone":{"dstOffset":2,"gmtOffset":1,"timeZoneId":"Europe/Luxembourg"},"lat":49.76389,"lng":5.85722,"population":359},{"id":2960568,"name":"Flaxweiler","timezone":{"dstOffset":2,"gmtOffset":1,"timeZoneId":"Europe/Luxembourg"},"lat":49.66167,"lng":6.34361,"population":358},{"id":2960337,"name":"Lenningen","timezone":{"dstOffset":2,"gmtOffset":1,"timeZoneId":"Europe/Luxembourg"},"lat":49.59861,"lng":6.36806,"population":338},{"id":2960595,"name":"Esch-sur-Sûre","timezone":{"dstOffset":2,"gmtOffset":1,"timeZoneId":"Europe/Luxembourg"},"lat":49.91139,"lng":5.93639,"population":333},{"id":2960120,"name":"Saeul","timezone":{"dstOffset":2,"gmtOffset":1,"timeZoneId":"Europe/Luxembourg"},"lat":49.72722,"lng":5.98639,"population":316},{"id":2960734,"name":"Bourscheid","timezone":{"dstOffset":2,"gmtOffset":1,"timeZoneId":"Europe/Luxembourg"},"lat":49.91,"lng":6.06722,"population":275},{"id":2960216,"name":"Nommern","timezone":{"dstOffset":2,"gmtOffset":1,"timeZoneId":"Europe/Luxembourg"},"lat":49.78694,"lng":6.17472,"population":272},{"id":2960534,"name":"Gœsdorf","timezone":{"dstOffset":2,"gmtOffset":1,"timeZoneId":"Europe/Luxembourg"},"lat":49.92167,"lng":5.96833,"population":251},{"id":2959972,"name":"Wilwerwiltz","timezone":{"dstOffset":2,"gmtOffset":1,"timeZoneId":"Europe/Luxembourg"},"lat":49.98889,"lng":5.99917,"population":249},{"id":2960774,"name":"Betzdorf","timezone":{"dstOffset":2,"gmtOffset":1,"timeZoneId":"Europe/Luxembourg"},"lat":49.68333,"lng":6.35,"population":248},{"id":2960017,"name":"Wahl","timezone":{"dstOffset":2,"gmtOffset":1,"timeZoneId":"Europe/Luxembourg"},"lat":49.83667,"lng":5.90639,"population":235},{"id":2960780,"name":"Bettborn","timezone":{"dstOffset":2,"gmtOffset":1,"timeZoneId":"Europe/Luxembourg"},"lat":49.79528,"lng":5.94111,"population":231},{"id":2959971,"name":"Wincrange","timezone":{"dstOffset":2,"gmtOffset":1,"timeZoneId":"Europe/Luxembourg"},"lat":50.05333,"lng":5.91917,"population":210},{"id":2960594,"name":"Eschweiler","timezone":{"dstOffset":2,"gmtOffset":1,"timeZoneId":"Europe/Luxembourg"},"lat":49.99778,"lng":5.94889,"population":205},{"id":2960571,"name":"Fischbach","timezone":{"dstOffset":2,"gmtOffset":1,"timeZoneId":"Europe/Luxembourg"},"lat":49.73972,"lng":6.18722,"population":184},{"id":2960811,"name":"Bavigne","timezone":{"dstOffset":2,"gmtOffset":1,"timeZoneId":"Europe/Luxembourg"},"lat":49.92194,"lng":5.84944,"population":132},{"id":2959968,"name":"Winseler","timezone":{"dstOffset":2,"gmtOffset":1,"timeZoneId":"Europe/Luxembourg"},"lat":49.96778,"lng":5.89028,"population":126},{"id":2960259,"name":"Mompach","timezone":{"dstOffset":2,"gmtOffset":1,"timeZoneId":"Europe/Luxembourg"},"lat":49.74611,"lng":6.465,"population":100},{"id":2960045,"name":"Tandel","timezone":{"dstOffset":2,"gmtOffset":1,"timeZoneId":"Europe/Luxembourg"},"lat":49.8975,"lng":6.18333,"population":89},{"id":2960168,"name":"Putscheid","timezone":{"dstOffset":2,"gmtOffset":1,"timeZoneId":"Europe/Luxembourg"},"lat":49.96083,"lng":6.14306,"population":38},{"id":2960123,"name":"Rumelange","timezone":{"dstOffset":2,"gmtOffset":1,"timeZoneId":"Europe/Luxembourg"},"lat":49.46083,"lng":6.03306,"population":0}]