[{"id":2113779,"name":"Majuro","timezone":{"dstOffset":12,"gmtOffset":12,"timeZoneId":"Pacific/Majuro"},"lat":7.08971,"lng":171.38027,"population":25400},{"id":7304467,"name":"Ebaye","timezone":{"dstOffset":12,"gmtOffset":12,"timeZoneId":"Pacific/Kwajalein"},"lat":8.77479,"lng":167.73919,"population":15000},{"id":7306514,"name":"Arno","timezone":{"dstOffset":12,"gmtOffset":12,"timeZoneId":"Pacific/Majuro"},"lat":7.06691,"lng":171.55413,"population":2068},{"id":2080422,"name":"Jabor","timezone":{"dstOffset":12,"gmtOffset":12,"timeZoneId":"Pacific/Majuro"},"lat":5.92098,"lng":169.64335,"population":1200},{"id":7306528,"name":"Wotje","timezone":{"dstOffset":12,"gmtOffset":12,"timeZoneId":"Pacific/Majuro"},"lat":9.45429,"lng":170.23674,"population":880},{"id":7306516,"name":"Mili","timezone":{"dstOffset":12,"gmtOffset":12,"timeZoneId":"Pacific/Majuro"},"lat":6.0815,"lng":171.73502,"population":854},{"id":7306522,"name":"Namdrik","timezone":{"dstOffset":12,"gmtOffset":12,"timeZoneId":"Pacific/Majuro"},"lat":5.59944,"lng":168.10282,"population":814},{"id":7306512,"name":"Ebon","timezone":{"dstOffset":12,"gmtOffset":12,"timeZoneId":"Pacific/Majuro"},"lat":4.58199,"lng":168.69636,"population":714},{"id":7306525,"name":"Kili","timezone":{"dstOffset":12,"gmtOffset":12,"timeZoneId":"Pacific/Majuro"},"lat":5.64387,"lng":169.12109,"population":602},{"id":2080115,"name":"Likiep","timezone":{"dstOffset":12,"gmtOffset":12,"timeZoneId":"Pacific/Majuro"},"lat":9.82511,"lng":169.31065,"population":482},{"id":2080970,"name":"Ailuk","timezone":{"dstOffset":12,"gmtOffset":12,"timeZoneId":"Pacific/Majuro"},"lat":10.21972,"lng":169.97967,"population":451},{"id":7306519,"name":"Ujae","timezone":{"dstOffset":12,"gmtOffset":12,"timeZoneId":"Pacific/Majuro"},"lat":8.93218,"lng":165.76416,"population":448},{"id":7306513,"name":"Aur","timezone":{"dstOffset":12,"gmtOffset":12,"timeZoneId":"Pacific/Majuro"},"lat":8.1499,"lng":171.16869,"population":438},{"id":7306518,"name":"Utrik","timezone":{"dstOffset":12,"gmtOffset":12,"timeZoneId":"Pacific/Majuro"},"lat":11.22778,"lng":169.84739,"population":409},{"id":7306517,"name":"Lae","timezone":{"dstOffset":12,"gmtOffset":12,"timeZoneId":"Pacific/Majuro"},"lat":8.92217,"lng":166.26344,"population":319},{"id":7306523,"name":"Mejit","timezone":{"dstOffset":12,"gmtOffset":12,"timeZoneId":"Pacific/Majuro"},"lat":10.27531,"lng":170.86461,"population":300},{"id":7306529,"name":"Wotho","timezone":{"dstOffset":12,"gmtOffset":12,"timeZoneId":"Pacific/Majuro"},"lat":10.16575,"lng":166.01022,"population":160},{"id":7306524,"name":"Lib","timezone":{"dstOffset":12,"gmtOffset":12,"timeZoneId":"Pacific/Majuro"},"lat":8.31221,"lng":167.37662,"population":115},{"id":7306526,"name":"Jabat","timezone":{"dstOffset":12,"gmtOffset":12,"timeZoneId":"Pacific/Kwajalein"},"lat":7.75003,"lng":168.97513,"population":112},{"id":7306520,"name":"Rongelap","timezone":{"dstOffset":12,"gmtOffset":12,"timeZoneId":"Pacific/Majuro"},"lat":11.16351,"lng":166.89408,"population":19},{"id":4039539,"name":"Taroa","timezone":{"dstOffset":12,"gmtOffset":12,"timeZoneId":"Pacific/Majuro"},"lat":8.70576,"lng":171.2275,"population":0},{"id":7306511,"name":"Enewetak","timezone":{"dstOffset":12,"gmtOffset":12,"timeZoneId":"Pacific/Majuro"},"lat":11.34735,"lng":162.33733,"population":0},{"id":7306515,"name":"Airok","timezone":{"dstOffset":12,"gmtOffset":12,"timeZoneId":"Pacific/Majuro"},"lat":7.27717,"lng":168.8203,"population":0},{"id":7306521,"name":"Loen","timezone":{"dstOffset":12,"gmtOffset":12,"timeZoneId":"Pacific/Majuro"},"lat":7.76007,"lng":168.23072,"population":0},{"id":7874852,"name":"RMI Capitol","timezone":{"dstOffset":12,"gmtOffset":12,"timeZoneId":"Pacific/Majuro"},"lat":7.08931,"lng":171.3805,"population":0}]