[{"id":927967,"name":"Lilongwe","timezone":{"dstOffset":2,"gmtOffset":2,"timeZoneId":"Africa/Blantyre"},"lat":-13.96692,"lng":33.78725,"population":646750},{"id":931755,"name":"Blantyre","timezone":{"dstOffset":2,"gmtOffset":2,"timeZoneId":"Africa/Blantyre"},"lat":-15.78499,"lng":35.00854,"population":584877},{"id":925475,"name":"Mzuzu","timezone":{"dstOffset":2,"gmtOffset":2,"timeZoneId":"Africa/Blantyre"},"lat":-11.46556,"lng":34.02071,"population":175345},{"id":923295,"name":"Zomba","timezone":{"dstOffset":2,"gmtOffset":2,"timeZoneId":"Africa/Blantyre"},"lat":-15.38596,"lng":35.3188,"population":80932},{"id":928534,"name":"Kasungu","timezone":{"dstOffset":2,"gmtOffset":2,"timeZoneId":"Africa/Blantyre"},"lat":-13.03333,"lng":33.48333,"population":42555},{"id":927246,"name":"Mangochi","timezone":{"dstOffset":2,"gmtOffset":2,"timeZoneId":"Africa/Blantyre"},"lat":-14.47815,"lng":35.26448,"population":40236},{"id":235715,"name":"Karonga","timezone":{"dstOffset":2,"gmtOffset":2,"timeZoneId":"Africa/Blantyre"},"lat":-9.93333,"lng":33.93333,"population":34207},{"id":924055,"name":"Salima","timezone":{"dstOffset":2,"gmtOffset":2,"timeZoneId":"Africa/Blantyre"},"lat":-13.7804,"lng":34.4587,"population":30052},{"id":924705,"name":"Nkhotakota","timezone":{"dstOffset":2,"gmtOffset":2,"timeZoneId":"Africa/Blantyre"},"lat":-12.92744,"lng":34.29614,"population":24865},{"id":927834,"name":"Liwonde","timezone":{"dstOffset":2,"gmtOffset":2,"timeZoneId":"Africa/Blantyre"},"lat":-15.06665,"lng":35.22543,"population":22469},{"id":924572,"name":"Nsanje","timezone":{"dstOffset":2,"gmtOffset":2,"timeZoneId":"Africa/Blantyre"},"lat":-16.91995,"lng":35.26199,"population":21774},{"id":924102,"name":"Rumphi","timezone":{"dstOffset":2,"gmtOffset":2,"timeZoneId":"Africa/Blantyre"},"lat":-11.01863,"lng":33.85746,"population":20727},{"id":925498,"name":"Mzimba","timezone":{"dstOffset":2,"gmtOffset":2,"timeZoneId":"Africa/Blantyre"},"lat":-11.9,"lng":33.6,"population":19308},{"id":931865,"name":"Balaka","timezone":{"dstOffset":2,"gmtOffset":2,"timeZoneId":"Africa/Blantyre"},"lat":-14.97928,"lng":34.95575,"population":18902},{"id":926747,"name":"Mchinji","timezone":{"dstOffset":2,"gmtOffset":2,"timeZoneId":"Africa/Blantyre"},"lat":-13.79841,"lng":32.88019,"population":18305},{"id":925789,"name":"Mulanje","timezone":{"dstOffset":2,"gmtOffset":2,"timeZoneId":"Africa/Blantyre"},"lat":-16.03163,"lng":35.5,"population":16483},{"id":930025,"name":"Dedza","timezone":{"dstOffset":2,"gmtOffset":2,"timeZoneId":"Africa/Blantyre"},"lat":-14.3779,"lng":34.33322,"population":15608},{"id":927792,"name":"Luchenza","timezone":{"dstOffset":2,"gmtOffset":2,"timeZoneId":"Africa/Blantyre"},"lat":-16.00693,"lng":35.30948,"population":11939},{"id":924732,"name":"Nkhata Bay","timezone":{"dstOffset":2,"gmtOffset":2,"timeZoneId":"Africa/Blantyre"},"lat":-11.60659,"lng":34.29073,"population":11721},{"id":926308,"name":"Monkey Bay","timezone":{"dstOffset":2,"gmtOffset":2,"timeZoneId":"Africa/Blantyre"},"lat":-14.08239,"lng":34.91652,"population":11619},{"id":925596,"name":"Mwanza","timezone":{"dstOffset":2,"gmtOffset":2,"timeZoneId":"Africa/Blantyre"},"lat":-15.60262,"lng":34.52479,"population":11379},{"id":926087,"name":"Mponela","timezone":{"dstOffset":2,"gmtOffset":2,"timeZoneId":"Africa/Blantyre"},"lat":-13.53194,"lng":33.74008,"population":11222},{"id":924492,"name":"Ntcheu","timezone":{"dstOffset":2,"gmtOffset":2,"timeZoneId":"Africa/Blantyre"},"lat":-14.82027,"lng":34.63586,"population":10445},{"id":235751,"name":"Chitipa","timezone":{"dstOffset":2,"gmtOffset":2,"timeZoneId":"Africa/Blantyre"},"lat":-9.70237,"lng":33.26969,"population":8824},{"id":924491,"name":"Ntchisi","timezone":{"dstOffset":2,"gmtOffset":2,"timeZoneId":"Africa/Blantyre"},"lat":-13.52775,"lng":33.9149,"population":7918},{"id":931070,"name":"Chikwawa","timezone":{"dstOffset":2,"gmtOffset":2,"timeZoneId":"Africa/Blantyre"},"lat":-16.03352,"lng":34.80091,"population":6987},{"id":923652,"name":"Thyolo","timezone":{"dstOffset":2,"gmtOffset":2,"timeZoneId":"Africa/Blantyre"},"lat":-16.06775,"lng":35.14046,"population":5775},{"id":929977,"name":"Dowa","timezone":{"dstOffset":2,"gmtOffset":2,"timeZoneId":"Africa/Blantyre"},"lat":-13.65399,"lng":33.93754,"population":5565},{"id":927856,"name":"Livingstonia","timezone":{"dstOffset":2,"gmtOffset":2,"timeZoneId":"Africa/Blantyre"},"lat":-10.60602,"lng":34.10628,"population":5552},{"id":930629,"name":"Chipoka","timezone":{"dstOffset":2,"gmtOffset":2,"timeZoneId":"Africa/Blantyre"},"lat":-13.99328,"lng":34.51566,"population":4346},{"id":924206,"name":"Phalombe","timezone":{"dstOffset":2,"gmtOffset":2,"timeZoneId":"Africa/Blantyre"},"lat":-15.80635,"lng":35.65067,"population":2663},{"id":930580,"name":"Chiradzulu","timezone":{"dstOffset":2,"gmtOffset":2,"timeZoneId":"Africa/Blantyre"},"lat":-15.67461,"lng":35.14071,"population":1580},{"id":927643,"name":"Machinga","timezone":{"dstOffset":2,"gmtOffset":2,"timeZoneId":"Africa/Blantyre"},"lat":-15.16849,"lng":35.30002,"population":1418},{"id":924963,"name":"Neno","timezone":{"dstOffset":2,"gmtOffset":2,"timeZoneId":"Africa/Blantyre"},"lat":-15.39805,"lng":34.65343,"population":0},{"id":930582,"name":"Chipyela","timezone":{"dstOffset":2,"gmtOffset":2,"timeZoneId":"Africa/Blantyre"},"lat":-12.06618,"lng":34.74092,"population":0},{"id":7839184,"name":"Makata","timezone":{"dstOffset":2,"gmtOffset":2,"timeZoneId":"Africa/Blantyre"},"lat":-15.7872,"lng":35.03046,"population":0}]