[{"id":287286,"name":"Muscat","timezone":{"dstOffset":4,"gmtOffset":4,"timeZoneId":"Asia/Muscat"},"lat":23.61387,"lng":58.5922,"population":797000},{"id":288967,"name":"As Sīb al Jadīdah","timezone":{"dstOffset":4,"gmtOffset":4,"timeZoneId":"Asia/Muscat"},"lat":23.67027,"lng":58.18911,"population":237816},{"id":286621,"name":"Salalah","timezone":{"dstOffset":4,"gmtOffset":4,"timeZoneId":"Asia/Muscat"},"lat":17.01505,"lng":54.09237,"population":163140},{"id":288764,"name":"Bawshar","timezone":{"dstOffset":4,"gmtOffset":4,"timeZoneId":"Asia/Muscat"},"lat":23.55563,"lng":58.3989,"population":159487},{"id":286282,"name":"Al Sohar","timezone":{"dstOffset":4,"gmtOffset":4,"timeZoneId":"Asia/Muscat"},"lat":24.3643,"lng":56.74681,"population":108274},{"id":288955,"name":"As Suwayq","timezone":{"dstOffset":4,"gmtOffset":4,"timeZoneId":"Asia/Muscat"},"lat":23.84944,"lng":57.43861,"population":107143},{"id":287830,"name":"Ibri","timezone":{"dstOffset":4,"gmtOffset":4,"timeZoneId":"Asia/Muscat"},"lat":23.22573,"lng":56.51572,"population":101640},{"id":286647,"name":"Saham","timezone":{"dstOffset":4,"gmtOffset":4,"timeZoneId":"Asia/Muscat"},"lat":24.17222,"lng":56.88861,"population":89327},{"id":288789,"name":"Barkā’","timezone":{"dstOffset":4,"gmtOffset":4,"timeZoneId":"Asia/Muscat"},"lat":23.70739,"lng":57.88908,"population":81647},{"id":289011,"name":"Rustaq","timezone":{"dstOffset":4,"gmtOffset":4,"timeZoneId":"Asia/Muscat"},"lat":23.39083,"lng":57.42444,"population":79383},{"id":289317,"name":"Buraimi","timezone":{"dstOffset":4,"gmtOffset":4,"timeZoneId":"Asia/Muscat"},"lat":24.25088,"lng":55.79312,"population":73670},{"id":286987,"name":"Nizwá","timezone":{"dstOffset":4,"gmtOffset":4,"timeZoneId":"Asia/Muscat"},"lat":22.93333,"lng":57.53333,"population":72076},{"id":286245,"name":"Sur","timezone":{"dstOffset":4,"gmtOffset":4,"timeZoneId":"Asia/Muscat"},"lat":22.56667,"lng":59.52889,"population":71152},{"id":288899,"name":"Bahlā’","timezone":{"dstOffset":4,"gmtOffset":4,"timeZoneId":"Asia/Muscat"},"lat":22.97339,"lng":57.29958,"population":54338},{"id":289199,"name":"Al Khābūrah","timezone":{"dstOffset":4,"gmtOffset":4,"timeZoneId":"Asia/Muscat"},"lat":23.98864,"lng":57.09838,"population":50223},{"id":286402,"name":"Shināş","timezone":{"dstOffset":4,"gmtOffset":4,"timeZoneId":"Asia/Muscat"},"lat":24.74333,"lng":56.46583,"population":48009},{"id":286293,"name":"Sufālat Samā’il","timezone":{"dstOffset":4,"gmtOffset":4,"timeZoneId":"Asia/Muscat"},"lat":23.31667,"lng":58.01667,"population":47718},{"id":287814,"name":"Izkī","timezone":{"dstOffset":4,"gmtOffset":4,"timeZoneId":"Asia/Muscat"},"lat":22.93333,"lng":57.76667,"population":36203},{"id":289174,"name":"Al Liwā’","timezone":{"dstOffset":4,"gmtOffset":4,"timeZoneId":"Asia/Muscat"},"lat":24.53611,"lng":56.56556,"population":26372},{"id":287832,"name":"Ibrā’","timezone":{"dstOffset":4,"gmtOffset":4,"timeZoneId":"Asia/Muscat"},"lat":22.69057,"lng":58.53337,"population":25265},{"id":288721,"name":"Bidbid","timezone":{"dstOffset":4,"gmtOffset":4,"timeZoneId":"Asia/Muscat"},"lat":23.40786,"lng":58.1283,"population":21188},{"id":288902,"name":"Badīyah","timezone":{"dstOffset":4,"gmtOffset":4,"timeZoneId":"Asia/Muscat"},"lat":22.45,"lng":58.8,"population":18479},{"id":287614,"name":"Khaşab","timezone":{"dstOffset":4,"gmtOffset":4,"timeZoneId":"Asia/Muscat"},"lat":26.17993,"lng":56.24774,"population":17904},{"id":289433,"name":"Ādam","timezone":{"dstOffset":4,"gmtOffset":4,"timeZoneId":"Asia/Muscat"},"lat":22.3756,"lng":57.52334,"population":17283},{"id":411849,"name":"Yanqul","timezone":{"dstOffset":4,"gmtOffset":4,"timeZoneId":"Asia/Muscat"},"lat":23.59051,"lng":56.55008,"population":16599},{"id":289142,"name":"Al Qābil","timezone":{"dstOffset":4,"gmtOffset":4,"timeZoneId":"Asia/Muscat"},"lat":22.571,"lng":58.69472,"population":14008},{"id":412084,"name":"Bayt al ‘Awābī","timezone":{"dstOffset":4,"gmtOffset":4,"timeZoneId":"Asia/Muscat"},"lat":23.30324,"lng":57.52459,"population":10711},{"id":288507,"name":"Dib Dibba","timezone":{"dstOffset":4,"gmtOffset":4,"timeZoneId":"Asia/Muscat"},"lat":26.19778,"lng":56.25778,"population":5000},{"id":287939,"name":"Haymā’","timezone":{"dstOffset":4,"gmtOffset":4,"timeZoneId":"Asia/Muscat"},"lat":19.95931,"lng":56.27575,"population":1294}]