[{"id":108410,"name":"Riyadh","timezone":{"dstOffset":3,"gmtOffset":3,"timeZoneId":"Asia/Riyadh"},"lat":24.68773,"lng":46.72185,"population":4205961},{"id":105343,"name":"Jeddah","timezone":{"dstOffset":3,"gmtOffset":3,"timeZoneId":"Asia/Riyadh"},"lat":21.54238,"lng":39.19797,"population":2867446},{"id":104515,"name":"Mecca","timezone":{"dstOffset":3,"gmtOffset":3,"timeZoneId":"Asia/Riyadh"},"lat":21.42664,"lng":39.82563,"population":1323624},{"id":109223,"name":"Medina","timezone":{"dstOffset":3,"gmtOffset":3,"timeZoneId":"Asia/Riyadh"},"lat":24.46861,"lng":39.61417,"population":1300000},{"id":101760,"name":"Sulţānah","timezone":{"dstOffset":3,"gmtOffset":3,"timeZoneId":"Asia/Riyadh"},"lat":24.49258,"lng":39.58572,"population":946697},{"id":110336,"name":"Dammam","timezone":{"dstOffset":3,"gmtOffset":3,"timeZoneId":"Asia/Riyadh"},"lat":26.43442,"lng":50.10326,"population":768602},{"id":107968,"name":"Ta'if","timezone":{"dstOffset":3,"gmtOffset":3,"timeZoneId":"Asia/Riyadh"},"lat":21.27028,"lng":40.41583,"population":530848},{"id":101628,"name":"Tabūk","timezone":{"dstOffset":3,"gmtOffset":3,"timeZoneId":"Asia/Riyadh"},"lat":28.3998,"lng":36.5715,"population":455450},{"id":107304,"name":"Buraidah","timezone":{"dstOffset":3,"gmtOffset":3,"timeZoneId":"Asia/Riyadh"},"lat":26.32599,"lng":43.97497,"population":391336},{"id":105072,"name":"Khamis Mushait","timezone":{"dstOffset":3,"gmtOffset":3,"timeZoneId":"Asia/Riyadh"},"lat":18.3,"lng":42.73333,"population":387553},{"id":109571,"name":"Al Hufūf","timezone":{"dstOffset":3,"gmtOffset":3,"timeZoneId":"Asia/Riyadh"},"lat":25.36457,"lng":49.56532,"population":293179},{"id":109101,"name":"Al Mubarraz","timezone":{"dstOffset":3,"gmtOffset":3,"timeZoneId":"Asia/Riyadh"},"lat":25.41,"lng":49.58083,"population":290802},{"id":106281,"name":"Hayil","timezone":{"dstOffset":3,"gmtOffset":3,"timeZoneId":"Asia/Riyadh"},"lat":27.52188,"lng":41.69073,"population":267005},{"id":103630,"name":"Najrān","timezone":{"dstOffset":3,"gmtOffset":3,"timeZoneId":"Asia/Riyadh"},"lat":17.49326,"lng":44.12766,"population":258573},{"id":109435,"name":"Jubail","timezone":{"dstOffset":3,"gmtOffset":3,"timeZoneId":"Asia/Riyadh"},"lat":27.01122,"lng":49.65826,"population":237274},{"id":110690,"name":"Abhā","timezone":{"dstOffset":3,"gmtOffset":3,"timeZoneId":"Asia/Riyadh"},"lat":18.21639,"lng":42.50528,"population":210886},{"id":100425,"name":"Yanbu‘ al Baḩr","timezone":{"dstOffset":3,"gmtOffset":3,"timeZoneId":"Asia/Riyadh"},"lat":24.08912,"lng":38.06374,"population":200161},{"id":109323,"name":"Khobar","timezone":{"dstOffset":3,"gmtOffset":3,"timeZoneId":"Asia/Riyadh"},"lat":26.27944,"lng":50.20833,"population":165799},{"id":8394316,"name":"Unaizah","timezone":{"dstOffset":3,"gmtOffset":3,"timeZoneId":"Asia/Riyadh"},"lat":26.08427,"lng":43.99355,"population":163729},{"id":108512,"name":"Arar","timezone":{"dstOffset":3,"gmtOffset":3,"timeZoneId":"Asia/Riyadh"},"lat":30.97531,"lng":41.03808,"population":148540},{"id":102527,"name":"Sakākā","timezone":{"dstOffset":3,"gmtOffset":3,"timeZoneId":"Asia/Riyadh"},"lat":29.96974,"lng":40.20641,"population":128332},{"id":105299,"name":"Gazan","timezone":{"dstOffset":3,"gmtOffset":3,"timeZoneId":"Asia/Riyadh"},"lat":16.88917,"lng":42.55111,"population":105198},{"id":108648,"name":"Al Qurayyāt","timezone":{"dstOffset":3,"gmtOffset":3,"timeZoneId":"Asia/Riyadh"},"lat":31.33176,"lng":37.34282,"population":102903},{"id":107797,"name":"Dhahran","timezone":{"dstOffset":3,"gmtOffset":3,"timeZoneId":"Asia/Riyadh"},"lat":26.28864,"lng":50.11396,"population":99540},{"id":108927,"name":"Al Qaţīf","timezone":{"dstOffset":3,"gmtOffset":3,"timeZoneId":"Asia/Riyadh"},"lat":26.5208,"lng":50.02452,"population":98259},{"id":109953,"name":"Al Bāḩah","timezone":{"dstOffset":3,"gmtOffset":3,"timeZoneId":"Asia/Riyadh"},"lat":20.01288,"lng":41.46767,"population":88419},{"id":101554,"name":"Tārūt","timezone":{"dstOffset":3,"gmtOffset":3,"timeZoneId":"Asia/Riyadh"},"lat":26.57332,"lng":50.03694,"population":85371},{"id":103369,"name":"Bisha","timezone":{"dstOffset":3,"gmtOffset":3,"timeZoneId":"Asia/Riyadh"},"lat":20.00054,"lng":42.6052,"population":81828},{"id":108435,"name":"Ar Rass","timezone":{"dstOffset":3,"gmtOffset":3,"timeZoneId":"Asia/Riyadh"},"lat":25.86944,"lng":43.4973,"population":81728},{"id":410096,"name":"Ash Shafā","timezone":{"dstOffset":3,"gmtOffset":3,"timeZoneId":"Asia/Riyadh"},"lat":21.0721,"lng":40.31185,"population":72190},{"id":102318,"name":"Sayhāt","timezone":{"dstOffset":3,"gmtOffset":3,"timeZoneId":"Asia/Riyadh"},"lat":26.48522,"lng":50.04046,"population":66702},{"id":109131,"name":"Al Mithnab","timezone":{"dstOffset":3,"gmtOffset":3,"timeZoneId":"Asia/Riyadh"},"lat":25.86012,"lng":44.22228,"population":60870},{"id":109380,"name":"Al Khafjī","timezone":{"dstOffset":3,"gmtOffset":3,"timeZoneId":"Asia/Riyadh"},"lat":28.43905,"lng":48.49132,"population":54857},{"id":110325,"name":"Ad Dawādimī","timezone":{"dstOffset":3,"gmtOffset":3,"timeZoneId":"Asia/Riyadh"},"lat":24.50772,"lng":44.39237,"population":54474},{"id":102651,"name":"Şabyā","timezone":{"dstOffset":3,"gmtOffset":3,"timeZoneId":"Asia/Riyadh"},"lat":17.1495,"lng":42.62537,"population":54108},{"id":107781,"name":"Az Zulfi","timezone":{"dstOffset":3,"gmtOffset":3,"timeZoneId":"Asia/Riyadh"},"lat":26.29945,"lng":44.81542,"population":53144},{"id":110619,"name":"Abū ‘Arīsh","timezone":{"dstOffset":3,"gmtOffset":3,"timeZoneId":"Asia/Riyadh"},"lat":16.96887,"lng":42.83251,"population":49171},{"id":102585,"name":"Şafwá","timezone":{"dstOffset":3,"gmtOffset":3,"timeZoneId":"Asia/Riyadh"},"lat":26.64986,"lng":49.95223,"population":45876},{"id":103035,"name":"Rābigh","timezone":{"dstOffset":3,"gmtOffset":3,"timeZoneId":"Asia/Riyadh"},"lat":22.79856,"lng":39.03493,"population":41759},{"id":102985,"name":"Raḩīmah","timezone":{"dstOffset":3,"gmtOffset":3,"timeZoneId":"Asia/Riyadh"},"lat":26.70791,"lng":50.06194,"population":41188},{"id":101312,"name":"Ţurayf","timezone":{"dstOffset":3,"gmtOffset":3,"timeZoneId":"Asia/Riyadh"},"lat":31.67252,"lng":38.66374,"population":40819},{"id":110250,"name":"Afif","timezone":{"dstOffset":3,"gmtOffset":3,"timeZoneId":"Asia/Riyadh"},"lat":23.9065,"lng":42.91724,"population":40648},{"id":101631,"name":"Ţubarjal","timezone":{"dstOffset":3,"gmtOffset":3,"timeZoneId":"Asia/Riyadh"},"lat":30.49987,"lng":38.21603,"population":40019},{"id":110314,"name":"Ad Dilam","timezone":{"dstOffset":3,"gmtOffset":3,"timeZoneId":"Asia/Riyadh"},"lat":23.99104,"lng":47.16181,"population":35371},{"id":100926,"name":"Umm Lajj","timezone":{"dstOffset":3,"gmtOffset":3,"timeZoneId":"Asia/Riyadh"},"lat":25.02126,"lng":37.2685,"population":33874},{"id":108841,"name":"Al ‘Ulá","timezone":{"dstOffset":3,"gmtOffset":3,"timeZoneId":"Asia/Riyadh"},"lat":26.60853,"lng":37.92316,"population":32413},{"id":107312,"name":"Abqaiq","timezone":{"dstOffset":3,"gmtOffset":3,"timeZoneId":"Asia/Riyadh"},"lat":25.9371,"lng":49.67761,"population":29474},{"id":107744,"name":"Badr Ḩunayn","timezone":{"dstOffset":3,"gmtOffset":3,"timeZoneId":"Asia/Riyadh"},"lat":23.78292,"lng":38.79047,"population":27257},{"id":102451,"name":"Şāmitah","timezone":{"dstOffset":3,"gmtOffset":3,"timeZoneId":"Asia/Riyadh"},"lat":16.59601,"lng":42.94435,"population":26945},{"id":108773,"name":"Al Wajh","timezone":{"dstOffset":3,"gmtOffset":3,"timeZoneId":"Asia/Riyadh"},"lat":26.24551,"lng":36.45248,"population":26636},{"id":109878,"name":"Al Bukayrīyah","timezone":{"dstOffset":3,"gmtOffset":3,"timeZoneId":"Asia/Riyadh"},"lat":26.14422,"lng":43.65933,"population":25153},{"id":108617,"name":"An Nimāş","timezone":{"dstOffset":3,"gmtOffset":3,"timeZoneId":"Asia/Riyadh"},"lat":19.14547,"lng":42.1201,"population":24153},{"id":108048,"name":"As Sulayyil","timezone":{"dstOffset":3,"gmtOffset":3,"timeZoneId":"Asia/Riyadh"},"lat":20.46067,"lng":45.57792,"population":24097},{"id":101322,"name":"Turabah","timezone":{"dstOffset":3,"gmtOffset":3,"timeZoneId":"Asia/Riyadh"},"lat":21.21406,"lng":41.6331,"population":23235},{"id":109417,"name":"Al Jumūm","timezone":{"dstOffset":3,"gmtOffset":3,"timeZoneId":"Asia/Riyadh"},"lat":21.61694,"lng":39.69806,"population":22207},{"id":106909,"name":"Duba","timezone":{"dstOffset":3,"gmtOffset":3,"timeZoneId":"Asia/Riyadh"},"lat":27.35134,"lng":35.69014,"population":22000},{"id":107959,"name":"Aţ Ţaraf","timezone":{"dstOffset":3,"gmtOffset":3,"timeZoneId":"Asia/Riyadh"},"lat":25.36276,"lng":49.72504,"population":21386},{"id":108918,"name":"Al Qayşūmah","timezone":{"dstOffset":3,"gmtOffset":3,"timeZoneId":"Asia/Riyadh"},"lat":28.31117,"lng":46.12729,"population":20685},{"id":109915,"name":"Al Baţţālīyah","timezone":{"dstOffset":3,"gmtOffset":3,"timeZoneId":"Asia/Riyadh"},"lat":25.43333,"lng":49.63333,"population":16606},{"id":109059,"name":"Al Munayzilah","timezone":{"dstOffset":3,"gmtOffset":3,"timeZoneId":"Asia/Riyadh"},"lat":25.38333,"lng":49.66667,"population":16296},{"id":399518,"name":"Al Majāridah","timezone":{"dstOffset":3,"gmtOffset":3,"timeZoneId":"Asia/Riyadh"},"lat":19.12361,"lng":41.91111,"population":14830},{"id":101581,"name":"Tanūmah","timezone":{"dstOffset":3,"gmtOffset":3,"timeZoneId":"Asia/Riyadh"},"lat":27.1,"lng":44.13333,"population":13594},{"id":108890,"name":"Al Qurayn","timezone":{"dstOffset":3,"gmtOffset":3,"timeZoneId":"Asia/Riyadh"},"lat":25.48333,"lng":49.6,"population":12013},{"id":101035,"name":"Umm as Sāhik","timezone":{"dstOffset":3,"gmtOffset":3,"timeZoneId":"Asia/Riyadh"},"lat":26.65361,"lng":49.91639,"population":11813},{"id":108121,"name":"Sājir","timezone":{"dstOffset":3,"gmtOffset":3,"timeZoneId":"Asia/Riyadh"},"lat":25.18251,"lng":44.59964,"population":11717},{"id":110107,"name":"Al Awjām","timezone":{"dstOffset":3,"gmtOffset":3,"timeZoneId":"Asia/Riyadh"},"lat":26.56324,"lng":49.94331,"population":11460},{"id":106744,"name":"Farasān","timezone":{"dstOffset":3,"gmtOffset":3,"timeZoneId":"Asia/Riyadh"},"lat":16.70222,"lng":42.11833,"population":10527},{"id":109118,"name":"Al Mindak","timezone":{"dstOffset":3,"gmtOffset":3,"timeZoneId":"Asia/Riyadh"},"lat":20.1588,"lng":41.28337,"population":9218},{"id":110031,"name":"Al Arţāwīyah","timezone":{"dstOffset":3,"gmtOffset":3,"timeZoneId":"Asia/Riyadh"},"lat":26.50526,"lng":45.34437,"population":9152},{"id":109436,"name":"Al Jubayl","timezone":{"dstOffset":3,"gmtOffset":3,"timeZoneId":"Asia/Riyadh"},"lat":25.4,"lng":49.65,"population":9108},{"id":108957,"name":"Al Qārah","timezone":{"dstOffset":3,"gmtOffset":3,"timeZoneId":"Asia/Riyadh"},"lat":25.41667,"lng":49.66667,"population":9106},{"id":104376,"name":"Marāt","timezone":{"dstOffset":3,"gmtOffset":3,"timeZoneId":"Asia/Riyadh"},"lat":25.07007,"lng":45.46147,"population":8885},{"id":109502,"name":"Al Jafr","timezone":{"dstOffset":3,"gmtOffset":3,"timeZoneId":"Asia/Riyadh"},"lat":25.37694,"lng":49.72361,"population":8715},{"id":392753,"name":"Şuwayr","timezone":{"dstOffset":3,"gmtOffset":3,"timeZoneId":"Asia/Riyadh"},"lat":30.11713,"lng":40.38925,"population":8515},{"id":396550,"name":"Tumayr","timezone":{"dstOffset":3,"gmtOffset":3,"timeZoneId":"Asia/Riyadh"},"lat":25.70393,"lng":45.86796,"population":8246},{"id":101344,"name":"At Tūbī","timezone":{"dstOffset":3,"gmtOffset":3,"timeZoneId":"Asia/Riyadh"},"lat":26.55778,"lng":49.99167,"population":7740},{"id":109481,"name":"Al Jarādīyah","timezone":{"dstOffset":3,"gmtOffset":3,"timeZoneId":"Asia/Riyadh"},"lat":16.57946,"lng":42.9124,"population":7396},{"id":409993,"name":"Al Muwayh","timezone":{"dstOffset":3,"gmtOffset":3,"timeZoneId":"Asia/Riyadh"},"lat":22.43333,"lng":41.75829,"population":7364},{"id":108142,"name":"As Saffānīyah","timezone":{"dstOffset":3,"gmtOffset":3,"timeZoneId":"Asia/Riyadh"},"lat":27.97083,"lng":48.73,"population":7014},{"id":410084,"name":"Al Hadā","timezone":{"dstOffset":3,"gmtOffset":3,"timeZoneId":"Asia/Riyadh"},"lat":21.36753,"lng":40.28694,"population":6885},{"id":109165,"name":"Al Markaz","timezone":{"dstOffset":3,"gmtOffset":3,"timeZoneId":"Asia/Riyadh"},"lat":25.4,"lng":49.73333,"population":6464},{"id":104269,"name":"Mislīyah","timezone":{"dstOffset":3,"gmtOffset":3,"timeZoneId":"Asia/Riyadh"},"lat":17.45988,"lng":42.5572,"population":6117},{"id":109008,"name":"Al Muţayrifī","timezone":{"dstOffset":3,"gmtOffset":3,"timeZoneId":"Asia/Riyadh"},"lat":25.47879,"lng":49.55763,"population":5962},{"id":410874,"name":"Mizhirah","timezone":{"dstOffset":3,"gmtOffset":3,"timeZoneId":"Asia/Riyadh"},"lat":16.82611,"lng":42.73333,"population":5529},{"id":110328,"name":"Ad Darb","timezone":{"dstOffset":3,"gmtOffset":3,"timeZoneId":"Asia/Riyadh"},"lat":17.72285,"lng":42.25261,"population":5378},{"id":105252,"name":"Julayjilah","timezone":{"dstOffset":3,"gmtOffset":3,"timeZoneId":"Asia/Riyadh"},"lat":25.5,"lng":49.6,"population":5359},{"id":103922,"name":"Mulayjah","timezone":{"dstOffset":3,"gmtOffset":3,"timeZoneId":"Asia/Riyadh"},"lat":27.27103,"lng":48.42419,"population":5247},{"id":397513,"name":"Al Fuwayliq","timezone":{"dstOffset":3,"gmtOffset":3,"timeZoneId":"Asia/Riyadh"},"lat":26.44322,"lng":43.2534,"population":5205},{"id":101633,"name":"Tabālah","timezone":{"dstOffset":3,"gmtOffset":3,"timeZoneId":"Asia/Riyadh"},"lat":19.95,"lng":42.4,"population":5151},{"id":6692745,"name":"shokhaibٍ","timezone":{"dstOffset":3,"gmtOffset":3,"timeZoneId":"Asia/Riyadh"},"lat":24.49023,"lng":46.26871,"population":1500},{"id":391699,"name":"Ḩajrat al Khinbish","timezone":{"dstOffset":3,"gmtOffset":3,"timeZoneId":"Asia/Riyadh"},"lat":27.78248,"lng":45.03675,"population":1488}]