[{"id":3196359,"name":"Ljubljana","timezone":{"dstOffset":2,"gmtOffset":1,"timeZoneId":"Europe/Ljubljana"},"lat":46.05108,"lng":14.50513,"population":272220},{"id":3195506,"name":"Maribor","timezone":{"dstOffset":2,"gmtOffset":1,"timeZoneId":"Europe/Ljubljana"},"lat":46.55472,"lng":15.64667,"population":95171},{"id":3202781,"name":"Celje","timezone":{"dstOffset":2,"gmtOffset":1,"timeZoneId":"Europe/Ljubljana"},"lat":46.23092,"lng":15.26044,"population":37520},{"id":3197378,"name":"Kranj","timezone":{"dstOffset":2,"gmtOffset":1,"timeZoneId":"Europe/Ljubljana"},"lat":46.23887,"lng":14.35561,"population":36874},{"id":3189075,"name":"Velenje","timezone":{"dstOffset":2,"gmtOffset":1,"timeZoneId":"Europe/Ljubljana"},"lat":46.35917,"lng":15.11028,"population":25456},{"id":3197753,"name":"Koper","timezone":{"dstOffset":2,"gmtOffset":1,"timeZoneId":"Europe/Ljubljana"},"lat":45.54694,"lng":13.72944,"population":24996},{"id":3194351,"name":"Novo Mesto","timezone":{"dstOffset":2,"gmtOffset":1,"timeZoneId":"Europe/Ljubljana"},"lat":45.80397,"lng":15.16886,"population":23341},{"id":3192241,"name":"Ptuj","timezone":{"dstOffset":2,"gmtOffset":1,"timeZoneId":"Europe/Ljubljana"},"lat":46.42005,"lng":15.87018,"population":18164},{"id":3188915,"name":"Trbovlje","timezone":{"dstOffset":2,"gmtOffset":1,"timeZoneId":"Europe/Ljubljana"},"lat":46.155,"lng":15.05333,"population":15163},{"id":3198365,"name":"Kamnik","timezone":{"dstOffset":2,"gmtOffset":1,"timeZoneId":"Europe/Ljubljana"},"lat":46.22587,"lng":14.61207,"population":13644},{"id":3198647,"name":"Jesenice","timezone":{"dstOffset":2,"gmtOffset":1,"timeZoneId":"Europe/Ljubljana"},"lat":46.43056,"lng":14.06694,"population":13440},{"id":3194452,"name":"Nova Gorica","timezone":{"dstOffset":2,"gmtOffset":1,"timeZoneId":"Europe/Ljubljana"},"lat":45.95604,"lng":13.64837,"population":13178},{"id":3201730,"name":"Domžale","timezone":{"dstOffset":2,"gmtOffset":1,"timeZoneId":"Europe/Ljubljana"},"lat":46.13774,"lng":14.59371,"population":12406},{"id":3190717,"name":"Škofja Loka","timezone":{"dstOffset":2,"gmtOffset":1,"timeZoneId":"Europe/Ljubljana"},"lat":46.16551,"lng":14.30626,"population":11969},{"id":3194648,"name":"Murska Sobota","timezone":{"dstOffset":2,"gmtOffset":1,"timeZoneId":"Europe/Ljubljana"},"lat":46.6625,"lng":16.16639,"population":11614},{"id":3199017,"name":"Izola","timezone":{"dstOffset":2,"gmtOffset":1,"timeZoneId":"Europe/Ljubljana"},"lat":45.53694,"lng":13.66194,"population":11223},{"id":3192673,"name":"Postojna","timezone":{"dstOffset":2,"gmtOffset":1,"timeZoneId":"Europe/Ljubljana"},"lat":45.77435,"lng":14.21528,"population":9183},{"id":3218907,"name":"Logatec","timezone":{"dstOffset":2,"gmtOffset":1,"timeZoneId":"Europe/Ljubljana"},"lat":45.91444,"lng":14.22583,"population":8942},{"id":3197943,"name":"Kočevje","timezone":{"dstOffset":2,"gmtOffset":1,"timeZoneId":"Europe/Ljubljana"},"lat":45.64333,"lng":14.86333,"population":8672},{"id":3187214,"name":"Vrhnika","timezone":{"dstOffset":2,"gmtOffset":1,"timeZoneId":"Europe/Ljubljana"},"lat":45.9635,"lng":14.29484,"population":8413},{"id":3190536,"name":"Slovenj Gradec","timezone":{"dstOffset":2,"gmtOffset":1,"timeZoneId":"Europe/Ljubljana"},"lat":46.51028,"lng":15.08056,"population":7519},{"id":3190534,"name":"Slovenska Bistrica","timezone":{"dstOffset":2,"gmtOffset":1,"timeZoneId":"Europe/Ljubljana"},"lat":46.39278,"lng":15.57444,"population":7454},{"id":3199523,"name":"Grosuplje","timezone":{"dstOffset":2,"gmtOffset":1,"timeZoneId":"Europe/Ljubljana"},"lat":45.95556,"lng":14.65889,"population":7098},{"id":3197147,"name":"Krško","timezone":{"dstOffset":2,"gmtOffset":1,"timeZoneId":"Europe/Ljubljana"},"lat":45.95915,"lng":15.49167,"population":7097},{"id":3191839,"name":"Ravne na Koroškem","timezone":{"dstOffset":2,"gmtOffset":1,"timeZoneId":"Europe/Ljubljana"},"lat":46.54306,"lng":14.96917,"population":6979},{"id":3204854,"name":"Ajdovščina","timezone":{"dstOffset":2,"gmtOffset":1,"timeZoneId":"Europe/Ljubljana"},"lat":45.88601,"lng":13.90946,"population":6656},{"id":3203412,"name":"Brežice","timezone":{"dstOffset":2,"gmtOffset":1,"timeZoneId":"Europe/Ljubljana"},"lat":45.90333,"lng":15.59111,"population":6573},{"id":3196425,"name":"Litija","timezone":{"dstOffset":2,"gmtOffset":1,"timeZoneId":"Europe/Ljubljana"},"lat":46.05861,"lng":14.8225,"population":6467},{"id":3186906,"name":"Zagorje ob Savi","timezone":{"dstOffset":2,"gmtOffset":1,"timeZoneId":"Europe/Ljubljana"},"lat":46.13179,"lng":14.99694,"population":6439},{"id":3195250,"name":"Mengeš","timezone":{"dstOffset":2,"gmtOffset":1,"timeZoneId":"Europe/Ljubljana"},"lat":46.16694,"lng":14.575,"population":6112},{"id":3199171,"name":"Idrija","timezone":{"dstOffset":2,"gmtOffset":1,"timeZoneId":"Europe/Ljubljana"},"lat":46.00278,"lng":14.03056,"population":5955},{"id":3192063,"name":"Radovljica","timezone":{"dstOffset":2,"gmtOffset":1,"timeZoneId":"Europe/Ljubljana"},"lat":46.34444,"lng":14.17444,"population":5940},{"id":3343512,"name":"Lucija","timezone":{"dstOffset":2,"gmtOffset":1,"timeZoneId":"Europe/Ljubljana"},"lat":45.50526,"lng":13.6024,"population":5872},{"id":3202333,"name":"Črnomelj","timezone":{"dstOffset":2,"gmtOffset":1,"timeZoneId":"Europe/Ljubljana"},"lat":45.57111,"lng":15.18889,"population":5776},{"id":3199297,"name":"Hrastnik","timezone":{"dstOffset":2,"gmtOffset":1,"timeZoneId":"Europe/Ljubljana"},"lat":46.14611,"lng":15.08139,"population":5621},{"id":3190945,"name":"Sežana","timezone":{"dstOffset":2,"gmtOffset":1,"timeZoneId":"Europe/Ljubljana"},"lat":45.70924,"lng":13.87333,"population":5531},{"id":3203925,"name":"Bled","timezone":{"dstOffset":2,"gmtOffset":1,"timeZoneId":"Europe/Ljubljana"},"lat":46.36917,"lng":14.11361,"population":5181},{"id":3195281,"name":"Medvode","timezone":{"dstOffset":2,"gmtOffset":1,"timeZoneId":"Europe/Ljubljana"},"lat":46.1422,"lng":14.41114,"population":5178},{"id":3191580,"name":"Rogaška Slatina","timezone":{"dstOffset":2,"gmtOffset":1,"timeZoneId":"Europe/Ljubljana"},"lat":46.2375,"lng":15.63972,"population":5111},{"id":3186844,"name":"Žalec","timezone":{"dstOffset":2,"gmtOffset":1,"timeZoneId":"Europe/Ljubljana"},"lat":46.25151,"lng":15.16482,"population":4943},{"id":3190530,"name":"Slovenske Konjice","timezone":{"dstOffset":2,"gmtOffset":1,"timeZoneId":"Europe/Ljubljana"},"lat":46.33667,"lng":15.42583,"population":4869},{"id":3191029,"name":"Šentjur pri Celju","timezone":{"dstOffset":2,"gmtOffset":1,"timeZoneId":"Europe/Ljubljana"},"lat":46.21722,"lng":15.3975,"population":4762},{"id":3190950,"name":"Sevnica","timezone":{"dstOffset":2,"gmtOffset":1,"timeZoneId":"Europe/Ljubljana"},"lat":46.00778,"lng":15.31556,"population":4660},{"id":3192484,"name":"Prevalje","timezone":{"dstOffset":2,"gmtOffset":1,"timeZoneId":"Europe/Ljubljana"},"lat":46.54694,"lng":14.92083,"population":4643},{"id":3199131,"name":"Ilirska Bistrica","timezone":{"dstOffset":2,"gmtOffset":1,"timeZoneId":"Europe/Ljubljana"},"lat":45.57878,"lng":14.30652,"population":4553},{"id":3191401,"name":"Ruše","timezone":{"dstOffset":2,"gmtOffset":1,"timeZoneId":"Europe/Ljubljana"},"lat":46.53944,"lng":15.51583,"population":4503},{"id":3193341,"name":"Piran","timezone":{"dstOffset":2,"gmtOffset":1,"timeZoneId":"Europe/Ljubljana"},"lat":45.52778,"lng":13.57056,"population":4192},{"id":3202709,"name":"Cerknica","timezone":{"dstOffset":2,"gmtOffset":1,"timeZoneId":"Europe/Ljubljana"},"lat":45.79306,"lng":14.3625,"population":3928},{"id":3188688,"name":"Tržič","timezone":{"dstOffset":2,"gmtOffset":1,"timeZoneId":"Europe/Ljubljana"},"lat":46.36357,"lng":14.31046,"population":3865},{"id":3195162,"name":"Miklavž na Dravskem Polju","timezone":{"dstOffset":2,"gmtOffset":1,"timeZoneId":"Europe/Ljubljana"},"lat":46.50583,"lng":15.69722,"population":3854},{"id":3188684,"name":"Trzin","timezone":{"dstOffset":2,"gmtOffset":1,"timeZoneId":"Europe/Ljubljana"},"lat":46.13333,"lng":14.56667,"population":3844},{"id":3191063,"name":"Šempeter pri Gorici","timezone":{"dstOffset":2,"gmtOffset":1,"timeZoneId":"Europe/Ljubljana"},"lat":45.9275,"lng":13.64111,"population":3760},{"id":3191685,"name":"Ribnica","timezone":{"dstOffset":2,"gmtOffset":1,"timeZoneId":"Europe/Ljubljana"},"lat":45.73861,"lng":14.7275,"population":3604},{"id":3186450,"name":"Žiri","timezone":{"dstOffset":2,"gmtOffset":1,"timeZoneId":"Europe/Ljubljana"},"lat":46.04222,"lng":14.10722,"population":3588},{"id":3189038,"name":"Tolmin","timezone":{"dstOffset":2,"gmtOffset":1,"timeZoneId":"Europe/Ljubljana"},"lat":46.18304,"lng":13.73321,"population":3534},{"id":3188886,"name":"Trebnje","timezone":{"dstOffset":2,"gmtOffset":1,"timeZoneId":"Europe/Ljubljana"},"lat":45.90417,"lng":15.02167,"population":3477},{"id":3196307,"name":"Ljutomer","timezone":{"dstOffset":2,"gmtOffset":1,"timeZoneId":"Europe/Ljubljana"},"lat":46.52083,"lng":16.1975,"population":3460},{"id":3196760,"name":"Laško","timezone":{"dstOffset":2,"gmtOffset":1,"timeZoneId":"Europe/Ljubljana"},"lat":46.15463,"lng":15.23555,"population":3456},{"id":8986856,"name":"Vir","timezone":{"dstOffset":2,"gmtOffset":1,"timeZoneId":"Europe/Ljubljana"},"lat":46.15325,"lng":14.60741,"population":3415},{"id":3216508,"name":"Solkan","timezone":{"dstOffset":2,"gmtOffset":1,"timeZoneId":"Europe/Ljubljana"},"lat":45.97139,"lng":13.64944,"population":3324},{"id":3201253,"name":"Dravograd","timezone":{"dstOffset":2,"gmtOffset":1,"timeZoneId":"Europe/Ljubljana"},"lat":46.58806,"lng":15.01917,"population":3289},{"id":3220262,"name":"Ankaran","timezone":{"dstOffset":2,"gmtOffset":1,"timeZoneId":"Europe/Ljubljana"},"lat":45.57861,"lng":13.73611,"population":3278},{"id":3195214,"name":"Metlika","timezone":{"dstOffset":2,"gmtOffset":1,"timeZoneId":"Europe/Ljubljana"},"lat":45.64722,"lng":15.31417,"population":3273},{"id":3195202,"name":"Mežica","timezone":{"dstOffset":2,"gmtOffset":1,"timeZoneId":"Europe/Ljubljana"},"lat":46.52139,"lng":14.85444,"population":3254},{"id":3200197,"name":"Gornja Radgona","timezone":{"dstOffset":2,"gmtOffset":1,"timeZoneId":"Europe/Ljubljana"},"lat":46.67333,"lng":15.99222,"population":3159},{"id":3191059,"name":"Šenčur","timezone":{"dstOffset":2,"gmtOffset":1,"timeZoneId":"Europe/Ljubljana"},"lat":46.24556,"lng":14.41972,"population":3152},{"id":3196681,"name":"Lendava","timezone":{"dstOffset":2,"gmtOffset":1,"timeZoneId":"Europe/Ljubljana"},"lat":46.56494,"lng":16.45091,"population":3129},{"id":3186607,"name":"Železniki","timezone":{"dstOffset":2,"gmtOffset":1,"timeZoneId":"Europe/Ljubljana"},"lat":46.21999,"lng":14.14159,"population":3075},{"id":3196682,"name":"Lenart v Slov. Goricah","timezone":{"dstOffset":2,"gmtOffset":1,"timeZoneId":"Europe/Ljubljana"},"lat":46.57611,"lng":15.83139,"population":3006},{"id":3204040,"name":"Bistrica pri Tržiču","timezone":{"dstOffset":2,"gmtOffset":1,"timeZoneId":"Europe/Ljubljana"},"lat":46.35472,"lng":14.29167,"population":2996},{"id":3192682,"name":"Portorož","timezone":{"dstOffset":2,"gmtOffset":1,"timeZoneId":"Europe/Ljubljana"},"lat":45.51429,"lng":13.59206,"population":2947},{"id":3339120,"name":"Zreče","timezone":{"dstOffset":2,"gmtOffset":1,"timeZoneId":"Europe/Ljubljana"},"lat":46.38222,"lng":15.37917,"population":2935},{"id":3190311,"name":"Šoštanj","timezone":{"dstOffset":2,"gmtOffset":1,"timeZoneId":"Europe/Ljubljana"},"lat":46.38,"lng":15.04861,"population":2880},{"id":3203338,"name":"Brezovica pri Ljubljani","timezone":{"dstOffset":2,"gmtOffset":1,"timeZoneId":"Europe/Ljubljana"},"lat":46.03333,"lng":14.4,"population":2862},{"id":3196652,"name":"Lesce","timezone":{"dstOffset":2,"gmtOffset":1,"timeZoneId":"Europe/Ljubljana"},"lat":46.36111,"lng":14.15778,"population":2835},{"id":3192121,"name":"Radlje ob Dravi","timezone":{"dstOffset":2,"gmtOffset":1,"timeZoneId":"Europe/Ljubljana"},"lat":46.61417,"lng":15.22639,"population":2811},{"id":3187125,"name":"Vrtojba","timezone":{"dstOffset":2,"gmtOffset":1,"timeZoneId":"Europe/Ljubljana"},"lat":45.9125,"lng":13.63417,"population":2591},{"id":3190219,"name":"Spodnje Hoče","timezone":{"dstOffset":2,"gmtOffset":1,"timeZoneId":"Europe/Ljubljana"},"lat":46.5,"lng":15.65,"population":2555},{"id":3192165,"name":"Rače","timezone":{"dstOffset":2,"gmtOffset":1,"timeZoneId":"Europe/Ljubljana"},"lat":46.45194,"lng":15.68139,"population":2529},{"id":8986857,"name":"Lavrica","timezone":{"dstOffset":2,"gmtOffset":1,"timeZoneId":"Europe/Ljubljana"},"lat":46.00002,"lng":14.5573,"population":2438},{"id":3202459,"name":"Črna na Koroškem","timezone":{"dstOffset":2,"gmtOffset":1,"timeZoneId":"Europe/Ljubljana"},"lat":46.47045,"lng":14.85009,"population":2409},{"id":3204303,"name":"Beltinci","timezone":{"dstOffset":2,"gmtOffset":1,"timeZoneId":"Europe/Ljubljana"},"lat":46.60528,"lng":16.24056,"population":2394},{"id":3192762,"name":"Polzela","timezone":{"dstOffset":2,"gmtOffset":1,"timeZoneId":"Europe/Ljubljana"},"lat":46.28333,"lng":15.06667,"population":2380},{"id":3191044,"name":"Senovo","timezone":{"dstOffset":2,"gmtOffset":1,"timeZoneId":"Europe/Ljubljana"},"lat":46.02361,"lng":15.47694,"population":2343},{"id":3194622,"name":"Muta","timezone":{"dstOffset":2,"gmtOffset":1,"timeZoneId":"Europe/Ljubljana"},"lat":46.61139,"lng":15.16611,"population":2300},{"id":3187448,"name":"Vojnik","timezone":{"dstOffset":2,"gmtOffset":1,"timeZoneId":"Europe/Ljubljana"},"lat":46.29333,"lng":15.30333,"population":2292},{"id":3199162,"name":"Ig","timezone":{"dstOffset":2,"gmtOffset":1,"timeZoneId":"Europe/Ljubljana"},"lat":45.96028,"lng":14.52889,"population":2262},{"id":3343518,"name":"Jagodje","timezone":{"dstOffset":2,"gmtOffset":1,"timeZoneId":"Europe/Ljubljana"},"lat":45.52845,"lng":13.64721,"population":2225},{"id":3190712,"name":"Škofljica","timezone":{"dstOffset":2,"gmtOffset":1,"timeZoneId":"Europe/Ljubljana"},"lat":45.98333,"lng":14.57667,"population":2209},{"id":3192139,"name":"Radenci","timezone":{"dstOffset":2,"gmtOffset":1,"timeZoneId":"Europe/Ljubljana"},"lat":46.64201,"lng":16.03781,"population":2201},{"id":3187505,"name":"Vnanje Gorice","timezone":{"dstOffset":2,"gmtOffset":1,"timeZoneId":"Europe/Ljubljana"},"lat":46.00722,"lng":14.42194,"population":2195},{"id":3193965,"name":"Ormož","timezone":{"dstOffset":2,"gmtOffset":1,"timeZoneId":"Europe/Ljubljana"},"lat":46.41139,"lng":16.15444,"population":2174},{"id":3192144,"name":"Radeče","timezone":{"dstOffset":2,"gmtOffset":1,"timeZoneId":"Europe/Ljubljana"},"lat":46.06806,"lng":15.18389,"population":2168},{"id":3203677,"name":"Borovnica","timezone":{"dstOffset":2,"gmtOffset":1,"timeZoneId":"Europe/Ljubljana"},"lat":45.91583,"lng":14.36306,"population":2162},{"id":3217862,"name":"Koroška Bela","timezone":{"dstOffset":2,"gmtOffset":1,"timeZoneId":"Europe/Ljubljana"},"lat":46.44913,"lng":14.11135,"population":2160},{"id":3192021,"name":"Rakek","timezone":{"dstOffset":2,"gmtOffset":1,"timeZoneId":"Europe/Ljubljana"},"lat":45.81333,"lng":14.31111,"population":2152},{"id":3193299,"name":"Pivka","timezone":{"dstOffset":2,"gmtOffset":1,"timeZoneId":"Europe/Ljubljana"},"lat":45.68292,"lng":14.19588,"population":2088},{"id":3194792,"name":"Mozirje","timezone":{"dstOffset":2,"gmtOffset":1,"timeZoneId":"Europe/Ljubljana"},"lat":46.33944,"lng":14.96333,"population":2085},{"id":3197163,"name":"Kromberk","timezone":{"dstOffset":2,"gmtOffset":1,"timeZoneId":"Europe/Ljubljana"},"lat":45.96083,"lng":13.66556,"population":2081},{"id":3196560,"name":"Limbuš","timezone":{"dstOffset":2,"gmtOffset":1,"timeZoneId":"Europe/Ljubljana"},"lat":46.55361,"lng":15.58361,"population":2040},{"id":3191062,"name":"Šempeter v Savinj. Dolini","timezone":{"dstOffset":2,"gmtOffset":1,"timeZoneId":"Europe/Ljubljana"},"lat":46.25639,"lng":15.12194,"population":2021},{"id":3217860,"name":"Slovenski Javornik","timezone":{"dstOffset":2,"gmtOffset":1,"timeZoneId":"Europe/Ljubljana"},"lat":46.42611,"lng":14.08722,"population":2002},{"id":3191072,"name":"Semič","timezone":{"dstOffset":2,"gmtOffset":1,"timeZoneId":"Europe/Ljubljana"},"lat":45.64611,"lng":15.18222,"population":2000},{"id":3200385,"name":"Straža","timezone":{"dstOffset":2,"gmtOffset":1,"timeZoneId":"Europe/Ljubljana"},"lat":45.78,"lng":15.07278,"population":1996},{"id":3199078,"name":"Ivančna Gorica","timezone":{"dstOffset":2,"gmtOffset":1,"timeZoneId":"Europe/Ljubljana"},"lat":45.93833,"lng":14.80444,"population":1988},{"id":3196165,"name":"Lovrenc na Pohorju","timezone":{"dstOffset":2,"gmtOffset":1,"timeZoneId":"Europe/Ljubljana"},"lat":46.54056,"lng":15.39306,"population":1977},{"id":3195011,"name":"Mislinja","timezone":{"dstOffset":2,"gmtOffset":1,"timeZoneId":"Europe/Ljubljana"},"lat":46.46415,"lng":15.25639,"population":1945},{"id":3189798,"name":"Štore","timezone":{"dstOffset":2,"gmtOffset":1,"timeZoneId":"Europe/Ljubljana"},"lat":46.22083,"lng":15.31389,"population":1937},{"id":3191737,"name":"Renče","timezone":{"dstOffset":2,"gmtOffset":1,"timeZoneId":"Europe/Ljubljana"},"lat":45.89,"lng":13.66861,"population":1937},{"id":3203286,"name":"Britof","timezone":{"dstOffset":2,"gmtOffset":1,"timeZoneId":"Europe/Ljubljana"},"lat":46.26024,"lng":14.39037,"population":1908},{"id":3187855,"name":"Verd","timezone":{"dstOffset":2,"gmtOffset":1,"timeZoneId":"Europe/Ljubljana"},"lat":45.95667,"lng":14.30583,"population":1891},{"id":6956383,"name":"Kisovec","timezone":{"dstOffset":2,"gmtOffset":1,"timeZoneId":"Europe/Ljubljana"},"lat":46.13911,"lng":14.96295,"population":1838},{"id":3191039,"name":"Šentilj","timezone":{"dstOffset":2,"gmtOffset":1,"timeZoneId":"Europe/Ljubljana"},"lat":46.68167,"lng":15.64806,"population":1826},{"id":3203808,"name":"Bohinjska Bistrica","timezone":{"dstOffset":2,"gmtOffset":1,"timeZoneId":"Europe/Ljubljana"},"lat":46.27216,"lng":13.9535,"population":1799},{"id":3190510,"name":"Šmarje pri Jelšah","timezone":{"dstOffset":2,"gmtOffset":1,"timeZoneId":"Europe/Ljubljana"},"lat":46.22722,"lng":15.51917,"population":1779},{"id":3187706,"name":"Vipava","timezone":{"dstOffset":2,"gmtOffset":1,"timeZoneId":"Europe/Ljubljana"},"lat":45.84667,"lng":13.96306,"population":1771},{"id":3186494,"name":"Zgornji Duplek","timezone":{"dstOffset":2,"gmtOffset":1,"timeZoneId":"Europe/Ljubljana"},"lat":46.51361,"lng":15.72083,"population":1752},{"id":3189368,"name":"Sv. Anton","timezone":{"dstOffset":2,"gmtOffset":1,"timeZoneId":"Europe/Ljubljana"},"lat":45.52583,"lng":13.83194,"population":1736},{"id":3199243,"name":"Hrušica","timezone":{"dstOffset":2,"gmtOffset":1,"timeZoneId":"Europe/Ljubljana"},"lat":46.445,"lng":14.01778,"population":1722},{"id":3194595,"name":"Naklo","timezone":{"dstOffset":2,"gmtOffset":1,"timeZoneId":"Europe/Ljubljana"},"lat":46.27278,"lng":14.31722,"population":1716},{"id":3192570,"name":"Prebold","timezone":{"dstOffset":2,"gmtOffset":1,"timeZoneId":"Europe/Ljubljana"},"lat":46.23694,"lng":15.0925,"population":1709},{"id":3339124,"name":"Radizel","timezone":{"dstOffset":2,"gmtOffset":1,"timeZoneId":"Europe/Ljubljana"},"lat":46.47444,"lng":15.65583,"population":1698},{"id":3194213,"name":"Odranci","timezone":{"dstOffset":2,"gmtOffset":1,"timeZoneId":"Europe/Ljubljana"},"lat":46.58667,"lng":16.28028,"population":1693},{"id":3192098,"name":"Radomlje","timezone":{"dstOffset":2,"gmtOffset":1,"timeZoneId":"Europe/Ljubljana"},"lat":46.17361,"lng":14.61222,"population":1674},{"id":3197904,"name":"Kokrica","timezone":{"dstOffset":2,"gmtOffset":1,"timeZoneId":"Europe/Ljubljana"},"lat":46.27028,"lng":14.36111,"population":1646},{"id":3194462,"name":"Notranje Gorice","timezone":{"dstOffset":2,"gmtOffset":1,"timeZoneId":"Europe/Ljubljana"},"lat":45.9875,"lng":14.39889,"population":1645},{"id":3198366,"name":"Kamnica","timezone":{"dstOffset":2,"gmtOffset":1,"timeZoneId":"Europe/Ljubljana"},"lat":46.57444,"lng":15.61417,"population":1638},{"id":3196281,"name":"Log pri Brezovici","timezone":{"dstOffset":2,"gmtOffset":1,"timeZoneId":"Europe/Ljubljana"},"lat":46.01667,"lng":14.36667,"population":1634},{"id":3203611,"name":"Bovec","timezone":{"dstOffset":2,"gmtOffset":1,"timeZoneId":"Europe/Ljubljana"},"lat":46.3375,"lng":13.55278,"population":1631},{"id":3202711,"name":"Cerklje na Gorenjskem","timezone":{"dstOffset":2,"gmtOffset":1,"timeZoneId":"Europe/Ljubljana"},"lat":46.25417,"lng":14.48861,"population":1608},{"id":3218364,"name":"Cerkno","timezone":{"dstOffset":2,"gmtOffset":1,"timeZoneId":"Europe/Ljubljana"},"lat":46.12556,"lng":13.98167,"population":1596},{"id":3187485,"name":"Vodice","timezone":{"dstOffset":2,"gmtOffset":1,"timeZoneId":"Europe/Ljubljana"},"lat":46.18987,"lng":14.49492,"population":1589},{"id":3202111,"name":"Dekani","timezone":{"dstOffset":2,"gmtOffset":1,"timeZoneId":"Europe/Ljubljana"},"lat":45.54972,"lng":13.81361,"population":1586},{"id":3195271,"name":"Mekinje","timezone":{"dstOffset":2,"gmtOffset":1,"timeZoneId":"Europe/Ljubljana"},"lat":46.23333,"lng":14.61667,"population":1582},{"id":3187020,"name":"Vuzenica","timezone":{"dstOffset":2,"gmtOffset":1,"timeZoneId":"Europe/Ljubljana"},"lat":46.59639,"lng":15.16722,"population":1580},{"id":3194977,"name":"Mlaka pri Kranju","timezone":{"dstOffset":2,"gmtOffset":1,"timeZoneId":"Europe/Ljubljana"},"lat":46.28333,"lng":14.35,"population":1566},{"id":3201994,"name":"Dob","timezone":{"dstOffset":2,"gmtOffset":1,"timeZoneId":"Europe/Ljubljana"},"lat":46.15194,"lng":14.62861,"population":1563},{"id":3192019,"name":"Rakičan","timezone":{"dstOffset":2,"gmtOffset":1,"timeZoneId":"Europe/Ljubljana"},"lat":46.65167,"lng":16.20417,"population":1560},{"id":3191578,"name":"Rogatec","timezone":{"dstOffset":2,"gmtOffset":1,"timeZoneId":"Europe/Ljubljana"},"lat":46.22944,"lng":15.70028,"population":1558},{"id":3192502,"name":"Preserje pri Radomljah","timezone":{"dstOffset":2,"gmtOffset":1,"timeZoneId":"Europe/Ljubljana"},"lat":46.16911,"lng":14.59698,"population":1531},{"id":3193521,"name":"Pekre","timezone":{"dstOffset":2,"gmtOffset":1,"timeZoneId":"Europe/Ljubljana"},"lat":46.54722,"lng":15.59556,"population":1517},{"id":3188606,"name":"Turnišče","timezone":{"dstOffset":2,"gmtOffset":1,"timeZoneId":"Europe/Ljubljana"},"lat":46.62778,"lng":16.32028,"population":1509},{"id":3190247,"name":"Spodnja Idrija","timezone":{"dstOffset":2,"gmtOffset":1,"timeZoneId":"Europe/Ljubljana"},"lat":46.03194,"lng":14.02722,"population":1501},{"id":3190512,"name":"Šmarje-Sap","timezone":{"dstOffset":2,"gmtOffset":1,"timeZoneId":"Europe/Ljubljana"},"lat":45.97618,"lng":14.61177,"population":1492},{"id":3201750,"name":"Dol pri Hrastniku","timezone":{"dstOffset":2,"gmtOffset":1,"timeZoneId":"Europe/Ljubljana"},"lat":46.14194,"lng":15.11278,"population":1491},{"id":3204598,"name":"Bakovci","timezone":{"dstOffset":2,"gmtOffset":1,"timeZoneId":"Europe/Ljubljana"},"lat":46.61889,"lng":16.15028,"population":1491},{"id":3186520,"name":"Zgornje Bitnje","timezone":{"dstOffset":2,"gmtOffset":1,"timeZoneId":"Europe/Ljubljana"},"lat":46.22,"lng":14.33667,"population":1480},{"id":3195054,"name":"Miren","timezone":{"dstOffset":2,"gmtOffset":1,"timeZoneId":"Europe/Ljubljana"},"lat":45.89556,"lng":13.6075,"population":1460},{"id":3201294,"name":"Dragomer","timezone":{"dstOffset":2,"gmtOffset":1,"timeZoneId":"Europe/Ljubljana"},"lat":46.01667,"lng":14.38333,"population":1446},{"id":3190495,"name":"Šmartno pri Litiji","timezone":{"dstOffset":2,"gmtOffset":1,"timeZoneId":"Europe/Ljubljana"},"lat":46.04444,"lng":14.84417,"population":1444},{"id":3190516,"name":"Šmarca","timezone":{"dstOffset":2,"gmtOffset":1,"timeZoneId":"Europe/Ljubljana"},"lat":46.19333,"lng":14.59667,"population":1441},{"id":3197373,"name":"Kranjska Gora","timezone":{"dstOffset":2,"gmtOffset":1,"timeZoneId":"Europe/Ljubljana"},"lat":46.45689,"lng":13.77824,"population":1439},{"id":3190199,"name":"Spodnji Duplek","timezone":{"dstOffset":2,"gmtOffset":1,"timeZoneId":"Europe/Ljubljana"},"lat":46.50306,"lng":15.74528,"population":1429},{"id":3191033,"name":"Šentjernej","timezone":{"dstOffset":2,"gmtOffset":1,"timeZoneId":"Europe/Ljubljana"},"lat":45.84,"lng":15.33611,"population":1423},{"id":3343529,"name":"Spodnje Škofije","timezone":{"dstOffset":2,"gmtOffset":1,"timeZoneId":"Europe/Ljubljana"},"lat":45.57167,"lng":13.7925,"population":1402},{"id":3195041,"name":"Mirna","timezone":{"dstOffset":2,"gmtOffset":1,"timeZoneId":"Europe/Ljubljana"},"lat":45.95528,"lng":15.06194,"population":1398},{"id":3191563,"name":"Rogoza","timezone":{"dstOffset":2,"gmtOffset":1,"timeZoneId":"Europe/Ljubljana"},"lat":46.5,"lng":15.68333,"population":1390},{"id":3203443,"name":"Bresternica","timezone":{"dstOffset":2,"gmtOffset":1,"timeZoneId":"Europe/Ljubljana"},"lat":46.56972,"lng":15.575,"population":1377},{"id":8989727,"name":"Bistrica ob Dravi","timezone":{"dstOffset":2,"gmtOffset":1,"timeZoneId":"Europe/Ljubljana"},"lat":46.55419,"lng":15.54855,"population":1368},{"id":3202019,"name":"Divača","timezone":{"dstOffset":2,"gmtOffset":1,"timeZoneId":"Europe/Ljubljana"},"lat":45.68472,"lng":13.97028,"population":1357},{"id":3191774,"name":"Razvanje","timezone":{"dstOffset":2,"gmtOffset":1,"timeZoneId":"Europe/Ljubljana"},"lat":46.51444,"lng":15.63611,"population":1357},{"id":3194086,"name":"Oplotnica","timezone":{"dstOffset":2,"gmtOffset":1,"timeZoneId":"Europe/Ljubljana"},"lat":46.38778,"lng":15.44667,"population":1352},{"id":3199333,"name":"Hotinja Vas","timezone":{"dstOffset":2,"gmtOffset":1,"timeZoneId":"Europe/Ljubljana"},"lat":46.46667,"lng":15.66667,"population":1344},{"id":3193659,"name":"Pameče","timezone":{"dstOffset":2,"gmtOffset":1,"timeZoneId":"Europe/Ljubljana"},"lat":46.53417,"lng":15.07917,"population":1333},{"id":3199347,"name":"Horjul","timezone":{"dstOffset":2,"gmtOffset":1,"timeZoneId":"Europe/Ljubljana"},"lat":46.02361,"lng":14.29917,"population":1329},{"id":3339128,"name":"Selnica ob Dravi","timezone":{"dstOffset":2,"gmtOffset":1,"timeZoneId":"Europe/Ljubljana"},"lat":46.55,"lng":15.495,"population":1297},{"id":3188971,"name":"Topolšica","timezone":{"dstOffset":2,"gmtOffset":1,"timeZoneId":"Europe/Ljubljana"},"lat":46.40028,"lng":15.02157,"population":1294},{"id":3202070,"name":"Deskle","timezone":{"dstOffset":2,"gmtOffset":1,"timeZoneId":"Europe/Ljubljana"},"lat":46.05307,"lng":13.61382,"population":1279},{"id":3202700,"name":"Černelavci","timezone":{"dstOffset":2,"gmtOffset":1,"timeZoneId":"Europe/Ljubljana"},"lat":46.66667,"lng":16.13333,"population":1272},{"id":3198354,"name":"Kanal","timezone":{"dstOffset":2,"gmtOffset":1,"timeZoneId":"Europe/Ljubljana"},"lat":46.08861,"lng":13.63972,"population":1269},{"id":3192262,"name":"Prvačina","timezone":{"dstOffset":2,"gmtOffset":1,"timeZoneId":"Europe/Ljubljana"},"lat":45.89,"lng":13.71806,"population":1268},{"id":3201355,"name":"Dornava","timezone":{"dstOffset":2,"gmtOffset":1,"timeZoneId":"Europe/Ljubljana"},"lat":46.43667,"lng":15.95361,"population":1267},{"id":3186506,"name":"Zgornje Pirniče","timezone":{"dstOffset":2,"gmtOffset":1,"timeZoneId":"Europe/Ljubljana"},"lat":46.14251,"lng":14.43158,"population":1267},{"id":3198165,"name":"Kidričevo","timezone":{"dstOffset":2,"gmtOffset":1,"timeZoneId":"Europe/Ljubljana"},"lat":46.40361,"lng":15.79111,"population":1253},{"id":3190494,"name":"Šmartno pri Slovenj Gradcu","timezone":{"dstOffset":2,"gmtOffset":1,"timeZoneId":"Europe/Ljubljana"},"lat":46.48944,"lng":15.10667,"population":1250},{"id":3188775,"name":"Trnovlje pri Celju","timezone":{"dstOffset":2,"gmtOffset":1,"timeZoneId":"Europe/Ljubljana"},"lat":46.25667,"lng":15.29528,"population":1234},{"id":3194825,"name":"Moste","timezone":{"dstOffset":2,"gmtOffset":1,"timeZoneId":"Europe/Ljubljana"},"lat":46.195,"lng":14.55139,"population":1234},{"id":3199232,"name":"Hrvatini","timezone":{"dstOffset":2,"gmtOffset":1,"timeZoneId":"Europe/Ljubljana"},"lat":45.58278,"lng":13.75667,"population":1232},{"id":3343527,"name":"Pobegi","timezone":{"dstOffset":2,"gmtOffset":1,"timeZoneId":"Europe/Ljubljana"},"lat":45.53944,"lng":13.79611,"population":1228},{"id":3199856,"name":"Gotovlje","timezone":{"dstOffset":2,"gmtOffset":1,"timeZoneId":"Europe/Ljubljana"},"lat":46.27418,"lng":15.15186,"population":1216},{"id":8986862,"name":"Seča","timezone":{"dstOffset":2,"gmtOffset":1,"timeZoneId":"Europe/Ljubljana"},"lat":45.49584,"lng":13.61466,"population":1210},{"id":3186533,"name":"Zgornja Polskava","timezone":{"dstOffset":2,"gmtOffset":1,"timeZoneId":"Europe/Ljubljana"},"lat":46.42556,"lng":15.61222,"population":1208},{"id":3200379,"name":"Gorenja Vas","timezone":{"dstOffset":2,"gmtOffset":1,"timeZoneId":"Europe/Ljubljana"},"lat":46.10722,"lng":14.14806,"population":1192},{"id":3204144,"name":"Bilje","timezone":{"dstOffset":2,"gmtOffset":1,"timeZoneId":"Europe/Ljubljana"},"lat":45.89444,"lng":13.63222,"population":1191},{"id":3199020,"name":"Izlake","timezone":{"dstOffset":2,"gmtOffset":1,"timeZoneId":"Europe/Ljubljana"},"lat":46.15,"lng":14.95,"population":1181},{"id":3202524,"name":"Črenšovci","timezone":{"dstOffset":2,"gmtOffset":1,"timeZoneId":"Europe/Ljubljana"},"lat":46.55794,"lng":16.3041,"population":1178},{"id":3194922,"name":"Mojstrana","timezone":{"dstOffset":2,"gmtOffset":1,"timeZoneId":"Europe/Ljubljana"},"lat":46.42383,"lng":13.8752,"population":1175},{"id":3192802,"name":"Poljčane","timezone":{"dstOffset":2,"gmtOffset":1,"timeZoneId":"Europe/Ljubljana"},"lat":46.31194,"lng":15.57917,"population":1153},{"id":3192603,"name":"Pragersko","timezone":{"dstOffset":2,"gmtOffset":1,"timeZoneId":"Europe/Ljubljana"},"lat":46.39667,"lng":15.66,"population":1150},{"id":3191064,"name":"Šempas","timezone":{"dstOffset":2,"gmtOffset":1,"timeZoneId":"Europe/Ljubljana"},"lat":45.93028,"lng":13.74361,"population":1146},{"id":3197164,"name":"Krog","timezone":{"dstOffset":2,"gmtOffset":1,"timeZoneId":"Europe/Ljubljana"},"lat":46.63806,"lng":16.14139,"population":1132},{"id":8986863,"name":"Prade","timezone":{"dstOffset":2,"gmtOffset":1,"timeZoneId":"Europe/Ljubljana"},"lat":45.54003,"lng":13.77607,"population":1129},{"id":3190150,"name":"Središče ob Dravi","timezone":{"dstOffset":2,"gmtOffset":1,"timeZoneId":"Europe/Ljubljana"},"lat":46.39417,"lng":16.26806,"population":1124},{"id":3197983,"name":"Kobarid","timezone":{"dstOffset":2,"gmtOffset":1,"timeZoneId":"Europe/Ljubljana"},"lat":46.24806,"lng":13.57722,"population":1121},{"id":3343551,"name":"Rožna Dolina","timezone":{"dstOffset":2,"gmtOffset":1,"timeZoneId":"Europe/Ljubljana"},"lat":45.94194,"lng":13.66779,"population":1118},{"id":3196338,"name":"Ljubno ob Savinji","timezone":{"dstOffset":2,"gmtOffset":1,"timeZoneId":"Europe/Ljubljana"},"lat":46.34358,"lng":14.83377,"population":1104},{"id":3196496,"name":"Lipovci","timezone":{"dstOffset":2,"gmtOffset":1,"timeZoneId":"Europe/Ljubljana"},"lat":46.62833,"lng":16.22806,"population":1097},{"id":3191844,"name":"Ravne","timezone":{"dstOffset":2,"gmtOffset":1,"timeZoneId":"Europe/Ljubljana"},"lat":46.41413,"lng":15.06087,"population":1092},{"id":3191094,"name":"Selnica ob Muri","timezone":{"dstOffset":2,"gmtOffset":1,"timeZoneId":"Europe/Ljubljana"},"lat":46.68333,"lng":15.7,"population":1078},{"id":3196377,"name":"Ljubečna","timezone":{"dstOffset":2,"gmtOffset":1,"timeZoneId":"Europe/Ljubljana"},"lat":46.25567,"lng":15.3243,"population":1071},{"id":3196268,"name":"Lokavec","timezone":{"dstOffset":2,"gmtOffset":1,"timeZoneId":"Europe/Ljubljana"},"lat":45.90167,"lng":13.87972,"population":1069},{"id":3189357,"name":"Sv. Duh","timezone":{"dstOffset":2,"gmtOffset":1,"timeZoneId":"Europe/Ljubljana"},"lat":46.18333,"lng":14.33333,"population":1066},{"id":3200450,"name":"Golnik","timezone":{"dstOffset":2,"gmtOffset":1,"timeZoneId":"Europe/Ljubljana"},"lat":46.33333,"lng":14.33333,"population":1063},{"id":3186270,"name":"Žužemberk","timezone":{"dstOffset":2,"gmtOffset":1,"timeZoneId":"Europe/Ljubljana"},"lat":45.83389,"lng":14.92917,"population":1053},{"id":3199303,"name":"Hrastje","timezone":{"dstOffset":2,"gmtOffset":1,"timeZoneId":"Europe/Ljubljana"},"lat":46.21667,"lng":14.4,"population":1051},{"id":3200016,"name":"Gornji Grad","timezone":{"dstOffset":2,"gmtOffset":1,"timeZoneId":"Europe/Ljubljana"},"lat":46.29528,"lng":14.80833,"population":1048},{"id":3194864,"name":"Morje","timezone":{"dstOffset":2,"gmtOffset":1,"timeZoneId":"Europe/Ljubljana"},"lat":46.44444,"lng":15.62139,"population":1032},{"id":8986864,"name":"Zasip","timezone":{"dstOffset":2,"gmtOffset":1,"timeZoneId":"Europe/Ljubljana"},"lat":46.39284,"lng":14.10869,"population":1032},{"id":3200721,"name":"Gančani","timezone":{"dstOffset":2,"gmtOffset":1,"timeZoneId":"Europe/Ljubljana"},"lat":46.6325,"lng":16.25111,"population":1027},{"id":3339118,"name":"Legen","timezone":{"dstOffset":2,"gmtOffset":1,"timeZoneId":"Europe/Ljubljana"},"lat":46.50651,"lng":15.14424,"population":1026},{"id":3197539,"name":"Kotlje","timezone":{"dstOffset":2,"gmtOffset":1,"timeZoneId":"Europe/Ljubljana"},"lat":46.52139,"lng":14.98694,"population":1026},{"id":3200819,"name":"Fram","timezone":{"dstOffset":2,"gmtOffset":1,"timeZoneId":"Europe/Ljubljana"},"lat":46.456,"lng":15.63007,"population":1024},{"id":3196642,"name":"Leskovec pri Krškem","timezone":{"dstOffset":2,"gmtOffset":1,"timeZoneId":"Europe/Ljubljana"},"lat":45.93566,"lng":15.47184,"population":1021},{"id":3186959,"name":"Zabukovica","timezone":{"dstOffset":2,"gmtOffset":1,"timeZoneId":"Europe/Ljubljana"},"lat":46.21408,"lng":15.15954,"population":1009},{"id":3191019,"name":"Šentvid pri Stični","timezone":{"dstOffset":2,"gmtOffset":1,"timeZoneId":"Europe/Ljubljana"},"lat":45.95004,"lng":14.84344,"population":1002},{"id":3195036,"name":"Mirna Peč","timezone":{"dstOffset":2,"gmtOffset":1,"timeZoneId":"Europe/Ljubljana"},"lat":45.86028,"lng":15.08333,"population":990},{"id":3201897,"name":"Dobrovnik","timezone":{"dstOffset":2,"gmtOffset":1,"timeZoneId":"Europe/Ljubljana"},"lat":46.65139,"lng":16.3525,"population":972},{"id":3204296,"name":"Benedikt","timezone":{"dstOffset":2,"gmtOffset":1,"timeZoneId":"Europe/Ljubljana"},"lat":46.60861,"lng":15.88833,"population":955},{"id":3201901,"name":"Dobrova","timezone":{"dstOffset":2,"gmtOffset":1,"timeZoneId":"Europe/Ljubljana"},"lat":46.0458,"lng":14.39186,"population":943},{"id":3188181,"name":"Velika Polana","timezone":{"dstOffset":2,"gmtOffset":1,"timeZoneId":"Europe/Ljubljana"},"lat":46.57194,"lng":16.34694,"population":929},{"id":3193463,"name":"Pesnica pri Mariboru","timezone":{"dstOffset":2,"gmtOffset":1,"timeZoneId":"Europe/Ljubljana"},"lat":46.60694,"lng":15.67667,"population":913},{"id":3187840,"name":"Veržej","timezone":{"dstOffset":2,"gmtOffset":1,"timeZoneId":"Europe/Ljubljana"},"lat":46.58361,"lng":16.16528,"population":903},{"id":3194873,"name":"Moravče","timezone":{"dstOffset":2,"gmtOffset":1,"timeZoneId":"Europe/Ljubljana"},"lat":46.13694,"lng":14.745,"population":903},{"id":6956393,"name":"Komenda","timezone":{"dstOffset":2,"gmtOffset":1,"timeZoneId":"Europe/Ljubljana"},"lat":46.20484,"lng":14.53839,"population":881},{"id":8358612,"name":"Nazarje","timezone":{"dstOffset":2,"gmtOffset":1,"timeZoneId":"Europe/Ljubljana"},"lat":46.31757,"lng":14.94674,"population":872},{"id":3187598,"name":"Vitanje","timezone":{"dstOffset":2,"gmtOffset":1,"timeZoneId":"Europe/Ljubljana"},"lat":46.38167,"lng":15.29583,"population":865},{"id":3192560,"name":"Preddvor","timezone":{"dstOffset":2,"gmtOffset":1,"timeZoneId":"Europe/Ljubljana"},"lat":46.3025,"lng":14.42306,"population":837},{"id":3190391,"name":"Sodražica","timezone":{"dstOffset":2,"gmtOffset":1,"timeZoneId":"Europe/Ljubljana"},"lat":45.76111,"lng":14.63556,"population":832},{"id":3189917,"name":"Starše","timezone":{"dstOffset":2,"gmtOffset":1,"timeZoneId":"Europe/Ljubljana"},"lat":46.46583,"lng":15.76722,"population":803},{"id":3201817,"name":"Dolenjske Toplice","timezone":{"dstOffset":2,"gmtOffset":1,"timeZoneId":"Europe/Ljubljana"},"lat":45.75657,"lng":15.05917,"population":797},{"id":3200307,"name":"Gorišnica","timezone":{"dstOffset":2,"gmtOffset":1,"timeZoneId":"Europe/Ljubljana"},"lat":46.41472,"lng":16.01389,"population":788},{"id":3187336,"name":"Vransko","timezone":{"dstOffset":2,"gmtOffset":1,"timeZoneId":"Europe/Ljubljana"},"lat":46.24389,"lng":14.95139,"population":778},{"id":3187428,"name":"Volčja Draga","timezone":{"dstOffset":2,"gmtOffset":1,"timeZoneId":"Europe/Ljubljana"},"lat":45.90694,"lng":13.6775,"population":743},{"id":3194871,"name":"Moravske Toplice","timezone":{"dstOffset":2,"gmtOffset":1,"timeZoneId":"Europe/Ljubljana"},"lat":46.68313,"lng":16.2208,"population":735},{"id":3199685,"name":"Sv. Trojica v Slov. Goricah","timezone":{"dstOffset":2,"gmtOffset":1,"timeZoneId":"Europe/Ljubljana"},"lat":46.57667,"lng":15.87694,"population":730},{"id":3188128,"name":"Velike Lašče","timezone":{"dstOffset":2,"gmtOffset":1,"timeZoneId":"Europe/Ljubljana"},"lat":45.83222,"lng":14.63639,"population":729},{"id":3197581,"name":"Kostanjevica na Krki","timezone":{"dstOffset":2,"gmtOffset":1,"timeZoneId":"Europe/Ljubljana"},"lat":45.84611,"lng":15.42222,"population":695},{"id":3199765,"name":"Grad","timezone":{"dstOffset":2,"gmtOffset":1,"timeZoneId":"Europe/Ljubljana"},"lat":46.8,"lng":16.1,"population":686},{"id":3197442,"name":"Kozje","timezone":{"dstOffset":2,"gmtOffset":1,"timeZoneId":"Europe/Ljubljana"},"lat":46.075,"lng":15.56028,"population":669},{"id":3197842,"name":"Komen","timezone":{"dstOffset":2,"gmtOffset":1,"timeZoneId":"Europe/Ljubljana"},"lat":45.81528,"lng":13.74833,"population":650},{"id":3190498,"name":"Šmartno ob Paki","timezone":{"dstOffset":2,"gmtOffset":1,"timeZoneId":"Europe/Ljubljana"},"lat":46.33333,"lng":15.03333,"population":642},{"id":3192230,"name":"Puconci","timezone":{"dstOffset":2,"gmtOffset":1,"timeZoneId":"Europe/Ljubljana"},"lat":46.70667,"lng":16.15639,"population":638},{"id":3194904,"name":"Mokronog","timezone":{"dstOffset":2,"gmtOffset":1,"timeZoneId":"Europe/Ljubljana"},"lat":45.93417,"lng":15.14083,"population":637},{"id":3195898,"name":"Majšperk","timezone":{"dstOffset":2,"gmtOffset":1,"timeZoneId":"Europe/Ljubljana"},"lat":46.35167,"lng":15.73361,"population":637},{"id":3197959,"name":"Kobilje","timezone":{"dstOffset":2,"gmtOffset":1,"timeZoneId":"Europe/Ljubljana"},"lat":46.68472,"lng":16.39778,"population":618},{"id":3186442,"name":"Žirovnica","timezone":{"dstOffset":2,"gmtOffset":1,"timeZoneId":"Europe/Ljubljana"},"lat":46.40472,"lng":14.14,"population":601},{"id":3187813,"name":"Videm","timezone":{"dstOffset":2,"gmtOffset":1,"timeZoneId":"Europe/Ljubljana"},"lat":45.85,"lng":14.69417,"population":577},{"id":3186509,"name":"Zgornje Jezersko","timezone":{"dstOffset":2,"gmtOffset":1,"timeZoneId":"Europe/Ljubljana"},"lat":46.3941,"lng":14.50659,"population":568},{"id":3201927,"name":"Dobrna","timezone":{"dstOffset":2,"gmtOffset":1,"timeZoneId":"Europe/Ljubljana"},"lat":46.3375,"lng":15.22639,"population":548},{"id":3197462,"name":"Kozina","timezone":{"dstOffset":2,"gmtOffset":1,"timeZoneId":"Europe/Ljubljana"},"lat":45.61,"lng":13.93556,"population":544},{"id":3218745,"name":"Leskova Dolina","timezone":{"dstOffset":2,"gmtOffset":1,"timeZoneId":"Europe/Ljubljana"},"lat":45.62139,"lng":14.46056,"population":539},{"id":3186538,"name":"Zgornja Kungota","timezone":{"dstOffset":2,"gmtOffset":1,"timeZoneId":"Europe/Ljubljana"},"lat":46.63917,"lng":15.61556,"population":535},{"id":3193075,"name":"Podčetrtek","timezone":{"dstOffset":2,"gmtOffset":1,"timeZoneId":"Europe/Ljubljana"},"lat":46.15694,"lng":15.59861,"population":528},{"id":3204796,"name":"Apače","timezone":{"dstOffset":2,"gmtOffset":1,"timeZoneId":"Europe/Ljubljana"},"lat":46.69722,"lng":15.91056,"population":528},{"id":3186514,"name":"Zgornje Gorje","timezone":{"dstOffset":2,"gmtOffset":1,"timeZoneId":"Europe/Ljubljana"},"lat":46.37962,"lng":14.06937,"population":500},{"id":3197226,"name":"Križevci pri Ljutomeru","timezone":{"dstOffset":2,"gmtOffset":1,"timeZoneId":"Europe/Ljubljana"},"lat":46.56833,"lng":16.13861,"population":490},{"id":3191756,"name":"Rečica ob Savinji","timezone":{"dstOffset":2,"gmtOffset":1,"timeZoneId":"Europe/Ljubljana"},"lat":46.31667,"lng":14.91667,"population":489},{"id":3339111,"name":"Videm pri Ptuju","timezone":{"dstOffset":2,"gmtOffset":1,"timeZoneId":"Europe/Ljubljana"},"lat":46.36861,"lng":15.90639,"population":471},{"id":3195460,"name":"Markovci","timezone":{"dstOffset":2,"gmtOffset":1,"timeZoneId":"Europe/Ljubljana"},"lat":46.39557,"lng":15.92831,"population":462},{"id":3202877,"name":"Cankova","timezone":{"dstOffset":2,"gmtOffset":1,"timeZoneId":"Europe/Ljubljana"},"lat":46.72083,"lng":16.0225,"population":446},{"id":3191678,"name":"Ribnica na Pohorju","timezone":{"dstOffset":2,"gmtOffset":1,"timeZoneId":"Europe/Ljubljana"},"lat":46.535,"lng":15.27278,"population":443},{"id":3191329,"name":"Šalovci","timezone":{"dstOffset":2,"gmtOffset":1,"timeZoneId":"Europe/Ljubljana"},"lat":46.825,"lng":16.29806,"population":426},{"id":3199948,"name":"Gornji Petrovci","timezone":{"dstOffset":2,"gmtOffset":1,"timeZoneId":"Europe/Ljubljana"},"lat":46.80528,"lng":16.2225,"population":419},{"id":3196049,"name":"Lukovica","timezone":{"dstOffset":2,"gmtOffset":1,"timeZoneId":"Europe/Ljubljana"},"lat":46.16988,"lng":14.69179,"population":419},{"id":3196133,"name":"Luče","timezone":{"dstOffset":2,"gmtOffset":1,"timeZoneId":"Europe/Ljubljana"},"lat":46.35611,"lng":14.74667,"population":413},{"id":3189227,"name":"Tabor","timezone":{"dstOffset":2,"gmtOffset":1,"timeZoneId":"Europe/Ljubljana"},"lat":46.23611,"lng":15.01833,"population":406},{"id":3189098,"name":"Tišina","timezone":{"dstOffset":2,"gmtOffset":1,"timeZoneId":"Europe/Ljubljana"},"lat":46.65806,"lng":16.09167,"population":404},{"id":3186557,"name":"Žetale","timezone":{"dstOffset":2,"gmtOffset":1,"timeZoneId":"Europe/Ljubljana"},"lat":46.27356,"lng":15.82658,"population":392},{"id":3192986,"name":"Podlehnik","timezone":{"dstOffset":2,"gmtOffset":1,"timeZoneId":"Europe/Ljubljana"},"lat":46.33528,"lng":15.88,"population":388},{"id":3198533,"name":"Jurovski Dol","timezone":{"dstOffset":2,"gmtOffset":1,"timeZoneId":"Europe/Ljubljana"},"lat":46.60639,"lng":15.78472,"population":385},{"id":3203550,"name":"Braslovče","timezone":{"dstOffset":2,"gmtOffset":1,"timeZoneId":"Europe/Ljubljana"},"lat":46.28972,"lng":15.03889,"population":383},{"id":3196842,"name":"Kuzma","timezone":{"dstOffset":2,"gmtOffset":1,"timeZoneId":"Europe/Ljubljana"},"lat":46.83694,"lng":16.08333,"population":375},{"id":3199268,"name":"Hrib-Loški Potok","timezone":{"dstOffset":2,"gmtOffset":1,"timeZoneId":"Europe/Ljubljana"},"lat":45.70688,"lng":14.61674,"population":373},{"id":3201896,"name":"Dobrovo","timezone":{"dstOffset":2,"gmtOffset":1,"timeZoneId":"Europe/Ljubljana"},"lat":45.99639,"lng":13.52639,"population":368},{"id":3188767,"name":"Trnovska Vas","timezone":{"dstOffset":2,"gmtOffset":1,"timeZoneId":"Europe/Ljubljana"},"lat":46.52019,"lng":15.88657,"population":367},{"id":3192899,"name":"Podvelka","timezone":{"dstOffset":2,"gmtOffset":1,"timeZoneId":"Europe/Ljubljana"},"lat":46.58694,"lng":15.33056,"population":343},{"id":3187575,"name":"Vitomarci","timezone":{"dstOffset":2,"gmtOffset":1,"timeZoneId":"Europe/Ljubljana"},"lat":46.5275,"lng":15.93944,"population":329},{"id":3191024,"name":"Šentrupert","timezone":{"dstOffset":2,"gmtOffset":1,"timeZoneId":"Europe/Ljubljana"},"lat":45.97778,"lng":15.09556,"population":329},{"id":3198531,"name":"Juršinci","timezone":{"dstOffset":2,"gmtOffset":1,"timeZoneId":"Europe/Ljubljana"},"lat":46.48472,"lng":15.97139,"population":314},{"id":3194403,"name":"Nova Vas","timezone":{"dstOffset":2,"gmtOffset":1,"timeZoneId":"Europe/Ljubljana"},"lat":45.77167,"lng":14.50583,"population":299},{"id":3189014,"name":"Sveti Tomaž","timezone":{"dstOffset":2,"gmtOffset":1,"timeZoneId":"Europe/Ljubljana"},"lat":46.48417,"lng":16.08361,"population":284},{"id":3204044,"name":"Bistrica ob Sotli","timezone":{"dstOffset":2,"gmtOffset":1,"timeZoneId":"Europe/Ljubljana"},"lat":46.05889,"lng":15.66417,"population":272},{"id":3190249,"name":"Hajdina","timezone":{"dstOffset":2,"gmtOffset":1,"timeZoneId":"Europe/Ljubljana"},"lat":46.40889,"lng":15.84694,"population":257},{"id":3191579,"name":"Rogašovci","timezone":{"dstOffset":2,"gmtOffset":1,"timeZoneId":"Europe/Ljubljana"},"lat":46.8,"lng":16.03333,"population":254},{"id":3215453,"name":"Razkrižje","timezone":{"dstOffset":2,"gmtOffset":1,"timeZoneId":"Europe/Ljubljana"},"lat":46.52167,"lng":16.28111,"population":252},{"id":3195883,"name":"Makole","timezone":{"dstOffset":2,"gmtOffset":1,"timeZoneId":"Europe/Ljubljana"},"lat":46.31722,"lng":15.66722,"population":250},{"id":3190722,"name":"Škocjan","timezone":{"dstOffset":2,"gmtOffset":1,"timeZoneId":"Europe/Ljubljana"},"lat":45.90667,"lng":15.29139,"population":246},{"id":3201748,"name":"Dol pri Ljubljani","timezone":{"dstOffset":2,"gmtOffset":1,"timeZoneId":"Europe/Ljubljana"},"lat":46.08861,"lng":14.60083,"population":241},{"id":3199361,"name":"Hodoš","timezone":{"dstOffset":2,"gmtOffset":1,"timeZoneId":"Europe/Ljubljana"},"lat":46.82333,"lng":16.33417,"population":228},{"id":3190360,"name":"Solčava","timezone":{"dstOffset":2,"gmtOffset":1,"timeZoneId":"Europe/Ljubljana"},"lat":46.41944,"lng":14.69361,"population":214},{"id":3198549,"name":"Sveti Jurij ob Ščavnici","timezone":{"dstOffset":2,"gmtOffset":1,"timeZoneId":"Europe/Ljubljana"},"lat":46.5695,"lng":16.02347,"population":204},{"id":3202058,"name":"Destrnik","timezone":{"dstOffset":2,"gmtOffset":1,"timeZoneId":"Europe/Ljubljana"},"lat":46.49254,"lng":15.87893,"population":172},{"id":3189403,"name":"Sv. Ana v Slov. Goricah","timezone":{"dstOffset":2,"gmtOffset":1,"timeZoneId":"Europe/Ljubljana"},"lat":46.64917,"lng":15.84417,"population":155},{"id":3202704,"name":"Cerkvenjak","timezone":{"dstOffset":2,"gmtOffset":1,"timeZoneId":"Europe/Ljubljana"},"lat":46.57056,"lng":15.94361,"population":135},{"id":3201988,"name":"Dobje pri Planini","timezone":{"dstOffset":2,"gmtOffset":1,"timeZoneId":"Europe/Ljubljana"},"lat":46.13747,"lng":15.39412,"population":116},{"id":3193930,"name":"Osilnica","timezone":{"dstOffset":2,"gmtOffset":1,"timeZoneId":"Europe/Ljubljana"},"lat":45.52914,"lng":14.69838,"population":87},{"id":3186705,"name":"Zavrč","timezone":{"dstOffset":2,"gmtOffset":1,"timeZoneId":"Europe/Ljubljana"},"lat":46.39167,"lng":16.04972,"population":77},{"id":8358613,"name":"Kostel","timezone":{"dstOffset":2,"gmtOffset":1,"timeZoneId":"Europe/Ljubljana"},"lat":45.50842,"lng":14.91005,"population":12}]