[{"id":3060972,"name":"Bratislava","timezone":{"dstOffset":2,"gmtOffset":1,"timeZoneId":"Europe/Bratislava"},"lat":48.14816,"lng":17.10674,"population":423737},{"id":724443,"name":"Košice","timezone":{"dstOffset":2,"gmtOffset":1,"timeZoneId":"Europe/Bratislava"},"lat":48.71395,"lng":21.25808,"population":236563},{"id":723819,"name":"Prešov","timezone":{"dstOffset":2,"gmtOffset":1,"timeZoneId":"Europe/Bratislava"},"lat":48.99839,"lng":21.23393,"population":94718},{"id":3058531,"name":"Nitra","timezone":{"dstOffset":2,"gmtOffset":1,"timeZoneId":"Europe/Bratislava"},"lat":48.30763,"lng":18.08453,"population":86329},{"id":3056508,"name":"Žilina","timezone":{"dstOffset":2,"gmtOffset":1,"timeZoneId":"Europe/Bratislava"},"lat":49.22315,"lng":18.73941,"population":85985},{"id":3061186,"name":"Banská Bystrica","timezone":{"dstOffset":2,"gmtOffset":1,"timeZoneId":"Europe/Bratislava"},"lat":48.73946,"lng":19.15349,"population":82336},{"id":3057124,"name":"Trnava","timezone":{"dstOffset":2,"gmtOffset":1,"timeZoneId":"Europe/Bratislava"},"lat":48.3774,"lng":17.58723,"population":69785},{"id":3058780,"name":"Martin","timezone":{"dstOffset":2,"gmtOffset":1,"timeZoneId":"Europe/Bratislava"},"lat":49.06651,"lng":18.92399,"population":60817},{"id":3057140,"name":"Trenčín","timezone":{"dstOffset":2,"gmtOffset":1,"timeZoneId":"Europe/Bratislava"},"lat":48.89452,"lng":18.04436,"population":58278},{"id":723846,"name":"Poprad","timezone":{"dstOffset":2,"gmtOffset":1,"timeZoneId":"Europe/Bratislava"},"lat":49.06144,"lng":20.29798,"population":57431},{"id":3058000,"name":"Prievidza","timezone":{"dstOffset":2,"gmtOffset":1,"timeZoneId":"Europe/Bratislava"},"lat":48.77446,"lng":18.6275,"population":52987},{"id":3056459,"name":"Zvolen","timezone":{"dstOffset":2,"gmtOffset":1,"timeZoneId":"Europe/Bratislava"},"lat":48.57442,"lng":19.15324,"population":44502},{"id":3058060,"name":"Považská Bystrica","timezone":{"dstOffset":2,"gmtOffset":1,"timeZoneId":"Europe/Bratislava"},"lat":49.12153,"lng":18.42169,"population":43936},{"id":3058472,"name":"Nové Zámky","timezone":{"dstOffset":2,"gmtOffset":1,"timeZoneId":"Europe/Bratislava"},"lat":47.98544,"lng":18.16195,"population":42044},{"id":724144,"name":"Michalovce","timezone":{"dstOffset":2,"gmtOffset":1,"timeZoneId":"Europe/Bratislava"},"lat":48.75434,"lng":21.9195,"population":40360},{"id":723526,"name":"Spišská Nová Ves","timezone":{"dstOffset":2,"gmtOffset":1,"timeZoneId":"Europe/Bratislava"},"lat":48.94464,"lng":20.56154,"population":39195},{"id":3059101,"name":"Levice","timezone":{"dstOffset":2,"gmtOffset":1,"timeZoneId":"Europe/Bratislava"},"lat":48.21563,"lng":18.60705,"population":37574},{"id":3059436,"name":"Komárno","timezone":{"dstOffset":2,"gmtOffset":1,"timeZoneId":"Europe/Bratislava"},"lat":47.76356,"lng":18.12263,"population":36279},{"id":724627,"name":"Humenné","timezone":{"dstOffset":2,"gmtOffset":1,"timeZoneId":"Europe/Bratislava"},"lat":48.93707,"lng":21.91625,"population":35367},{"id":725168,"name":"Bardejov","timezone":{"dstOffset":2,"gmtOffset":1,"timeZoneId":"Europe/Bratislava"},"lat":49.29175,"lng":21.27271,"population":34209},{"id":3059050,"name":"Liptovský Mikuláš","timezone":{"dstOffset":2,"gmtOffset":1,"timeZoneId":"Europe/Bratislava"},"lat":49.08061,"lng":19.62218,"population":33509},{"id":3057789,"name":"Ružomberok","timezone":{"dstOffset":2,"gmtOffset":1,"timeZoneId":"Europe/Bratislava"},"lat":49.0748,"lng":19.30751,"population":30806},{"id":3058202,"name":"Piešťany","timezone":{"dstOffset":2,"gmtOffset":1,"timeZoneId":"Europe/Bratislava"},"lat":48.59479,"lng":17.82591,"population":30000},{"id":3058986,"name":"Lučenec","timezone":{"dstOffset":2,"gmtOffset":1,"timeZoneId":"Europe/Bratislava"},"lat":48.33249,"lng":19.66708,"population":28159},{"id":3060835,"name":"Čadca","timezone":{"dstOffset":2,"gmtOffset":1,"timeZoneId":"Europe/Bratislava"},"lat":49.43503,"lng":18.78895,"population":27281},{"id":3060346,"name":"Dubnica nad Váhom","timezone":{"dstOffset":2,"gmtOffset":1,"timeZoneId":"Europe/Bratislava"},"lat":48.95981,"lng":18.16634,"population":26617},{"id":723736,"name":"Rimavská Sobota","timezone":{"dstOffset":2,"gmtOffset":1,"timeZoneId":"Europe/Bratislava"},"lat":48.38284,"lng":20.0224,"population":25235},{"id":3057769,"name":"Šaľa","timezone":{"dstOffset":2,"gmtOffset":1,"timeZoneId":"Europe/Bratislava"},"lat":48.15127,"lng":17.88062,"population":24513},{"id":3058268,"name":"Partizánske","timezone":{"dstOffset":2,"gmtOffset":1,"timeZoneId":"Europe/Bratislava"},"lat":48.62861,"lng":18.38456,"population":24370},{"id":3060095,"name":"Hlohovec","timezone":{"dstOffset":2,"gmtOffset":1,"timeZoneId":"Europe/Bratislava"},"lat":48.43174,"lng":17.8031,"population":23930},{"id":3060308,"name":"Dunajská Streda","timezone":{"dstOffset":2,"gmtOffset":1,"timeZoneId":"Europe/Bratislava"},"lat":47.99268,"lng":17.61211,"population":23639},{"id":723195,"name":"Vranov nad Topľou","timezone":{"dstOffset":2,"gmtOffset":1,"timeZoneId":"Europe/Bratislava"},"lat":48.88836,"lng":21.68479,"population":23246},{"id":3060950,"name":"Brezno","timezone":{"dstOffset":2,"gmtOffset":1,"timeZoneId":"Europe/Bratislava"},"lat":48.80431,"lng":19.63631,"population":23055},{"id":723358,"name":"Trebišov","timezone":{"dstOffset":2,"gmtOffset":1,"timeZoneId":"Europe/Bratislava"},"lat":48.62858,"lng":21.71954,"population":22947},{"id":723559,"name":"Snina","timezone":{"dstOffset":2,"gmtOffset":1,"timeZoneId":"Europe/Bratislava"},"lat":48.98857,"lng":22.15099,"population":22221},{"id":3057691,"name":"Senica","timezone":{"dstOffset":2,"gmtOffset":1,"timeZoneId":"Europe/Bratislava"},"lat":48.67922,"lng":17.36697,"population":21741},{"id":3058477,"name":"Nové Mesto nad Váhom","timezone":{"dstOffset":2,"gmtOffset":1,"timeZoneId":"Europe/Bratislava"},"lat":48.75763,"lng":17.8309,"population":21527},{"id":724503,"name":"Kežmarok","timezone":{"dstOffset":2,"gmtOffset":1,"timeZoneId":"Europe/Bratislava"},"lat":49.1357,"lng":20.43352,"population":21391},{"id":3058210,"name":"Pezinok","timezone":{"dstOffset":2,"gmtOffset":1,"timeZoneId":"Europe/Bratislava"},"lat":48.28986,"lng":17.26664,"population":21343},{"id":3061188,"name":"Bánovce nad Bebravou","timezone":{"dstOffset":2,"gmtOffset":1,"timeZoneId":"Europe/Bratislava"},"lat":48.7213,"lng":18.25754,"population":21328},{"id":3060405,"name":"Dolný Kubín","timezone":{"dstOffset":2,"gmtOffset":1,"timeZoneId":"Europe/Bratislava"},"lat":49.20983,"lng":19.30341,"population":20401},{"id":3056523,"name":"Žiar nad Hronom","timezone":{"dstOffset":2,"gmtOffset":1,"timeZoneId":"Europe/Bratislava"},"lat":48.59184,"lng":18.84958,"population":19392},{"id":723713,"name":"Rožňava","timezone":{"dstOffset":2,"gmtOffset":1,"timeZoneId":"Europe/Bratislava"},"lat":48.66008,"lng":20.53758,"population":19261},{"id":3057963,"name":"Púchov","timezone":{"dstOffset":2,"gmtOffset":1,"timeZoneId":"Europe/Bratislava"},"lat":49.12494,"lng":18.32596,"population":18833},{"id":3060139,"name":"Handlová","timezone":{"dstOffset":2,"gmtOffset":1,"timeZoneId":"Europe/Bratislava"},"lat":48.7276,"lng":18.76012,"population":18018},{"id":3058897,"name":"Malacky","timezone":{"dstOffset":2,"gmtOffset":1,"timeZoneId":"Europe/Bratislava"},"lat":48.43604,"lng":17.02188,"population":17773},{"id":3059179,"name":"Kysucké Nové Mesto","timezone":{"dstOffset":2,"gmtOffset":1,"timeZoneId":"Europe/Bratislava"},"lat":49.3,"lng":18.78333,"population":16558},{"id":3060219,"name":"Galanta","timezone":{"dstOffset":2,"gmtOffset":1,"timeZoneId":"Europe/Bratislava"},"lat":48.19001,"lng":17.72747,"population":16365},{"id":723505,"name":"Stará Ľubovňa","timezone":{"dstOffset":2,"gmtOffset":1,"timeZoneId":"Europe/Bratislava"},"lat":49.29859,"lng":20.6862,"population":16000},{"id":3056495,"name":"Zlaté Moravce","timezone":{"dstOffset":2,"gmtOffset":1,"timeZoneId":"Europe/Bratislava"},"lat":48.38553,"lng":18.40063,"population":15618},{"id":3060589,"name":"Detva","timezone":{"dstOffset":2,"gmtOffset":1,"timeZoneId":"Europe/Bratislava"},"lat":48.56082,"lng":19.41954,"population":15020},{"id":3057630,"name":"Skalica","timezone":{"dstOffset":2,"gmtOffset":1,"timeZoneId":"Europe/Bratislava"},"lat":48.8449,"lng":17.22635,"population":15013},{"id":3057692,"name":"Senec","timezone":{"dstOffset":2,"gmtOffset":1,"timeZoneId":"Europe/Bratislava"},"lat":48.21951,"lng":17.40043,"population":14673},{"id":724294,"name":"Levoča","timezone":{"dstOffset":2,"gmtOffset":1,"timeZoneId":"Europe/Bratislava"},"lat":49.02173,"lng":20.59212,"population":14511},{"id":723747,"name":"Revúca","timezone":{"dstOffset":2,"gmtOffset":1,"timeZoneId":"Europe/Bratislava"},"lat":48.68346,"lng":20.11734,"population":13466},{"id":3058611,"name":"Myjava","timezone":{"dstOffset":2,"gmtOffset":1,"timeZoneId":"Europe/Bratislava"},"lat":48.75876,"lng":17.56866,"population":13142},{"id":3056825,"name":"Veľký Krtíš","timezone":{"dstOffset":2,"gmtOffset":1,"timeZoneId":"Europe/Bratislava"},"lat":48.21058,"lng":19.35043,"population":12608},{"id":723417,"name":"Svidník","timezone":{"dstOffset":2,"gmtOffset":1,"timeZoneId":"Europe/Bratislava"},"lat":49.30819,"lng":21.5703,"population":12428},{"id":3058496,"name":"Nová Dubnica","timezone":{"dstOffset":2,"gmtOffset":1,"timeZoneId":"Europe/Bratislava"},"lat":48.93479,"lng":18.14632,"population":12358},{"id":723674,"name":"Sabinov","timezone":{"dstOffset":2,"gmtOffset":1,"timeZoneId":"Europe/Bratislava"},"lat":49.10308,"lng":21.0988,"population":12290},{"id":3057757,"name":"Šamorín","timezone":{"dstOffset":2,"gmtOffset":1,"timeZoneId":"Europe/Bratislava"},"lat":48.03015,"lng":17.30972,"population":12143},{"id":3057379,"name":"Štúrovo","timezone":{"dstOffset":2,"gmtOffset":1,"timeZoneId":"Europe/Bratislava"},"lat":47.79495,"lng":18.7175,"population":11708},{"id":3060852,"name":"Bytča","timezone":{"dstOffset":2,"gmtOffset":1,"timeZoneId":"Europe/Bratislava"},"lat":49.22404,"lng":18.55878,"population":11550},{"id":3060077,"name":"Holíč","timezone":{"dstOffset":2,"gmtOffset":1,"timeZoneId":"Europe/Bratislava"},"lat":48.81105,"lng":17.16238,"population":11416},{"id":3061184,"name":"Banská Štiavnica","timezone":{"dstOffset":2,"gmtOffset":1,"timeZoneId":"Europe/Bratislava"},"lat":48.44858,"lng":18.91003,"population":10874},{"id":723455,"name":"Stropkov","timezone":{"dstOffset":2,"gmtOffset":1,"timeZoneId":"Europe/Bratislava"},"lat":49.20211,"lng":21.65216,"population":10874},{"id":3059448,"name":"Kolárovo","timezone":{"dstOffset":2,"gmtOffset":1,"timeZoneId":"Europe/Bratislava"},"lat":47.92294,"lng":17.98467,"population":10823},{"id":3057339,"name":"Šurany","timezone":{"dstOffset":2,"gmtOffset":1,"timeZoneId":"Europe/Bratislava"},"lat":48.08613,"lng":18.18447,"population":10491},{"id":3057480,"name":"Stará Turá","timezone":{"dstOffset":2,"gmtOffset":1,"timeZoneId":"Europe/Bratislava"},"lat":48.77721,"lng":17.69433,"population":10291},{"id":3060242,"name":"Fiľakovo","timezone":{"dstOffset":2,"gmtOffset":1,"timeZoneId":"Europe/Bratislava"},"lat":48.26757,"lng":19.82473,"population":10198},{"id":3057063,"name":"Tvrdošín","timezone":{"dstOffset":2,"gmtOffset":1,"timeZoneId":"Europe/Bratislava"},"lat":49.337,"lng":19.556,"population":9544},{"id":724111,"name":"Moldava nad Bodvou","timezone":{"dstOffset":2,"gmtOffset":1,"timeZoneId":"Europe/Bratislava"},"lat":48.61428,"lng":20.99957,"population":9525},{"id":3056711,"name":"Vráble","timezone":{"dstOffset":2,"gmtOffset":1,"timeZoneId":"Europe/Bratislava"},"lat":48.24371,"lng":18.30846,"population":9493},{"id":3056816,"name":"Veľký Meder","timezone":{"dstOffset":2,"gmtOffset":1,"timeZoneId":"Europe/Bratislava"},"lat":47.85798,"lng":17.76884,"population":9113},{"id":724377,"name":"Krompachy","timezone":{"dstOffset":2,"gmtOffset":1,"timeZoneId":"Europe/Bratislava"},"lat":48.91447,"lng":20.87514,"population":8812},{"id":3058663,"name":"Modra","timezone":{"dstOffset":2,"gmtOffset":1,"timeZoneId":"Europe/Bratislava"},"lat":48.33397,"lng":17.30711,"population":8536},{"id":3059870,"name":"Hriňová","timezone":{"dstOffset":2,"gmtOffset":1,"timeZoneId":"Europe/Bratislava"},"lat":48.57787,"lng":19.52574,"population":8289},{"id":3059053,"name":"Liptovský Hrádok","timezone":{"dstOffset":2,"gmtOffset":1,"timeZoneId":"Europe/Bratislava"},"lat":49.03962,"lng":19.72335,"population":8232},{"id":3059821,"name":"Hurbanovo","timezone":{"dstOffset":2,"gmtOffset":1,"timeZoneId":"Europe/Bratislava"},"lat":47.86984,"lng":18.19233,"population":8153},{"id":3058579,"name":"Námestovo","timezone":{"dstOffset":2,"gmtOffset":1,"timeZoneId":"Europe/Bratislava"},"lat":49.4079,"lng":19.48032,"population":8135},{"id":3057384,"name":"Stupava","timezone":{"dstOffset":2,"gmtOffset":1,"timeZoneId":"Europe/Bratislava"},"lat":48.27474,"lng":17.03173,"population":8063},{"id":3057772,"name":"Šahy","timezone":{"dstOffset":2,"gmtOffset":1,"timeZoneId":"Europe/Bratislava"},"lat":48.07408,"lng":18.94946,"population":8061},{"id":724969,"name":"Chlmec","timezone":{"dstOffset":2,"gmtOffset":1,"timeZoneId":"Europe/Bratislava"},"lat":48.88628,"lng":21.9393,"population":8031},{"id":3059244,"name":"Krupina","timezone":{"dstOffset":2,"gmtOffset":1,"timeZoneId":"Europe/Bratislava"},"lat":48.3554,"lng":19.06474,"population":7991},{"id":3057069,"name":"Turzovka","timezone":{"dstOffset":2,"gmtOffset":1,"timeZoneId":"Europe/Bratislava"},"lat":49.40429,"lng":18.62258,"population":7854},{"id":723637,"name":"Sečovce","timezone":{"dstOffset":2,"gmtOffset":1,"timeZoneId":"Europe/Bratislava"},"lat":48.70074,"lng":21.66104,"population":7819},{"id":3056547,"name":"Želiezovce","timezone":{"dstOffset":2,"gmtOffset":1,"timeZoneId":"Europe/Bratislava"},"lat":48.05075,"lng":18.65421,"population":7522},{"id":3058498,"name":"Nová Baňa","timezone":{"dstOffset":2,"gmtOffset":1,"timeZoneId":"Europe/Bratislava"},"lat":48.42305,"lng":18.64037,"population":7505},{"id":3057108,"name":"Trstená","timezone":{"dstOffset":2,"gmtOffset":1,"timeZoneId":"Europe/Bratislava"},"lat":49.36101,"lng":19.61249,"population":7461},{"id":723411,"name":"Svit","timezone":{"dstOffset":2,"gmtOffset":1,"timeZoneId":"Europe/Bratislava"},"lat":49.06014,"lng":20.20695,"population":7445},{"id":3056683,"name":"Vrútky","timezone":{"dstOffset":2,"gmtOffset":1,"timeZoneId":"Europe/Bratislava"},"lat":49.11328,"lng":18.91714,"population":7298},{"id":724156,"name":"Medzilaborce","timezone":{"dstOffset":2,"gmtOffset":1,"timeZoneId":"Europe/Bratislava"},"lat":49.27195,"lng":21.90073,"population":6741},{"id":3056589,"name":"Žarnovica","timezone":{"dstOffset":2,"gmtOffset":1,"timeZoneId":"Europe/Bratislava"},"lat":48.48124,"lng":18.71565,"population":6596},{"id":724800,"name":"Gelnica","timezone":{"dstOffset":2,"gmtOffset":1,"timeZoneId":"Europe/Bratislava"},"lat":48.85584,"lng":20.93712,"population":6404},{"id":3057910,"name":"Rajec","timezone":{"dstOffset":2,"gmtOffset":1,"timeZoneId":"Europe/Bratislava"},"lat":49.08898,"lng":18.64007,"population":6400},{"id":723554,"name":"Sobrance","timezone":{"dstOffset":2,"gmtOffset":1,"timeZoneId":"Europe/Bratislava"},"lat":48.74455,"lng":22.18136,"population":6262},{"id":3056697,"name":"Vrbové","timezone":{"dstOffset":2,"gmtOffset":1,"timeZoneId":"Europe/Bratislava"},"lat":48.61973,"lng":17.7226,"population":6249},{"id":3058546,"name":"Nemšová","timezone":{"dstOffset":2,"gmtOffset":1,"timeZoneId":"Europe/Bratislava"},"lat":48.96702,"lng":18.11892,"population":6136},{"id":723529,"name":"Spišská Belá","timezone":{"dstOffset":2,"gmtOffset":1,"timeZoneId":"Europe/Bratislava"},"lat":49.18725,"lng":20.45948,"population":6136},{"id":724286,"name":"Lipany","timezone":{"dstOffset":2,"gmtOffset":1,"timeZoneId":"Europe/Bratislava"},"lat":49.15376,"lng":20.96382,"population":6130},{"id":3058083,"name":"Poltár","timezone":{"dstOffset":2,"gmtOffset":1,"timeZoneId":"Europe/Bratislava"},"lat":48.43094,"lng":19.79408,"population":6099},{"id":3057602,"name":"Sládkovičovo","timezone":{"dstOffset":2,"gmtOffset":1,"timeZoneId":"Europe/Bratislava"},"lat":48.20137,"lng":17.63852,"population":6078},{"id":3059282,"name":"Kremnica","timezone":{"dstOffset":2,"gmtOffset":1,"timeZoneId":"Europe/Bratislava"},"lat":48.70519,"lng":18.91834,"population":5822},{"id":3060942,"name":"Brezová pod Bradlom","timezone":{"dstOffset":2,"gmtOffset":1,"timeZoneId":"Europe/Bratislava"},"lat":48.6635,"lng":17.53904,"population":5567},{"id":3059796,"name":"Ilava","timezone":{"dstOffset":2,"gmtOffset":1,"timeZoneId":"Europe/Bratislava"},"lat":48.99769,"lng":18.2353,"population":5411},{"id":3060224,"name":"Gabčíkovo","timezone":{"dstOffset":2,"gmtOffset":1,"timeZoneId":"Europe/Bratislava"},"lat":47.89211,"lng":17.57884,"population":5343},{"id":3060665,"name":"Čierny Balog","timezone":{"dstOffset":2,"gmtOffset":1,"timeZoneId":"Europe/Bratislava"},"lat":48.74722,"lng":19.65125,"population":5234},{"id":3060208,"name":"Gbely","timezone":{"dstOffset":2,"gmtOffset":1,"timeZoneId":"Europe/Bratislava"},"lat":48.718,"lng":17.11628,"population":5223},{"id":3061015,"name":"Bojnice","timezone":{"dstOffset":2,"gmtOffset":1,"timeZoneId":"Europe/Bratislava"},"lat":48.78511,"lng":18.5864,"population":5006},{"id":724893,"name":"Dobšiná","timezone":{"dstOffset":2,"gmtOffset":1,"timeZoneId":"Europe/Bratislava"},"lat":48.82073,"lng":20.36988,"population":4896},{"id":723119,"name":"Vysoké Tatry","timezone":{"dstOffset":2,"gmtOffset":1,"timeZoneId":"Europe/Bratislava"},"lat":49.13637,"lng":20.24386,"population":4700},{"id":724941,"name":"Čierna nad Tisou","timezone":{"dstOffset":2,"gmtOffset":1,"timeZoneId":"Europe/Bratislava"},"lat":48.41704,"lng":22.08865,"population":4645},{"id":3057304,"name":"Svätý Jur","timezone":{"dstOffset":2,"gmtOffset":1,"timeZoneId":"Europe/Bratislava"},"lat":48.25216,"lng":17.21539,"population":4614},{"id":8436244,"name":"Dunajská Lužná","timezone":{"dstOffset":2,"gmtOffset":1,"timeZoneId":"Europe/Bratislava"},"lat":48.08347,"lng":17.26072,"population":4482},{"id":723470,"name":"Strážske","timezone":{"dstOffset":2,"gmtOffset":1,"timeZoneId":"Europe/Bratislava"},"lat":48.8735,"lng":21.83668,"population":4474},{"id":3057141,"name":"Trenčianske Teplice","timezone":{"dstOffset":2,"gmtOffset":1,"timeZoneId":"Europe/Bratislava"},"lat":48.91063,"lng":18.16691,"population":4438},{"id":3058493,"name":"Nováky","timezone":{"dstOffset":2,"gmtOffset":1,"timeZoneId":"Europe/Bratislava"},"lat":48.71106,"lng":18.53389,"population":4402},{"id":3057191,"name":"Tlmače","timezone":{"dstOffset":2,"gmtOffset":1,"timeZoneId":"Europe/Bratislava"},"lat":48.28926,"lng":18.53152,"population":4305},{"id":3057197,"name":"Tisovec","timezone":{"dstOffset":2,"gmtOffset":1,"timeZoneId":"Europe/Bratislava"},"lat":48.67738,"lng":19.94364,"population":4215},{"id":724784,"name":"Giraltovce","timezone":{"dstOffset":2,"gmtOffset":1,"timeZoneId":"Europe/Bratislava"},"lat":49.11398,"lng":21.51731,"population":4189},{"id":3057212,"name":"Terchová","timezone":{"dstOffset":2,"gmtOffset":1,"timeZoneId":"Europe/Bratislava"},"lat":49.25895,"lng":19.02935,"population":4073},{"id":724265,"name":"Ľubica","timezone":{"dstOffset":2,"gmtOffset":1,"timeZoneId":"Europe/Bratislava"},"lat":49.11667,"lng":20.45,"population":4000},{"id":3059111,"name":"Leopoldov","timezone":{"dstOffset":2,"gmtOffset":1,"timeZoneId":"Europe/Bratislava"},"lat":48.44575,"lng":17.76458,"population":3999},{"id":723519,"name":"Spišské Podhradie","timezone":{"dstOffset":2,"gmtOffset":1,"timeZoneId":"Europe/Bratislava"},"lat":49.00088,"lng":20.75307,"population":3780},{"id":724159,"name":"Medzev","timezone":{"dstOffset":2,"gmtOffset":1,"timeZoneId":"Europe/Bratislava"},"lat":48.70041,"lng":20.89367,"population":3667},{"id":3060839,"name":"Čachtice","timezone":{"dstOffset":2,"gmtOffset":1,"timeZoneId":"Europe/Bratislava"},"lat":48.71226,"lng":17.78704,"population":3626},{"id":723468,"name":"Strba","timezone":{"dstOffset":2,"gmtOffset":1,"timeZoneId":"Europe/Bratislava"},"lat":49.05913,"lng":20.07975,"population":3600},{"id":6559492,"name":"Oravská Lesná","timezone":{"dstOffset":2,"gmtOffset":1,"timeZoneId":"Europe/Bratislava"},"lat":49.36672,"lng":19.18093,"population":3500},{"id":3057552,"name":"Smolenice","timezone":{"dstOffset":2,"gmtOffset":1,"timeZoneId":"Europe/Bratislava"},"lat":48.50478,"lng":17.43067,"population":3287},{"id":723866,"name":"Podolínec","timezone":{"dstOffset":2,"gmtOffset":1,"timeZoneId":"Europe/Bratislava"},"lat":49.25869,"lng":20.536,"population":3173},{"id":3057273,"name":"Svodín","timezone":{"dstOffset":2,"gmtOffset":1,"timeZoneId":"Europe/Bratislava"},"lat":47.91054,"lng":18.49967,"population":2649},{"id":723224,"name":"Vinne","timezone":{"dstOffset":2,"gmtOffset":1,"timeZoneId":"Europe/Bratislava"},"lat":48.80965,"lng":21.96757,"population":1608},{"id":3059803,"name":"Hybe","timezone":{"dstOffset":2,"gmtOffset":1,"timeZoneId":"Europe/Bratislava"},"lat":49.04439,"lng":19.82895,"population":1548},{"id":724026,"name":"Nová Lesná","timezone":{"dstOffset":2,"gmtOffset":1,"timeZoneId":"Europe/Bratislava"},"lat":49.12253,"lng":20.26737,"population":1520},{"id":3060317,"name":"Dudince","timezone":{"dstOffset":2,"gmtOffset":1,"timeZoneId":"Europe/Bratislava"},"lat":48.17135,"lng":18.88782,"population":1503},{"id":3059865,"name":"Hrochoť,Slovakia","timezone":{"dstOffset":2,"gmtOffset":1,"timeZoneId":"Europe/Bratislava"},"lat":48.65567,"lng":19.31284,"population":1500},{"id":3058012,"name":"Pribylina","timezone":{"dstOffset":2,"gmtOffset":1,"timeZoneId":"Europe/Bratislava"},"lat":49.0995,"lng":19.79427,"population":1360},{"id":723082,"name":"Ždiar","timezone":{"dstOffset":2,"gmtOffset":1,"timeZoneId":"Europe/Bratislava"},"lat":49.271,"lng":20.26239,"population":1330},{"id":723143,"name":"Vysne Ruzbachy","timezone":{"dstOffset":2,"gmtOffset":1,"timeZoneId":"Europe/Bratislava"},"lat":49.30387,"lng":20.56558,"population":1296},{"id":3059292,"name":"Krasňany","timezone":{"dstOffset":2,"gmtOffset":1,"timeZoneId":"Europe/Bratislava"},"lat":49.21491,"lng":18.88718,"population":1231},{"id":3057311,"name":"Svätý Anton","timezone":{"dstOffset":2,"gmtOffset":1,"timeZoneId":"Europe/Bratislava"},"lat":48.41923,"lng":18.9401,"population":1172}]