[{"id":160263,"name":"Dar es Salaam","timezone":{"dstOffset":3,"gmtOffset":3,"timeZoneId":"Africa/Dar_es_Salaam"},"lat":-6.82349,"lng":39.26951,"population":2698652},{"id":152224,"name":"Mwanza","timezone":{"dstOffset":3,"gmtOffset":3,"timeZoneId":"Africa/Dar_es_Salaam"},"lat":-2.51667,"lng":32.9,"population":436801},{"id":148730,"name":"Zanzibar","timezone":{"dstOffset":3,"gmtOffset":3,"timeZoneId":"Africa/Dar_es_Salaam"},"lat":-6.16394,"lng":39.19793,"population":403658},{"id":161325,"name":"Arusha","timezone":{"dstOffset":3,"gmtOffset":3,"timeZoneId":"Africa/Dar_es_Salaam"},"lat":-3.36667,"lng":36.68333,"population":341136},{"id":154380,"name":"Mbeya","timezone":{"dstOffset":3,"gmtOffset":3,"timeZoneId":"Africa/Dar_es_Salaam"},"lat":-8.9,"lng":33.45,"population":291649},{"id":153220,"name":"Morogoro","timezone":{"dstOffset":3,"gmtOffset":3,"timeZoneId":"Africa/Dar_es_Salaam"},"lat":-6.82102,"lng":37.66122,"population":250902},{"id":149606,"name":"Tanga","timezone":{"dstOffset":3,"gmtOffset":3,"timeZoneId":"Africa/Dar_es_Salaam"},"lat":-5.06893,"lng":39.09875,"population":224876},{"id":160196,"name":"Dodoma","timezone":{"dstOffset":3,"gmtOffset":3,"timeZoneId":"Africa/Dar_es_Salaam"},"lat":-6.17221,"lng":35.73947,"population":180541},{"id":157738,"name":"Kigoma","timezone":{"dstOffset":3,"gmtOffset":3,"timeZoneId":"Africa/Dar_es_Salaam"},"lat":-4.87694,"lng":29.62667,"population":164268},{"id":153209,"name":"Moshi","timezone":{"dstOffset":3,"gmtOffset":3,"timeZoneId":"Africa/Dar_es_Salaam"},"lat":-3.35,"lng":37.33333,"population":156959},{"id":149658,"name":"Tabora","timezone":{"dstOffset":3,"gmtOffset":3,"timeZoneId":"Africa/Dar_es_Salaam"},"lat":-5.01622,"lng":32.82663,"population":145292},{"id":877401,"name":"Songea","timezone":{"dstOffset":3,"gmtOffset":3,"timeZoneId":"Africa/Dar_es_Salaam"},"lat":-10.68333,"lng":35.65,"population":126449},{"id":152451,"name":"Musoma","timezone":{"dstOffset":3,"gmtOffset":3,"timeZoneId":"Africa/Dar_es_Salaam"},"lat":-1.5,"lng":33.8,"population":121119},{"id":159071,"name":"Iringa","timezone":{"dstOffset":3,"gmtOffset":3,"timeZoneId":"Africa/Dar_es_Salaam"},"lat":-7.76667,"lng":35.7,"population":111820},{"id":158151,"name":"Katumba","timezone":{"dstOffset":3,"gmtOffset":3,"timeZoneId":"Africa/Dar_es_Salaam"},"lat":-9.23333,"lng":33.61667,"population":108558},{"id":150006,"name":"Shinyanga","timezone":{"dstOffset":3,"gmtOffset":3,"timeZoneId":"Africa/Dar_es_Salaam"},"lat":-3.66393,"lng":33.42118,"population":107362},{"id":877747,"name":"Mtwara","timezone":{"dstOffset":3,"gmtOffset":3,"timeZoneId":"Africa/Dar_es_Salaam"},"lat":-10.26667,"lng":40.18333,"population":96602},{"id":149129,"name":"Ushirombo","timezone":{"dstOffset":3,"gmtOffset":3,"timeZoneId":"Africa/Dar_es_Salaam"},"lat":-3.49194,"lng":31.96389,"population":95052},{"id":157403,"name":"Kilosa","timezone":{"dstOffset":3,"gmtOffset":3,"timeZoneId":"Africa/Dar_es_Salaam"},"lat":-6.83333,"lng":36.98333,"population":91889},{"id":149703,"name":"Sumbawanga","timezone":{"dstOffset":3,"gmtOffset":3,"timeZoneId":"Africa/Dar_es_Salaam"},"lat":-7.96667,"lng":31.61667,"population":89161},{"id":161290,"name":"Bagamoyo","timezone":{"dstOffset":3,"gmtOffset":3,"timeZoneId":"Africa/Dar_es_Salaam"},"lat":-6.44222,"lng":38.90422,"population":82426},{"id":153176,"name":"Mpanda","timezone":{"dstOffset":3,"gmtOffset":3,"timeZoneId":"Africa/Dar_es_Salaam"},"lat":-6.34379,"lng":31.06951,"population":73338},{"id":160961,"name":"Bukoba","timezone":{"dstOffset":3,"gmtOffset":3,"timeZoneId":"Africa/Dar_es_Salaam"},"lat":-1.33167,"lng":31.81222,"population":70628},{"id":149879,"name":"Singida","timezone":{"dstOffset":3,"gmtOffset":3,"timeZoneId":"Africa/Dar_es_Salaam"},"lat":-4.81629,"lng":34.74358,"population":62432},{"id":149027,"name":"Uyovu","timezone":{"dstOffset":3,"gmtOffset":3,"timeZoneId":"Africa/Dar_es_Salaam"},"lat":-3.28333,"lng":31.52583,"population":60849},{"id":155101,"name":"Makumbako","timezone":{"dstOffset":3,"gmtOffset":3,"timeZoneId":"Africa/Dar_es_Salaam"},"lat":-8.85,"lng":34.83333,"population":53003},{"id":160833,"name":"Buseresere","timezone":{"dstOffset":3,"gmtOffset":3,"timeZoneId":"Africa/Dar_es_Salaam"},"lat":-3.02361,"lng":31.87472,"population":52870},{"id":160892,"name":"Bunda","timezone":{"dstOffset":3,"gmtOffset":3,"timeZoneId":"Africa/Dar_es_Salaam"},"lat":-2.05,"lng":33.86667,"population":50944},{"id":6640202,"name":"Merelani","timezone":{"dstOffset":3,"gmtOffset":3,"timeZoneId":"Africa/Dar_es_Salaam"},"lat":-3.56182,"lng":36.97895,"population":50000},{"id":158160,"name":"Katoro","timezone":{"dstOffset":3,"gmtOffset":3,"timeZoneId":"Africa/Dar_es_Salaam"},"lat":-3.02028,"lng":31.89583,"population":49691},{"id":159492,"name":"Ifakara","timezone":{"dstOffset":3,"gmtOffset":3,"timeZoneId":"Africa/Dar_es_Salaam"},"lat":-8.13333,"lng":36.68333,"population":49528},{"id":151479,"name":"Njombe","timezone":{"dstOffset":3,"gmtOffset":3,"timeZoneId":"Africa/Dar_es_Salaam"},"lat":-9.33333,"lng":34.76667,"population":46724},{"id":878281,"name":"Lindi","timezone":{"dstOffset":3,"gmtOffset":3,"timeZoneId":"Africa/Dar_es_Salaam"},"lat":-9.99709,"lng":39.71649,"population":41912},{"id":148942,"name":"Vwawa","timezone":{"dstOffset":3,"gmtOffset":3,"timeZoneId":"Africa/Dar_es_Salaam"},"lat":-9.11667,"lng":32.93333,"population":40145},{"id":159908,"name":"Geita","timezone":{"dstOffset":3,"gmtOffset":3,"timeZoneId":"Africa/Dar_es_Salaam"},"lat":-2.86667,"lng":32.16667,"population":40000},{"id":151567,"name":"Nguruka","timezone":{"dstOffset":3,"gmtOffset":3,"timeZoneId":"Africa/Dar_es_Salaam"},"lat":-5.10917,"lng":31.04194,"population":39135},{"id":877532,"name":"Newala Kisimani","timezone":{"dstOffset":3,"gmtOffset":3,"timeZoneId":"Africa/Dar_es_Salaam"},"lat":-10.95,"lng":39.28333,"population":38099},{"id":159909,"name":"Geiro","timezone":{"dstOffset":3,"gmtOffset":3,"timeZoneId":"Africa/Dar_es_Salaam"},"lat":-6.15,"lng":36.86667,"population":37909},{"id":157863,"name":"Kidatu","timezone":{"dstOffset":3,"gmtOffset":3,"timeZoneId":"Africa/Dar_es_Salaam"},"lat":-7.69916,"lng":36.95722,"population":37542},{"id":158214,"name":"Kasulu","timezone":{"dstOffset":3,"gmtOffset":3,"timeZoneId":"Africa/Dar_es_Salaam"},"lat":-4.57667,"lng":30.1025,"population":37349},{"id":149402,"name":"Tunduma","timezone":{"dstOffset":3,"gmtOffset":3,"timeZoneId":"Africa/Dar_es_Salaam"},"lat":-9.3,"lng":32.76667,"population":36556},{"id":878058,"name":"Masasi","timezone":{"dstOffset":3,"gmtOffset":3,"timeZoneId":"Africa/Dar_es_Salaam"},"lat":-10.71667,"lng":38.8,"population":36032},{"id":158597,"name":"Kahama","timezone":{"dstOffset":3,"gmtOffset":3,"timeZoneId":"Africa/Dar_es_Salaam"},"lat":-3.83333,"lng":32.6,"population":36014},{"id":157826,"name":"Kidodi","timezone":{"dstOffset":3,"gmtOffset":3,"timeZoneId":"Africa/Dar_es_Salaam"},"lat":-7.60361,"lng":37.00438,"population":35953},{"id":159386,"name":"Igunga","timezone":{"dstOffset":3,"gmtOffset":3,"timeZoneId":"Africa/Dar_es_Salaam"},"lat":-4.28333,"lng":33.88333,"population":35644},{"id":153759,"name":"Misungwi","timezone":{"dstOffset":3,"gmtOffset":3,"timeZoneId":"Africa/Dar_es_Salaam"},"lat":-2.85,"lng":33.08333,"population":35530},{"id":153384,"name":"Mlimba","timezone":{"dstOffset":3,"gmtOffset":3,"timeZoneId":"Africa/Dar_es_Salaam"},"lat":-8.8,"lng":35.81667,"population":34970},{"id":155405,"name":"Mafinga","timezone":{"dstOffset":3,"gmtOffset":3,"timeZoneId":"Africa/Dar_es_Salaam"},"lat":-7.25,"lng":35.06667,"population":34958},{"id":154654,"name":"Masumbwe","timezone":{"dstOffset":3,"gmtOffset":3,"timeZoneId":"Africa/Dar_es_Salaam"},"lat":-3.63333,"lng":32.18333,"population":34780},{"id":160660,"name":"Chalinze","timezone":{"dstOffset":3,"gmtOffset":3,"timeZoneId":"Africa/Dar_es_Salaam"},"lat":-6.63784,"lng":38.35396,"population":34335},{"id":161312,"name":"Babati","timezone":{"dstOffset":3,"gmtOffset":3,"timeZoneId":"Africa/Dar_es_Salaam"},"lat":-4.21667,"lng":35.75,"population":34291},{"id":161154,"name":"Biharamulo","timezone":{"dstOffset":3,"gmtOffset":3,"timeZoneId":"Africa/Dar_es_Salaam"},"lat":-2.63194,"lng":31.30889,"population":34038},{"id":149792,"name":"Somanda","timezone":{"dstOffset":3,"gmtOffset":3,"timeZoneId":"Africa/Dar_es_Salaam"},"lat":-3.36667,"lng":33.95,"population":33932},{"id":161218,"name":"Bariadi","timezone":{"dstOffset":3,"gmtOffset":3,"timeZoneId":"Africa/Dar_es_Salaam"},"lat":-2.8,"lng":33.98333,"population":33865},{"id":157107,"name":"Kirando","timezone":{"dstOffset":3,"gmtOffset":3,"timeZoneId":"Africa/Dar_es_Salaam"},"lat":-7.41667,"lng":30.6,"population":33111},{"id":149581,"name":"Tarime","timezone":{"dstOffset":3,"gmtOffset":3,"timeZoneId":"Africa/Dar_es_Salaam"},"lat":-1.35,"lng":34.36667,"population":33094},{"id":149418,"name":"Tumbi","timezone":{"dstOffset":3,"gmtOffset":3,"timeZoneId":"Africa/Dar_es_Salaam"},"lat":-5.06667,"lng":32.73333,"population":32900},{"id":161023,"name":"Bugarama","timezone":{"dstOffset":3,"gmtOffset":3,"timeZoneId":"Africa/Dar_es_Salaam"},"lat":-2.87056,"lng":30.52806,"population":32494},{"id":152403,"name":"Mvomero","timezone":{"dstOffset":3,"gmtOffset":3,"timeZoneId":"Africa/Dar_es_Salaam"},"lat":-6.25,"lng":38.66667,"population":31324},{"id":160592,"name":"Chanika","timezone":{"dstOffset":3,"gmtOffset":3,"timeZoneId":"Africa/Dar_es_Salaam"},"lat":-5.41667,"lng":38.01667,"population":30905},{"id":156111,"name":"Kyela","timezone":{"dstOffset":3,"gmtOffset":3,"timeZoneId":"Africa/Dar_es_Salaam"},"lat":-9.58333,"lng":33.85,"population":30684},{"id":157977,"name":"Kibiti","timezone":{"dstOffset":3,"gmtOffset":3,"timeZoneId":"Africa/Dar_es_Salaam"},"lat":-7.72178,"lng":38.93749,"population":30163},{"id":156974,"name":"Kisesa","timezone":{"dstOffset":3,"gmtOffset":3,"timeZoneId":"Africa/Dar_es_Salaam"},"lat":-3.08333,"lng":34.15,"population":29804},{"id":878195,"name":"Lukuledi","timezone":{"dstOffset":3,"gmtOffset":3,"timeZoneId":"Africa/Dar_es_Salaam"},"lat":-10.56667,"lng":38.8,"population":29699},{"id":153412,"name":"Mlandizi","timezone":{"dstOffset":3,"gmtOffset":3,"timeZoneId":"Africa/Dar_es_Salaam"},"lat":-6.7,"lng":38.73333,"population":29394},{"id":150453,"name":"Rujewa","timezone":{"dstOffset":3,"gmtOffset":3,"timeZoneId":"Africa/Dar_es_Salaam"},"lat":-8.7,"lng":34.38333,"population":29228},{"id":159179,"name":"Ilula","timezone":{"dstOffset":3,"gmtOffset":3,"timeZoneId":"Africa/Dar_es_Salaam"},"lat":-7.6766,"lng":36.03658,"population":29193},{"id":157960,"name":"Kibondo","timezone":{"dstOffset":3,"gmtOffset":3,"timeZoneId":"Africa/Dar_es_Salaam"},"lat":-3.58639,"lng":30.72028,"population":28666},{"id":149437,"name":"Tukuyu","timezone":{"dstOffset":3,"gmtOffset":3,"timeZoneId":"Africa/Dar_es_Salaam"},"lat":-9.25,"lng":33.65,"population":28398},{"id":151986,"name":"Namanyere","timezone":{"dstOffset":3,"gmtOffset":3,"timeZoneId":"Africa/Dar_es_Salaam"},"lat":-7.51667,"lng":31.05,"population":28218},{"id":153482,"name":"Mkwanga","timezone":{"dstOffset":3,"gmtOffset":3,"timeZoneId":"Africa/Dar_es_Salaam"},"lat":-7.11799,"lng":39.20782,"population":28037},{"id":160877,"name":"Bungu","timezone":{"dstOffset":3,"gmtOffset":3,"timeZoneId":"Africa/Dar_es_Salaam"},"lat":-7.63369,"lng":39.05818,"population":27873},{"id":160552,"name":"Chato","timezone":{"dstOffset":3,"gmtOffset":3,"timeZoneId":"Africa/Dar_es_Salaam"},"lat":-2.63778,"lng":31.76694,"population":27776},{"id":158289,"name":"Kasamwa","timezone":{"dstOffset":3,"gmtOffset":3,"timeZoneId":"Africa/Dar_es_Salaam"},"lat":-2.85,"lng":32.43333,"population":27681},{"id":149929,"name":"Sikonge","timezone":{"dstOffset":3,"gmtOffset":3,"timeZoneId":"Africa/Dar_es_Salaam"},"lat":-5.63333,"lng":32.76667,"population":27113},{"id":155016,"name":"Malinyi","timezone":{"dstOffset":3,"gmtOffset":3,"timeZoneId":"Africa/Dar_es_Salaam"},"lat":-8.93333,"lng":36.13333,"population":27041},{"id":152781,"name":"Mtinko","timezone":{"dstOffset":3,"gmtOffset":3,"timeZoneId":"Africa/Dar_es_Salaam"},"lat":-4.55,"lng":34.85,"population":26725},{"id":150930,"name":"Nzega","timezone":{"dstOffset":3,"gmtOffset":3,"timeZoneId":"Africa/Dar_es_Salaam"},"lat":-4.21667,"lng":33.18333,"population":26584},{"id":154780,"name":"Maramba","timezone":{"dstOffset":3,"gmtOffset":3,"timeZoneId":"Africa/Dar_es_Salaam"},"lat":-5.05,"lng":38.61667,"population":26531},{"id":148842,"name":"Wete","timezone":{"dstOffset":3,"gmtOffset":3,"timeZoneId":"Africa/Dar_es_Salaam"},"lat":-5.05589,"lng":39.72938,"population":26450},{"id":155310,"name":"Magugu","timezone":{"dstOffset":3,"gmtOffset":3,"timeZoneId":"Africa/Dar_es_Salaam"},"lat":-4.01667,"lng":35.76667,"population":26131},{"id":149812,"name":"Sokoni","timezone":{"dstOffset":3,"gmtOffset":3,"timeZoneId":"Africa/Dar_es_Salaam"},"lat":-6.43333,"lng":39.55,"population":25821},{"id":150099,"name":"Sepuka","timezone":{"dstOffset":3,"gmtOffset":3,"timeZoneId":"Africa/Dar_es_Salaam"},"lat":-4.75,"lng":34.53333,"population":25657},{"id":877998,"name":"Mbinga","timezone":{"dstOffset":3,"gmtOffset":3,"timeZoneId":"Africa/Dar_es_Salaam"},"lat":-10.93333,"lng":35.01667,"population":25192},{"id":878223,"name":"Luchingu","timezone":{"dstOffset":3,"gmtOffset":3,"timeZoneId":"Africa/Dar_es_Salaam"},"lat":-10.9,"lng":39.33333,"population":25145},{"id":159380,"name":"Igurusi","timezone":{"dstOffset":3,"gmtOffset":3,"timeZoneId":"Africa/Dar_es_Salaam"},"lat":-8.85,"lng":33.85,"population":24895},{"id":160464,"name":"Chimala","timezone":{"dstOffset":3,"gmtOffset":3,"timeZoneId":"Africa/Dar_es_Salaam"},"lat":-8.85637,"lng":34.02393,"population":24817},{"id":150037,"name":"Shelui","timezone":{"dstOffset":3,"gmtOffset":3,"timeZoneId":"Africa/Dar_es_Salaam"},"lat":-4.36667,"lng":34.2,"population":24817},{"id":158563,"name":"Kakonko","timezone":{"dstOffset":3,"gmtOffset":3,"timeZoneId":"Africa/Dar_es_Salaam"},"lat":-3.28278,"lng":30.96417,"population":24688},{"id":149050,"name":"Uvinza","timezone":{"dstOffset":3,"gmtOffset":3,"timeZoneId":"Africa/Dar_es_Salaam"},"lat":-5.10361,"lng":30.39111,"population":24650},{"id":151211,"name":"Nyalikungu","timezone":{"dstOffset":3,"gmtOffset":3,"timeZoneId":"Africa/Dar_es_Salaam"},"lat":-3.18333,"lng":33.78333,"population":24648},{"id":149854,"name":"Sirari","timezone":{"dstOffset":3,"gmtOffset":3,"timeZoneId":"Africa/Dar_es_Salaam"},"lat":-1.25367,"lng":34.47596,"population":24317},{"id":155569,"name":"Lushoto","timezone":{"dstOffset":3,"gmtOffset":3,"timeZoneId":"Africa/Dar_es_Salaam"},"lat":-4.78333,"lng":38.28333,"population":24197},{"id":154638,"name":"Matai","timezone":{"dstOffset":3,"gmtOffset":3,"timeZoneId":"Africa/Dar_es_Salaam"},"lat":-8.3,"lng":31.51667,"population":24070},{"id":150885,"name":"Old Shinyanga","timezone":{"dstOffset":3,"gmtOffset":3,"timeZoneId":"Africa/Dar_es_Salaam"},"lat":-3.55,"lng":33.4,"population":23747},{"id":149172,"name":"Urambo","timezone":{"dstOffset":3,"gmtOffset":3,"timeZoneId":"Africa/Dar_es_Salaam"},"lat":-5.06667,"lng":32.05,"population":23724},{"id":154097,"name":"Mgandu","timezone":{"dstOffset":3,"gmtOffset":3,"timeZoneId":"Africa/Dar_es_Salaam"},"lat":-5.95,"lng":34.13333,"population":23718},{"id":158027,"name":"Kibaha","timezone":{"dstOffset":3,"gmtOffset":3,"timeZoneId":"Africa/Dar_es_Salaam"},"lat":-6.76667,"lng":38.91667,"population":23651},{"id":149775,"name":"Songwa","timezone":{"dstOffset":3,"gmtOffset":3,"timeZoneId":"Africa/Dar_es_Salaam"},"lat":-3.51667,"lng":33.51667,"population":23618},{"id":157198,"name":"Kiomboi","timezone":{"dstOffset":3,"gmtOffset":3,"timeZoneId":"Africa/Dar_es_Salaam"},"lat":-4.26667,"lng":34.36667,"population":23519},{"id":156510,"name":"Kondoa","timezone":{"dstOffset":3,"gmtOffset":3,"timeZoneId":"Africa/Dar_es_Salaam"},"lat":-4.9,"lng":35.78333,"population":23518},{"id":148987,"name":"Vikindu","timezone":{"dstOffset":3,"gmtOffset":3,"timeZoneId":"Africa/Dar_es_Salaam"},"lat":-7.00667,"lng":39.29849,"population":23307},{"id":152376,"name":"Mwadui","timezone":{"dstOffset":3,"gmtOffset":3,"timeZoneId":"Africa/Dar_es_Salaam"},"lat":-3.55,"lng":33.6,"population":23296},{"id":877597,"name":"Nangomba","timezone":{"dstOffset":3,"gmtOffset":3,"timeZoneId":"Africa/Dar_es_Salaam"},"lat":-10.9,"lng":38.5,"population":23028},{"id":157268,"name":"Kingori","timezone":{"dstOffset":3,"gmtOffset":3,"timeZoneId":"Africa/Dar_es_Salaam"},"lat":-3.28333,"lng":36.98333,"population":22839},{"id":159398,"name":"Igugunu","timezone":{"dstOffset":3,"gmtOffset":3,"timeZoneId":"Africa/Dar_es_Salaam"},"lat":-4.56667,"lng":34.63333,"population":22810},{"id":151599,"name":"Ngudu","timezone":{"dstOffset":3,"gmtOffset":3,"timeZoneId":"Africa/Dar_es_Salaam"},"lat":-2.96667,"lng":33.33333,"population":22658},{"id":160670,"name":"Chala","timezone":{"dstOffset":3,"gmtOffset":3,"timeZoneId":"Africa/Dar_es_Salaam"},"lat":-7.58333,"lng":31.26667,"population":22624},{"id":156080,"name":"Lalago","timezone":{"dstOffset":3,"gmtOffset":3,"timeZoneId":"Africa/Dar_es_Salaam"},"lat":-3.45,"lng":33.95,"population":22551},{"id":878400,"name":"Kigonsera","timezone":{"dstOffset":3,"gmtOffset":3,"timeZoneId":"Africa/Dar_es_Salaam"},"lat":-10.8,"lng":35.05,"population":22155},{"id":149512,"name":"Tinde","timezone":{"dstOffset":3,"gmtOffset":3,"timeZoneId":"Africa/Dar_es_Salaam"},"lat":-3.88333,"lng":33.2,"population":22082},{"id":150436,"name":"Rulenge","timezone":{"dstOffset":3,"gmtOffset":3,"timeZoneId":"Africa/Dar_es_Salaam"},"lat":-2.7175,"lng":30.6325,"population":22069},{"id":154648,"name":"Maswa","timezone":{"dstOffset":3,"gmtOffset":3,"timeZoneId":"Africa/Dar_es_Salaam"},"lat":-2.68333,"lng":33.98333,"population":22025},{"id":160677,"name":"Chake Chake","timezone":{"dstOffset":3,"gmtOffset":3,"timeZoneId":"Africa/Dar_es_Salaam"},"lat":-5.24586,"lng":39.76659,"population":21686},{"id":154002,"name":"Mhango","timezone":{"dstOffset":3,"gmtOffset":3,"timeZoneId":"Africa/Dar_es_Salaam"},"lat":-3.28333,"lng":32.85,"population":21553},{"id":156627,"name":"Kiwira","timezone":{"dstOffset":3,"gmtOffset":3,"timeZoneId":"Africa/Dar_es_Salaam"},"lat":-9.17307,"lng":33.54152,"population":21342},{"id":159045,"name":"Isaka","timezone":{"dstOffset":3,"gmtOffset":3,"timeZoneId":"Africa/Dar_es_Salaam"},"lat":-3.9,"lng":32.93333,"population":21094},{"id":161197,"name":"Basotu","timezone":{"dstOffset":3,"gmtOffset":3,"timeZoneId":"Africa/Dar_es_Salaam"},"lat":-4.36667,"lng":35.08333,"population":20937},{"id":154470,"name":"Mazinde","timezone":{"dstOffset":3,"gmtOffset":3,"timeZoneId":"Africa/Dar_es_Salaam"},"lat":-4.8,"lng":38.21667,"population":20534},{"id":152497,"name":"Muriti","timezone":{"dstOffset":3,"gmtOffset":3,"timeZoneId":"Africa/Dar_es_Salaam"},"lat":-1.98333,"lng":32.91667,"population":20254},{"id":154566,"name":"Matui","timezone":{"dstOffset":3,"gmtOffset":3,"timeZoneId":"Africa/Dar_es_Salaam"},"lat":-4.8,"lng":38.25,"population":20241},{"id":159647,"name":"Hedaru","timezone":{"dstOffset":3,"gmtOffset":3,"timeZoneId":"Africa/Dar_es_Salaam"},"lat":-4.5,"lng":37.9,"population":20231},{"id":151363,"name":"Nsunga","timezone":{"dstOffset":3,"gmtOffset":3,"timeZoneId":"Africa/Dar_es_Salaam"},"lat":-1.14389,"lng":31.39472,"population":20049},{"id":160266,"name":"Dareda","timezone":{"dstOffset":3,"gmtOffset":3,"timeZoneId":"Africa/Dar_es_Salaam"},"lat":-4.21667,"lng":35.55,"population":19876},{"id":151373,"name":"Nshamba","timezone":{"dstOffset":3,"gmtOffset":3,"timeZoneId":"Africa/Dar_es_Salaam"},"lat":-1.79833,"lng":31.55111,"population":19815},{"id":153094,"name":"Mpwapwa","timezone":{"dstOffset":3,"gmtOffset":3,"timeZoneId":"Africa/Dar_es_Salaam"},"lat":-6.35,"lng":36.48333,"population":19806},{"id":158324,"name":"Kiratu","timezone":{"dstOffset":3,"gmtOffset":3,"timeZoneId":"Africa/Dar_es_Salaam"},"lat":-3.33333,"lng":35.66667,"population":19803},{"id":158904,"name":"Itigi","timezone":{"dstOffset":3,"gmtOffset":3,"timeZoneId":"Africa/Dar_es_Salaam"},"lat":-5.7,"lng":34.48333,"population":19711},{"id":159267,"name":"Ikungi","timezone":{"dstOffset":3,"gmtOffset":3,"timeZoneId":"Africa/Dar_es_Salaam"},"lat":-5.13333,"lng":34.76667,"population":19692},{"id":877581,"name":"Nanyamba","timezone":{"dstOffset":3,"gmtOffset":3,"timeZoneId":"Africa/Dar_es_Salaam"},"lat":-10.68333,"lng":39.83333,"population":19555},{"id":158024,"name":"Kibakwe","timezone":{"dstOffset":3,"gmtOffset":3,"timeZoneId":"Africa/Dar_es_Salaam"},"lat":-6.71667,"lng":36.36667,"population":19526},{"id":878073,"name":"Maposeni","timezone":{"dstOffset":3,"gmtOffset":3,"timeZoneId":"Africa/Dar_es_Salaam"},"lat":-10.58333,"lng":35.4,"population":19472},{"id":158684,"name":"Kabanga","timezone":{"dstOffset":3,"gmtOffset":3,"timeZoneId":"Africa/Dar_es_Salaam"},"lat":-2.63861,"lng":30.46778,"population":19421},{"id":155921,"name":"Liwale","timezone":{"dstOffset":3,"gmtOffset":3,"timeZoneId":"Africa/Dar_es_Salaam"},"lat":-9.76667,"lng":37.93333,"population":19296},{"id":156098,"name":"Laela","timezone":{"dstOffset":3,"gmtOffset":3,"timeZoneId":"Africa/Dar_es_Salaam"},"lat":-8.56667,"lng":32.05,"population":19185},{"id":161204,"name":"Bashanet","timezone":{"dstOffset":3,"gmtOffset":3,"timeZoneId":"Africa/Dar_es_Salaam"},"lat":-4.23333,"lng":35.41667,"population":19087},{"id":155321,"name":"Magomeni","timezone":{"dstOffset":3,"gmtOffset":3,"timeZoneId":"Africa/Dar_es_Salaam"},"lat":-6.8,"lng":39.25,"population":19086},{"id":155307,"name":"Kihangara","timezone":{"dstOffset":3,"gmtOffset":3,"timeZoneId":"Africa/Dar_es_Salaam"},"lat":-2.58333,"lng":33.35,"population":19082},{"id":152718,"name":"Mtwango","timezone":{"dstOffset":3,"gmtOffset":3,"timeZoneId":"Africa/Dar_es_Salaam"},"lat":-9.01667,"lng":34.8,"population":19040},{"id":159218,"name":"Ilembula","timezone":{"dstOffset":3,"gmtOffset":3,"timeZoneId":"Africa/Dar_es_Salaam"},"lat":-8.9,"lng":34.58333,"population":18870},{"id":160172,"name":"Dongobesh","timezone":{"dstOffset":3,"gmtOffset":3,"timeZoneId":"Africa/Dar_es_Salaam"},"lat":-4.06667,"lng":35.38333,"population":18864},{"id":878041,"name":"Matiri","timezone":{"dstOffset":3,"gmtOffset":3,"timeZoneId":"Africa/Dar_es_Salaam"},"lat":-10.75,"lng":34.9,"population":18830},{"id":155334,"name":"Magole","timezone":{"dstOffset":3,"gmtOffset":3,"timeZoneId":"Africa/Dar_es_Salaam"},"lat":-6.37697,"lng":37.37373,"population":18753},{"id":153352,"name":"Mlowo","timezone":{"dstOffset":3,"gmtOffset":3,"timeZoneId":"Africa/Dar_es_Salaam"},"lat":-9,"lng":32.98333,"population":18737},{"id":149155,"name":"Usa River","timezone":{"dstOffset":3,"gmtOffset":3,"timeZoneId":"Africa/Dar_es_Salaam"},"lat":-3.36667,"lng":36.85,"population":18726},{"id":151929,"name":"Nangwa","timezone":{"dstOffset":3,"gmtOffset":3,"timeZoneId":"Africa/Dar_es_Salaam"},"lat":-4.46667,"lng":35.45,"population":18595},{"id":159951,"name":"Galappo","timezone":{"dstOffset":3,"gmtOffset":3,"timeZoneId":"Africa/Dar_es_Salaam"},"lat":-4.26667,"lng":35.85,"population":18528},{"id":152663,"name":"Mugumu","timezone":{"dstOffset":3,"gmtOffset":3,"timeZoneId":"Africa/Dar_es_Salaam"},"lat":-1.85,"lng":34.7,"population":18431},{"id":158179,"name":"Katerero","timezone":{"dstOffset":3,"gmtOffset":3,"timeZoneId":"Africa/Dar_es_Salaam"},"lat":-1.4,"lng":31.73333,"population":18430},{"id":151266,"name":"Nyakabindi","timezone":{"dstOffset":3,"gmtOffset":3,"timeZoneId":"Africa/Dar_es_Salaam"},"lat":-2.63333,"lng":33.98333,"population":18428},{"id":877702,"name":"Nachingwea","timezone":{"dstOffset":3,"gmtOffset":3,"timeZoneId":"Africa/Dar_es_Salaam"},"lat":-10.3725,"lng":38.76251,"population":18058},{"id":158825,"name":"Izazi","timezone":{"dstOffset":3,"gmtOffset":3,"timeZoneId":"Africa/Dar_es_Salaam"},"lat":-7.2,"lng":35.73333,"population":18010},{"id":152933,"name":"Msowero","timezone":{"dstOffset":3,"gmtOffset":3,"timeZoneId":"Africa/Dar_es_Salaam"},"lat":-6.53333,"lng":37.2,"population":17861},{"id":159107,"name":"Ipinda","timezone":{"dstOffset":3,"gmtOffset":3,"timeZoneId":"Africa/Dar_es_Salaam"},"lat":-9.48333,"lng":33.9,"population":17775},{"id":152743,"name":"Mto wa Mbu","timezone":{"dstOffset":3,"gmtOffset":3,"timeZoneId":"Africa/Dar_es_Salaam"},"lat":-3.35,"lng":35.85,"population":17754},{"id":149132,"name":"Usevya","timezone":{"dstOffset":3,"gmtOffset":3,"timeZoneId":"Africa/Dar_es_Salaam"},"lat":-7.1,"lng":31.23333,"population":17742},{"id":877605,"name":"Nanganga","timezone":{"dstOffset":3,"gmtOffset":3,"timeZoneId":"Africa/Dar_es_Salaam"},"lat":-10.38333,"lng":39.15,"population":17468},{"id":150276,"name":"Same","timezone":{"dstOffset":3,"gmtOffset":3,"timeZoneId":"Africa/Dar_es_Salaam"},"lat":-4.06667,"lng":37.73333,"population":17455},{"id":159186,"name":"Ilongero","timezone":{"dstOffset":3,"gmtOffset":3,"timeZoneId":"Africa/Dar_es_Salaam"},"lat":-4.66667,"lng":34.86667,"population":17342},{"id":158016,"name":"Kibara","timezone":{"dstOffset":3,"gmtOffset":3,"timeZoneId":"Africa/Dar_es_Salaam"},"lat":-2.15,"lng":33.45,"population":17211},{"id":151678,"name":"Ngerengere","timezone":{"dstOffset":3,"gmtOffset":3,"timeZoneId":"Africa/Dar_es_Salaam"},"lat":-6.75,"lng":38.11667,"population":17181},{"id":150634,"name":"Puma","timezone":{"dstOffset":3,"gmtOffset":3,"timeZoneId":"Africa/Dar_es_Salaam"},"lat":-5,"lng":34.73333,"population":17092},{"id":877391,"name":"Tandahimba","timezone":{"dstOffset":3,"gmtOffset":3,"timeZoneId":"Africa/Dar_es_Salaam"},"lat":-10.75,"lng":39.63333,"population":17041},{"id":152632,"name":"Muheza","timezone":{"dstOffset":3,"gmtOffset":3,"timeZoneId":"Africa/Dar_es_Salaam"},"lat":-5.16667,"lng":38.78333,"population":17000},{"id":155056,"name":"Malampaka","timezone":{"dstOffset":3,"gmtOffset":3,"timeZoneId":"Africa/Dar_es_Salaam"},"lat":-3.13333,"lng":33.53333,"population":16916},{"id":155743,"name":"Lugoba","timezone":{"dstOffset":3,"gmtOffset":3,"timeZoneId":"Africa/Dar_es_Salaam"},"lat":-6.45,"lng":38.33333,"population":16902},{"id":151711,"name":"Ngara","timezone":{"dstOffset":3,"gmtOffset":3,"timeZoneId":"Africa/Dar_es_Salaam"},"lat":-2.51222,"lng":30.65583,"population":16890},{"id":153709,"name":"Mwandiga","timezone":{"dstOffset":3,"gmtOffset":3,"timeZoneId":"Africa/Dar_es_Salaam"},"lat":-4.83,"lng":29.65806,"population":16822},{"id":153871,"name":"Mikumi","timezone":{"dstOffset":3,"gmtOffset":3,"timeZoneId":"Africa/Dar_es_Salaam"},"lat":-7.40409,"lng":36.98309,"population":16780},{"id":152546,"name":"Mungaa","timezone":{"dstOffset":3,"gmtOffset":3,"timeZoneId":"Africa/Dar_es_Salaam"},"lat":-4.96667,"lng":34.88333,"population":16715},{"id":151108,"name":"Nyamuswa","timezone":{"dstOffset":3,"gmtOffset":3,"timeZoneId":"Africa/Dar_es_Salaam"},"lat":-1.9,"lng":34.01667,"population":16507},{"id":154321,"name":"Mbuguni","timezone":{"dstOffset":3,"gmtOffset":3,"timeZoneId":"Africa/Dar_es_Salaam"},"lat":-3.56667,"lng":36.95,"population":16442},{"id":160798,"name":"Butiama","timezone":{"dstOffset":3,"gmtOffset":3,"timeZoneId":"Africa/Dar_es_Salaam"},"lat":-1.76667,"lng":33.96667,"population":16376},{"id":156963,"name":"Kishapu","timezone":{"dstOffset":3,"gmtOffset":3,"timeZoneId":"Africa/Dar_es_Salaam"},"lat":-3.61667,"lng":33.86667,"population":16371},{"id":877471,"name":"Nyangao","timezone":{"dstOffset":3,"gmtOffset":3,"timeZoneId":"Africa/Dar_es_Salaam"},"lat":-10.33333,"lng":39.28333,"population":16343},{"id":877384,"name":"Tingi","timezone":{"dstOffset":3,"gmtOffset":3,"timeZoneId":"Africa/Dar_es_Salaam"},"lat":-11.3,"lng":35.03333,"population":16315},{"id":878367,"name":"Kitama","timezone":{"dstOffset":3,"gmtOffset":3,"timeZoneId":"Africa/Dar_es_Salaam"},"lat":-10.71667,"lng":39.73333,"population":16232},{"id":156025,"name":"Lembeni","timezone":{"dstOffset":3,"gmtOffset":3,"timeZoneId":"Africa/Dar_es_Salaam"},"lat":-3.78333,"lng":37.61667,"population":16008},{"id":158492,"name":"Kamachumu","timezone":{"dstOffset":3,"gmtOffset":3,"timeZoneId":"Africa/Dar_es_Salaam"},"lat":-1.61861,"lng":31.62,"population":15701},{"id":153423,"name":"Mlalo","timezone":{"dstOffset":3,"gmtOffset":3,"timeZoneId":"Africa/Dar_es_Salaam"},"lat":-4.93333,"lng":38.93333,"population":15576},{"id":155076,"name":"Makuyuni","timezone":{"dstOffset":3,"gmtOffset":3,"timeZoneId":"Africa/Dar_es_Salaam"},"lat":-4.73333,"lng":38.1,"population":15516},{"id":149151,"name":"Usagara","timezone":{"dstOffset":3,"gmtOffset":3,"timeZoneId":"Africa/Dar_es_Salaam"},"lat":-2.68333,"lng":33,"population":15514},{"id":155515,"name":"Mabama","timezone":{"dstOffset":3,"gmtOffset":3,"timeZoneId":"Africa/Dar_es_Salaam"},"lat":-5.13333,"lng":32.53333,"population":15320},{"id":153408,"name":"Mlangali","timezone":{"dstOffset":3,"gmtOffset":3,"timeZoneId":"Africa/Dar_es_Salaam"},"lat":-9.78333,"lng":34.51667,"population":15168},{"id":155285,"name":"Mahanje","timezone":{"dstOffset":3,"gmtOffset":3,"timeZoneId":"Africa/Dar_es_Salaam"},"lat":-9.93333,"lng":35.33333,"population":15009},{"id":151445,"name":"Nkoaranga","timezone":{"dstOffset":3,"gmtOffset":3,"timeZoneId":"Africa/Dar_es_Salaam"},"lat":-3.33333,"lng":36.8,"population":14738},{"id":151262,"name":"Nyakahanga","timezone":{"dstOffset":3,"gmtOffset":3,"timeZoneId":"Africa/Dar_es_Salaam"},"lat":-1.60333,"lng":31.14139,"population":14611},{"id":160073,"name":"Endasak","timezone":{"dstOffset":3,"gmtOffset":3,"timeZoneId":"Africa/Dar_es_Salaam"},"lat":-4.41667,"lng":35.51667,"population":14576},{"id":151775,"name":"Ndungu","timezone":{"dstOffset":3,"gmtOffset":3,"timeZoneId":"Africa/Dar_es_Salaam"},"lat":-4.36667,"lng":38.05,"population":14545},{"id":153772,"name":"Misasi","timezone":{"dstOffset":3,"gmtOffset":3,"timeZoneId":"Africa/Dar_es_Salaam"},"lat":-3,"lng":33.08333,"population":14170},{"id":155514,"name":"Mabamba","timezone":{"dstOffset":3,"gmtOffset":3,"timeZoneId":"Africa/Dar_es_Salaam"},"lat":-3.59833,"lng":30.50194,"population":14140},{"id":160141,"name":"Dunda","timezone":{"dstOffset":3,"gmtOffset":3,"timeZoneId":"Africa/Dar_es_Salaam"},"lat":-8.11667,"lng":34.25,"population":14080},{"id":156124,"name":"Kyaka","timezone":{"dstOffset":3,"gmtOffset":3,"timeZoneId":"Africa/Dar_es_Salaam"},"lat":-1.25222,"lng":31.42028,"population":13810},{"id":878121,"name":"Mahuta","timezone":{"dstOffset":3,"gmtOffset":3,"timeZoneId":"Africa/Dar_es_Salaam"},"lat":-10.86667,"lng":39.45,"population":13548},{"id":877588,"name":"Nanhyanga","timezone":{"dstOffset":3,"gmtOffset":3,"timeZoneId":"Africa/Dar_es_Salaam"},"lat":-10.8,"lng":39.55,"population":13519},{"id":152042,"name":"Naberera","timezone":{"dstOffset":3,"gmtOffset":3,"timeZoneId":"Africa/Dar_es_Salaam"},"lat":-4.2,"lng":36.93333,"population":13499},{"id":158876,"name":"Itumba","timezone":{"dstOffset":3,"gmtOffset":3,"timeZoneId":"Africa/Dar_es_Salaam"},"lat":-9.4,"lng":33.18333,"population":13438},{"id":154313,"name":"Mbulu","timezone":{"dstOffset":3,"gmtOffset":3,"timeZoneId":"Africa/Dar_es_Salaam"},"lat":-3.85,"lng":35.53333,"population":13430},{"id":878242,"name":"Liuli","timezone":{"dstOffset":3,"gmtOffset":3,"timeZoneId":"Africa/Dar_es_Salaam"},"lat":-11.08333,"lng":34.63333,"population":13119},{"id":159242,"name":"Ikwiriri","timezone":{"dstOffset":3,"gmtOffset":3,"timeZoneId":"Africa/Dar_es_Salaam"},"lat":-7.95618,"lng":38.97164,"population":13071},{"id":151872,"name":"Ndago","timezone":{"dstOffset":3,"gmtOffset":3,"timeZoneId":"Africa/Dar_es_Salaam"},"lat":-4.6,"lng":34.35,"population":13012},{"id":152265,"name":"Mwanga","timezone":{"dstOffset":3,"gmtOffset":3,"timeZoneId":"Africa/Dar_es_Salaam"},"lat":-4.8,"lng":38.2,"population":12846},{"id":878455,"name":"Chiungutwa","timezone":{"dstOffset":3,"gmtOffset":3,"timeZoneId":"Africa/Dar_es_Salaam"},"lat":-10.88333,"lng":38.98333,"population":12764},{"id":154666,"name":"Masoko","timezone":{"dstOffset":3,"gmtOffset":3,"timeZoneId":"Africa/Dar_es_Salaam"},"lat":-9.33333,"lng":33.75,"population":12720},{"id":158321,"name":"Karema","timezone":{"dstOffset":3,"gmtOffset":3,"timeZoneId":"Africa/Dar_es_Salaam"},"lat":-6.82052,"lng":30.43887,"population":12630},{"id":154995,"name":"Malya","timezone":{"dstOffset":3,"gmtOffset":3,"timeZoneId":"Africa/Dar_es_Salaam"},"lat":-2.98333,"lng":33.51667,"population":12627},{"id":156996,"name":"Kisarawe","timezone":{"dstOffset":3,"gmtOffset":3,"timeZoneId":"Africa/Dar_es_Salaam"},"lat":-6.9,"lng":39.06667,"population":12507},{"id":878141,"name":"Madimba","timezone":{"dstOffset":3,"gmtOffset":3,"timeZoneId":"Africa/Dar_es_Salaam"},"lat":-10.4,"lng":40.33333,"population":12507},{"id":157429,"name":"Kilindoni","timezone":{"dstOffset":3,"gmtOffset":3,"timeZoneId":"Africa/Dar_es_Salaam"},"lat":-7.91446,"lng":39.66204,"population":12409},{"id":149768,"name":"Soni","timezone":{"dstOffset":3,"gmtOffset":3,"timeZoneId":"Africa/Dar_es_Salaam"},"lat":-4.85,"lng":38.36667,"population":12402},{"id":158514,"name":"Kaliua","timezone":{"dstOffset":3,"gmtOffset":3,"timeZoneId":"Africa/Dar_es_Salaam"},"lat":-5.06056,"lng":31.79361,"population":12362},{"id":149239,"name":"Ulenje","timezone":{"dstOffset":3,"gmtOffset":3,"timeZoneId":"Africa/Dar_es_Salaam"},"lat":-8.93333,"lng":33.68333,"population":12219},{"id":151988,"name":"Namanga","timezone":{"dstOffset":3,"gmtOffset":3,"timeZoneId":"Africa/Dar_es_Salaam"},"lat":-2.55116,"lng":36.78377,"population":12048},{"id":877784,"name":"Mtama","timezone":{"dstOffset":3,"gmtOffset":3,"timeZoneId":"Africa/Dar_es_Salaam"},"lat":-10.3,"lng":39.36667,"population":11928},{"id":158161,"name":"Katoro","timezone":{"dstOffset":3,"gmtOffset":3,"timeZoneId":"Africa/Dar_es_Salaam"},"lat":-1.39972,"lng":31.50028,"population":11925},{"id":149070,"name":"Utete","timezone":{"dstOffset":3,"gmtOffset":3,"timeZoneId":"Africa/Dar_es_Salaam"},"lat":-7.98598,"lng":38.75795,"population":11888},{"id":156493,"name":"Kongwa","timezone":{"dstOffset":3,"gmtOffset":3,"timeZoneId":"Africa/Dar_es_Salaam"},"lat":-6.2,"lng":36.41667,"population":11840},{"id":154576,"name":"Matonga","timezone":{"dstOffset":3,"gmtOffset":3,"timeZoneId":"Africa/Dar_es_Salaam"},"lat":-2.38333,"lng":34.08333,"population":11828},{"id":878006,"name":"Mbekenyera","timezone":{"dstOffset":3,"gmtOffset":3,"timeZoneId":"Africa/Dar_es_Salaam"},"lat":-10,"lng":38.98333,"population":11794},{"id":159134,"name":"Inyonga","timezone":{"dstOffset":3,"gmtOffset":3,"timeZoneId":"Africa/Dar_es_Salaam"},"lat":-6.71667,"lng":32.06667,"population":11790},{"id":877631,"name":"Namikupa","timezone":{"dstOffset":3,"gmtOffset":3,"timeZoneId":"Africa/Dar_es_Salaam"},"lat":-10.83333,"lng":39.6,"population":11733},{"id":152570,"name":"Muleba","timezone":{"dstOffset":3,"gmtOffset":3,"timeZoneId":"Africa/Dar_es_Salaam"},"lat":-1.83972,"lng":31.65444,"population":11555},{"id":155584,"name":"Lupiro","timezone":{"dstOffset":3,"gmtOffset":3,"timeZoneId":"Africa/Dar_es_Salaam"},"lat":-8.38333,"lng":36.66667,"population":11430},{"id":157366,"name":"Kimamba","timezone":{"dstOffset":3,"gmtOffset":3,"timeZoneId":"Africa/Dar_es_Salaam"},"lat":-6.78333,"lng":37.13333,"population":11235},{"id":877670,"name":"Namalenga","timezone":{"dstOffset":3,"gmtOffset":3,"timeZoneId":"Africa/Dar_es_Salaam"},"lat":-10.95,"lng":39.1,"population":11204},{"id":152793,"name":"Mtimbira","timezone":{"dstOffset":3,"gmtOffset":3,"timeZoneId":"Africa/Dar_es_Salaam"},"lat":-8.78333,"lng":36.35,"population":11122},{"id":877433,"name":"Ruangwa","timezone":{"dstOffset":3,"gmtOffset":3,"timeZoneId":"Africa/Dar_es_Salaam"},"lat":-10.06667,"lng":38.93333,"population":11095},{"id":157014,"name":"Kisanga","timezone":{"dstOffset":3,"gmtOffset":3,"timeZoneId":"Africa/Dar_es_Salaam"},"lat":-7.43622,"lng":37.70337,"population":10978},{"id":878362,"name":"Kitangari","timezone":{"dstOffset":3,"gmtOffset":3,"timeZoneId":"Africa/Dar_es_Salaam"},"lat":-10.65,"lng":39.33333,"population":10956},{"id":151610,"name":"Ngorongoro","timezone":{"dstOffset":3,"gmtOffset":3,"timeZoneId":"Africa/Dar_es_Salaam"},"lat":-3.23973,"lng":35.48747,"population":10836},{"id":151062,"name":"Nyanguge","timezone":{"dstOffset":3,"gmtOffset":3,"timeZoneId":"Africa/Dar_es_Salaam"},"lat":-2.55,"lng":33.2,"population":10746},{"id":154635,"name":"Matamba","timezone":{"dstOffset":3,"gmtOffset":3,"timeZoneId":"Africa/Dar_es_Salaam"},"lat":-8.98333,"lng":33.96667,"population":10642},{"id":161022,"name":"Bugene","timezone":{"dstOffset":3,"gmtOffset":3,"timeZoneId":"Africa/Dar_es_Salaam"},"lat":-1.59111,"lng":31.14028,"population":10609},{"id":152689,"name":"Mugango","timezone":{"dstOffset":3,"gmtOffset":3,"timeZoneId":"Africa/Dar_es_Salaam"},"lat":-1.68333,"lng":33.7,"population":10550},{"id":877925,"name":"Mingoyo","timezone":{"dstOffset":3,"gmtOffset":3,"timeZoneId":"Africa/Dar_es_Salaam"},"lat":-10.10526,"lng":39.61859,"population":10480},{"id":158422,"name":"Kandete","timezone":{"dstOffset":3,"gmtOffset":3,"timeZoneId":"Africa/Dar_es_Salaam"},"lat":-9.15,"lng":33.8,"population":10318},{"id":155093,"name":"Makungu","timezone":{"dstOffset":3,"gmtOffset":3,"timeZoneId":"Africa/Dar_es_Salaam"},"lat":-8.73333,"lng":35.28333,"population":10291},{"id":159382,"name":"Igurubi","timezone":{"dstOffset":3,"gmtOffset":3,"timeZoneId":"Africa/Dar_es_Salaam"},"lat":-4,"lng":33.7,"population":10083},{"id":9063978,"name":"Kisasa","timezone":{"dstOffset":3,"gmtOffset":3,"timeZoneId":"Africa/Dar_es_Salaam"},"lat":-6.17526,"lng":35.79266,"population":10000},{"id":155244,"name":"Majengo","timezone":{"dstOffset":3,"gmtOffset":3,"timeZoneId":"Africa/Dar_es_Salaam"},"lat":-5.15,"lng":38.98333,"population":9874},{"id":153955,"name":"Micheweni","timezone":{"dstOffset":3,"gmtOffset":3,"timeZoneId":"Africa/Dar_es_Salaam"},"lat":-4.96667,"lng":39.83333,"population":9838},{"id":150689,"name":"Poli","timezone":{"dstOffset":3,"gmtOffset":3,"timeZoneId":"Africa/Dar_es_Salaam"},"lat":-3.33333,"lng":36.8,"population":9568},{"id":156513,"name":"Konde","timezone":{"dstOffset":3,"gmtOffset":3,"timeZoneId":"Africa/Dar_es_Salaam"},"lat":-4.95,"lng":39.75,"population":9530},{"id":155187,"name":"Makanya","timezone":{"dstOffset":3,"gmtOffset":3,"timeZoneId":"Africa/Dar_es_Salaam"},"lat":-4.36667,"lng":37.83333,"population":9505},{"id":155848,"name":"Longido","timezone":{"dstOffset":3,"gmtOffset":3,"timeZoneId":"Africa/Dar_es_Salaam"},"lat":-2.73319,"lng":36.69773,"population":9403},{"id":154915,"name":"Maneromango","timezone":{"dstOffset":3,"gmtOffset":3,"timeZoneId":"Africa/Dar_es_Salaam"},"lat":-7.1988,"lng":38.78478,"population":9402},{"id":152169,"name":"Mwembe","timezone":{"dstOffset":3,"gmtOffset":3,"timeZoneId":"Africa/Dar_es_Salaam"},"lat":-4.15,"lng":37.85,"population":9032},{"id":878023,"name":"Mbamba Bay","timezone":{"dstOffset":3,"gmtOffset":3,"timeZoneId":"Africa/Dar_es_Salaam"},"lat":-11.28333,"lng":34.76667,"population":8997},{"id":155322,"name":"Magomeni","timezone":{"dstOffset":3,"gmtOffset":3,"timeZoneId":"Africa/Dar_es_Salaam"},"lat":-5.23333,"lng":38.11667,"population":8944},{"id":878087,"name":"Manda","timezone":{"dstOffset":3,"gmtOffset":3,"timeZoneId":"Africa/Dar_es_Salaam"},"lat":-10.46667,"lng":34.58333,"population":8393},{"id":157653,"name":"Kihurio","timezone":{"dstOffset":3,"gmtOffset":3,"timeZoneId":"Africa/Dar_es_Salaam"},"lat":-4.46667,"lng":38.06667,"population":8377},{"id":150793,"name":"Pangani","timezone":{"dstOffset":3,"gmtOffset":3,"timeZoneId":"Africa/Dar_es_Salaam"},"lat":-5.42526,"lng":38.97473,"population":8343},{"id":7284275,"name":"Nungwi","timezone":{"dstOffset":3,"gmtOffset":3,"timeZoneId":"Africa/Dar_es_Salaam"},"lat":-5.72651,"lng":39.2987,"population":8000},{"id":878054,"name":"Masuguru","timezone":{"dstOffset":3,"gmtOffset":3,"timeZoneId":"Africa/Dar_es_Salaam"},"lat":-11.36667,"lng":38.41667,"population":7946},{"id":157247,"name":"Kintinku","timezone":{"dstOffset":3,"gmtOffset":3,"timeZoneId":"Africa/Dar_es_Salaam"},"lat":-5.88333,"lng":35.23333,"population":7906},{"id":878184,"name":"Lulindi","timezone":{"dstOffset":3,"gmtOffset":3,"timeZoneId":"Africa/Dar_es_Salaam"},"lat":-10.81667,"lng":39.13333,"population":7807},{"id":158974,"name":"Issenye","timezone":{"dstOffset":3,"gmtOffset":3,"timeZoneId":"Africa/Dar_es_Salaam"},"lat":-2,"lng":34.33333,"population":7778},{"id":155274,"name":"Mahenge","timezone":{"dstOffset":3,"gmtOffset":3,"timeZoneId":"Africa/Dar_es_Salaam"},"lat":-8.68333,"lng":36.71667,"population":7768},{"id":152183,"name":"Mwaya","timezone":{"dstOffset":3,"gmtOffset":3,"timeZoneId":"Africa/Dar_es_Salaam"},"lat":-9.55,"lng":33.95,"population":7558},{"id":156312,"name":"Kwakoa","timezone":{"dstOffset":3,"gmtOffset":3,"timeZoneId":"Africa/Dar_es_Salaam"},"lat":-3.76667,"lng":37.71667,"population":7514},{"id":160971,"name":"Bukene","timezone":{"dstOffset":3,"gmtOffset":3,"timeZoneId":"Africa/Dar_es_Salaam"},"lat":-4.23333,"lng":32.88333,"population":7444},{"id":149114,"name":"Usoke","timezone":{"dstOffset":3,"gmtOffset":3,"timeZoneId":"Africa/Dar_es_Salaam"},"lat":-5.16667,"lng":32.35,"population":7295},{"id":156918,"name":"Kisiwani","timezone":{"dstOffset":3,"gmtOffset":3,"timeZoneId":"Africa/Dar_es_Salaam"},"lat":-4.13333,"lng":37.95,"population":7126},{"id":155052,"name":"Malangali","timezone":{"dstOffset":3,"gmtOffset":3,"timeZoneId":"Africa/Dar_es_Salaam"},"lat":-8.56667,"lng":34.85,"population":7112},{"id":152877,"name":"Mtambile","timezone":{"dstOffset":3,"gmtOffset":3,"timeZoneId":"Africa/Dar_es_Salaam"},"lat":-5.38333,"lng":39.7,"population":6797},{"id":151920,"name":"Nansio","timezone":{"dstOffset":3,"gmtOffset":3,"timeZoneId":"Africa/Dar_es_Salaam"},"lat":-2.13333,"lng":33.05,"population":6437},{"id":152009,"name":"Nakatunguru","timezone":{"dstOffset":3,"gmtOffset":3,"timeZoneId":"Africa/Dar_es_Salaam"},"lat":-2.11667,"lng":33.06667,"population":6064},{"id":157448,"name":"Kilimatinde","timezone":{"dstOffset":3,"gmtOffset":3,"timeZoneId":"Africa/Dar_es_Salaam"},"lat":-5.85,"lng":34.95,"population":5975},{"id":153247,"name":"Monduli","timezone":{"dstOffset":3,"gmtOffset":3,"timeZoneId":"Africa/Dar_es_Salaam"},"lat":-3.3,"lng":36.45,"population":5694},{"id":155263,"name":"Mahonda","timezone":{"dstOffset":3,"gmtOffset":3,"timeZoneId":"Africa/Dar_es_Salaam"},"lat":-6.45,"lng":39.46667,"population":5569},{"id":153046,"name":"Msanga","timezone":{"dstOffset":3,"gmtOffset":3,"timeZoneId":"Africa/Dar_es_Salaam"},"lat":-6.05,"lng":36.03333,"population":5527},{"id":151424,"name":"Nkove","timezone":{"dstOffset":3,"gmtOffset":3,"timeZoneId":"Africa/Dar_es_Salaam"},"lat":-7.95,"lng":30.85,"population":5389},{"id":158006,"name":"Kibaya","timezone":{"dstOffset":3,"gmtOffset":3,"timeZoneId":"Africa/Dar_es_Salaam"},"lat":-5.3,"lng":36.56667,"population":5028},{"id":158178,"name":"Katesh","timezone":{"dstOffset":3,"gmtOffset":3,"timeZoneId":"Africa/Dar_es_Salaam"},"lat":-4.52483,"lng":35.3849,"population":4943},{"id":154309,"name":"Mbuni","timezone":{"dstOffset":3,"gmtOffset":3,"timeZoneId":"Africa/Dar_es_Salaam"},"lat":-7.90577,"lng":39.21047,"population":4305},{"id":160950,"name":"Bukonyo","timezone":{"dstOffset":3,"gmtOffset":3,"timeZoneId":"Africa/Dar_es_Salaam"},"lat":-1.95,"lng":32.93333,"population":4051},{"id":157045,"name":"Kirya","timezone":{"dstOffset":3,"gmtOffset":3,"timeZoneId":"Africa/Dar_es_Salaam"},"lat":-3.91667,"lng":37.48333,"population":3998},{"id":157632,"name":"Kijini","timezone":{"dstOffset":3,"gmtOffset":3,"timeZoneId":"Africa/Dar_es_Salaam"},"lat":-5.85,"lng":39.31667,"population":3720},{"id":159936,"name":"Gamba","timezone":{"dstOffset":3,"gmtOffset":3,"timeZoneId":"Africa/Dar_es_Salaam"},"lat":-5.9,"lng":39.3,"population":3644},{"id":159219,"name":"Ilembo","timezone":{"dstOffset":3,"gmtOffset":3,"timeZoneId":"Africa/Dar_es_Salaam"},"lat":-9.25,"lng":33.38333,"population":2607},{"id":153585,"name":"Mkokotoni","timezone":{"dstOffset":3,"gmtOffset":3,"timeZoneId":"Africa/Dar_es_Salaam"},"lat":-5.87506,"lng":39.25523,"population":2572},{"id":149039,"name":"Uwelini","timezone":{"dstOffset":3,"gmtOffset":3,"timeZoneId":"Africa/Dar_es_Salaam"},"lat":-5.4,"lng":39.68333,"population":2472},{"id":156636,"name":"Kiwengwa","timezone":{"dstOffset":3,"gmtOffset":3,"timeZoneId":"Africa/Dar_es_Salaam"},"lat":-5.98957,"lng":39.3768,"population":2429},{"id":156588,"name":"Koani Ndogo","timezone":{"dstOffset":3,"gmtOffset":3,"timeZoneId":"Africa/Dar_es_Salaam"},"lat":-6.13333,"lng":39.28333,"population":2311},{"id":156589,"name":"Koani","timezone":{"dstOffset":3,"gmtOffset":3,"timeZoneId":"Africa/Dar_es_Salaam"},"lat":-6.13333,"lng":39.28333,"population":2211},{"id":151720,"name":"Nganane","timezone":{"dstOffset":3,"gmtOffset":3,"timeZoneId":"Africa/Dar_es_Salaam"},"lat":-6.4,"lng":39.55,"population":1929},{"id":9399202,"name":"Mvomero","timezone":{"dstOffset":3,"gmtOffset":3,"timeZoneId":"Africa/Dar_es_Salaam"},"lat":-6.30122,"lng":37.44398,"population":0}]