[{"id":5128581,"name":"New York","timezone":{"dstOffset":-4,"gmtOffset":-5,"timeZoneId":"America/New_York"},"lat":40.71427,"lng":-74.00597,"population":8175133},{"id":5368361,"name":"Los Angeles","timezone":{"dstOffset":-7,"gmtOffset":-8,"timeZoneId":"America/Los_Angeles"},"lat":34.05223,"lng":-118.24368,"population":3792621},{"id":4887398,"name":"Chicago","timezone":{"dstOffset":-5,"gmtOffset":-6,"timeZoneId":"America/Chicago"},"lat":41.85003,"lng":-87.65005,"population":2695598},{"id":5110302,"name":"Brooklyn","timezone":{"dstOffset":-4,"gmtOffset":-5,"timeZoneId":"America/New_York"},"lat":40.6501,"lng":-73.94958,"population":2300664},{"id":5133268,"name":"Borough of Queens","timezone":{"dstOffset":-4,"gmtOffset":-5,"timeZoneId":"America/New_York"},"lat":40.68149,"lng":-73.83652,"population":2272771},{"id":4699066,"name":"Houston","timezone":{"dstOffset":-5,"gmtOffset":-6,"timeZoneId":"America/Chicago"},"lat":29.76328,"lng":-95.36327,"population":2099451},{"id":4560349,"name":"Philadelphia","timezone":{"dstOffset":-4,"gmtOffset":-5,"timeZoneId":"America/New_York"},"lat":39.95234,"lng":-75.16379,"population":1526006},{"id":5125771,"name":"Manhattan","timezone":{"dstOffset":-4,"gmtOffset":-5,"timeZoneId":"America/New_York"},"lat":40.78343,"lng":-73.96625,"population":1487536},{"id":5308655,"name":"Phoenix","timezone":{"dstOffset":-7,"gmtOffset":-7,"timeZoneId":"America/Phoenix"},"lat":33.44838,"lng":-112.07404,"population":1445632},{"id":5110253,"name":"Bronx","timezone":{"dstOffset":-4,"gmtOffset":-5,"timeZoneId":"America/New_York"},"lat":40.84985,"lng":-73.86641,"population":1385108},{"id":4726206,"name":"San Antonio","timezone":{"dstOffset":-5,"gmtOffset":-6,"timeZoneId":"America/Chicago"},"lat":29.42412,"lng":-98.49363,"population":1327407},{"id":5391811,"name":"San Diego","timezone":{"dstOffset":-7,"gmtOffset":-8,"timeZoneId":"America/Los_Angeles"},"lat":32.71533,"lng":-117.15726,"population":1307402},{"id":4684888,"name":"Dallas","timezone":{"dstOffset":-5,"gmtOffset":-6,"timeZoneId":"America/Chicago"},"lat":32.78306,"lng":-96.80667,"population":1197816},{"id":5392171,"name":"San Jose","timezone":{"dstOffset":-7,"gmtOffset":-8,"timeZoneId":"America/Los_Angeles"},"lat":37.33939,"lng":-121.89496,"population":945942},{"id":4259418,"name":"Indianapolis","timezone":{"dstOffset":-4,"gmtOffset":-5,"timeZoneId":"America/Indiana/Indianapolis"},"lat":39.76838,"lng":-86.15804,"population":829718},{"id":4160021,"name":"Jacksonville","timezone":{"dstOffset":-4,"gmtOffset":-5,"timeZoneId":"America/New_York"},"lat":30.33218,"lng":-81.65565,"population":821784},{"id":5391959,"name":"San Francisco","timezone":{"dstOffset":-7,"gmtOffset":-8,"timeZoneId":"America/Los_Angeles"},"lat":37.77493,"lng":-122.41942,"population":805235},{"id":4671654,"name":"Austin","timezone":{"dstOffset":-5,"gmtOffset":-6,"timeZoneId":"America/Chicago"},"lat":30.26715,"lng":-97.74306,"population":790390},{"id":4509177,"name":"Columbus","timezone":{"dstOffset":-4,"gmtOffset":-5,"timeZoneId":"America/New_York"},"lat":39.96118,"lng":-82.99879,"population":787033},{"id":4691930,"name":"Fort Worth","timezone":{"dstOffset":-5,"gmtOffset":-6,"timeZoneId":"America/Chicago"},"lat":32.72541,"lng":-97.32085,"population":741206},{"id":4460243,"name":"Charlotte","timezone":{"dstOffset":-4,"gmtOffset":-5,"timeZoneId":"America/New_York"},"lat":35.22709,"lng":-80.84313,"population":731424},{"id":4990729,"name":"Detroit","timezone":{"dstOffset":-4,"gmtOffset":-5,"timeZoneId":"America/Detroit"},"lat":42.33143,"lng":-83.04575,"population":713777},{"id":5520993,"name":"El Paso","timezone":{"dstOffset":-6,"gmtOffset":-7,"timeZoneId":"America/Denver"},"lat":31.75872,"lng":-106.48693,"population":649121},{"id":4641239,"name":"Memphis","timezone":{"dstOffset":-5,"gmtOffset":-6,"timeZoneId":"America/Chicago"},"lat":35.14953,"lng":-90.04898,"population":646889},{"id":4645421,"name":"New South Memphis","timezone":{"dstOffset":-5,"gmtOffset":-6,"timeZoneId":"America/Chicago"},"lat":35.08676,"lng":-90.05676,"population":641608},{"id":4347778,"name":"Baltimore","timezone":{"dstOffset":-4,"gmtOffset":-5,"timeZoneId":"America/New_York"},"lat":39.29038,"lng":-76.61219,"population":620961},{"id":4930956,"name":"Boston","timezone":{"dstOffset":-4,"gmtOffset":-5,"timeZoneId":"America/New_York"},"lat":42.35843,"lng":-71.05977,"population":617594},{"id":5809844,"name":"Seattle","timezone":{"dstOffset":-7,"gmtOffset":-8,"timeZoneId":"America/Los_Angeles"},"lat":47.60621,"lng":-122.33207,"population":608660},{"id":4140963,"name":"Washington","timezone":{"dstOffset":-4,"gmtOffset":-5,"timeZoneId":"America/New_York"},"lat":38.89511,"lng":-77.03637,"population":601723},{"id":5419384,"name":"Denver","timezone":{"dstOffset":-6,"gmtOffset":-7,"timeZoneId":"America/Denver"},"lat":39.73915,"lng":-104.9847,"population":600158},{"id":5263045,"name":"Milwaukee","timezone":{"dstOffset":-5,"gmtOffset":-6,"timeZoneId":"America/Chicago"},"lat":43.0389,"lng":-87.90647,"population":594833},{"id":5746545,"name":"Portland","timezone":{"dstOffset":-7,"gmtOffset":-8,"timeZoneId":"America/Los_Angeles"},"lat":45.52345,"lng":-122.67621,"population":583776},{"id":5506956,"name":"Las Vegas","timezone":{"dstOffset":-7,"gmtOffset":-8,"timeZoneId":"America/Los_Angeles"},"lat":36.17497,"lng":-115.13722,"population":583756},{"id":4544349,"name":"Oklahoma City","timezone":{"dstOffset":-5,"gmtOffset":-6,"timeZoneId":"America/Chicago"},"lat":35.46756,"lng":-97.51643,"population":579999},{"id":4951305,"name":"South Boston","timezone":{"dstOffset":-4,"gmtOffset":-5,"timeZoneId":"America/New_York"},"lat":42.33343,"lng":-71.04949,"population":571281},{"id":5454711,"name":"Albuquerque","timezone":{"dstOffset":-6,"gmtOffset":-7,"timeZoneId":"America/Denver"},"lat":35.08449,"lng":-106.65114,"population":545852},{"id":4644585,"name":"Nashville","timezone":{"dstOffset":-5,"gmtOffset":-6,"timeZoneId":"America/Chicago"},"lat":36.16589,"lng":-86.78444,"population":530852},{"id":5318313,"name":"Tucson","timezone":{"dstOffset":-7,"gmtOffset":-7,"timeZoneId":"America/Phoenix"},"lat":32.22174,"lng":-110.92648,"population":520116},{"id":5350937,"name":"Fresno","timezone":{"dstOffset":-7,"gmtOffset":-8,"timeZoneId":"America/Los_Angeles"},"lat":36.74773,"lng":-119.77237,"population":494665},{"id":5139568,"name":"Staten Island","timezone":{"dstOffset":-4,"gmtOffset":-5,"timeZoneId":"America/New_York"},"lat":40.56233,"lng":-74.13986,"population":468730},{"id":5389489,"name":"Sacramento","timezone":{"dstOffset":-7,"gmtOffset":-8,"timeZoneId":"America/Los_Angeles"},"lat":38.58157,"lng":-121.4944,"population":466488},{"id":5367929,"name":"Long Beach","timezone":{"dstOffset":-7,"gmtOffset":-8,"timeZoneId":"America/Los_Angeles"},"lat":33.76696,"lng":-118.18923,"population":462257},{"id":4393217,"name":"Kansas City","timezone":{"dstOffset":-5,"gmtOffset":-6,"timeZoneId":"America/Chicago"},"lat":39.09973,"lng":-94.57857,"population":459787},{"id":5304391,"name":"Mesa","timezone":{"dstOffset":-7,"gmtOffset":-7,"timeZoneId":"America/Phoenix"},"lat":33.41253,"lng":-111.83189,"population":439041},{"id":4791259,"name":"Virginia Beach","timezone":{"dstOffset":-4,"gmtOffset":-5,"timeZoneId":"America/New_York"},"lat":36.85293,"lng":-75.97798,"population":437994},{"id":4180439,"name":"Atlanta","timezone":{"dstOffset":-4,"gmtOffset":-5,"timeZoneId":"America/New_York"},"lat":33.749,"lng":-84.38798,"population":420003},{"id":5417598,"name":"Colorado Springs","timezone":{"dstOffset":-6,"gmtOffset":-7,"timeZoneId":"America/Denver"},"lat":38.83388,"lng":-104.82136,"population":416427},{"id":5074472,"name":"Omaha","timezone":{"dstOffset":-5,"gmtOffset":-6,"timeZoneId":"America/Chicago"},"lat":41.25861,"lng":-95.93779,"population":408958},{"id":4487042,"name":"Raleigh","timezone":{"dstOffset":-4,"gmtOffset":-5,"timeZoneId":"America/New_York"},"lat":35.7721,"lng":-78.63861,"population":403892},{"id":4164138,"name":"Miami","timezone":{"dstOffset":-4,"gmtOffset":-5,"timeZoneId":"America/New_York"},"lat":25.77427,"lng":-80.19366,"population":399457},{"id":5150529,"name":"Cleveland","timezone":{"dstOffset":-4,"gmtOffset":-5,"timeZoneId":"America/New_York"},"lat":41.4995,"lng":-81.69541,"population":396815},{"id":4553433,"name":"Tulsa","timezone":{"dstOffset":-5,"gmtOffset":-6,"timeZoneId":"America/Chicago"},"lat":36.15398,"lng":-95.99278,"population":391906},{"id":5378538,"name":"Oakland","timezone":{"dstOffset":-7,"gmtOffset":-8,"timeZoneId":"America/Los_Angeles"},"lat":37.80437,"lng":-122.2708,"population":390724},{"id":5037649,"name":"Minneapolis","timezone":{"dstOffset":-5,"gmtOffset":-6,"timeZoneId":"America/Chicago"},"lat":44.97997,"lng":-93.26384,"population":382578},{"id":4281730,"name":"Wichita","timezone":{"dstOffset":-5,"gmtOffset":-6,"timeZoneId":"America/Chicago"},"lat":37.69224,"lng":-97.33754,"population":382368},{"id":5856195,"name":"Honolulu","timezone":{"dstOffset":-10,"gmtOffset":-10,"timeZoneId":"Pacific/Honolulu"},"lat":21.30694,"lng":-157.85833,"population":371657},{"id":4671240,"name":"Arlington","timezone":{"dstOffset":-5,"gmtOffset":-6,"timeZoneId":"America/Chicago"},"lat":32.73569,"lng":-97.10807,"population":365438},{"id":5325738,"name":"Bakersfield","timezone":{"dstOffset":-7,"gmtOffset":-8,"timeZoneId":"America/Los_Angeles"},"lat":35.37329,"lng":-119.01871,"population":347483},{"id":4335045,"name":"New Orleans","timezone":{"dstOffset":-5,"gmtOffset":-6,"timeZoneId":"America/Chicago"},"lat":29.95465,"lng":-90.07507,"population":343829},{"id":4498303,"name":"West Raleigh","timezone":{"dstOffset":-4,"gmtOffset":-5,"timeZoneId":"America/New_York"},"lat":35.78682,"lng":-78.66389,"population":338759},{"id":5323810,"name":"Anaheim","timezone":{"dstOffset":-7,"gmtOffset":-8,"timeZoneId":"America/Los_Angeles"},"lat":33.83529,"lng":-117.9145,"population":336265},{"id":4174757,"name":"Tampa","timezone":{"dstOffset":-4,"gmtOffset":-5,"timeZoneId":"America/New_York"},"lat":27.94752,"lng":-82.45843,"population":335709},{"id":5412347,"name":"Aurora","timezone":{"dstOffset":-6,"gmtOffset":-7,"timeZoneId":"America/Denver"},"lat":39.72943,"lng":-104.83192,"population":325078},{"id":5392900,"name":"Santa Ana","timezone":{"dstOffset":-7,"gmtOffset":-8,"timeZoneId":"America/Los_Angeles"},"lat":33.74557,"lng":-117.86783,"population":324528},{"id":4407066,"name":"St Louis","timezone":{"dstOffset":-5,"gmtOffset":-6,"timeZoneId":"America/Chicago"},"lat":38.62727,"lng":-90.19789,"population":319294},{"id":5206379,"name":"Pittsburgh","timezone":{"dstOffset":-4,"gmtOffset":-5,"timeZoneId":"America/New_York"},"lat":40.44062,"lng":-79.99589,"population":305704},{"id":4683416,"name":"Corpus Christi","timezone":{"dstOffset":-5,"gmtOffset":-6,"timeZoneId":"America/Chicago"},"lat":27.80058,"lng":-97.39638,"population":305215},{"id":5387877,"name":"Riverside","timezone":{"dstOffset":-7,"gmtOffset":-8,"timeZoneId":"America/Los_Angeles"},"lat":33.95335,"lng":-117.39616,"population":303871},{"id":4508722,"name":"Cincinnati","timezone":{"dstOffset":-4,"gmtOffset":-5,"timeZoneId":"America/New_York"},"lat":39.162,"lng":-84.45689,"population":296943},{"id":4297999,"name":"Lexington-Fayette","timezone":{"dstOffset":-4,"gmtOffset":-5,"timeZoneId":"America/New_York"},"lat":38.0498,"lng":-84.45855,"population":295803},{"id":5879400,"name":"Anchorage","timezone":{"dstOffset":-8,"gmtOffset":-9,"timeZoneId":"America/Anchorage"},"lat":61.21806,"lng":-149.90028,"population":291826},{"id":5399020,"name":"Stockton","timezone":{"dstOffset":-7,"gmtOffset":-8,"timeZoneId":"America/Los_Angeles"},"lat":37.9577,"lng":-121.29078,"population":291707},{"id":4295940,"name":"Ironville","timezone":{"dstOffset":-4,"gmtOffset":-5,"timeZoneId":"America/New_York"},"lat":38.45647,"lng":-82.69238,"population":288649},{"id":4300488,"name":"Meads","timezone":{"dstOffset":-4,"gmtOffset":-5,"timeZoneId":"America/New_York"},"lat":38.41258,"lng":-82.70905,"population":288649},{"id":5174035,"name":"Toledo","timezone":{"dstOffset":-4,"gmtOffset":-5,"timeZoneId":"America/New_York"},"lat":41.66394,"lng":-83.55521,"population":287208},{"id":5045360,"name":"Saint Paul","timezone":{"dstOffset":-5,"gmtOffset":-6,"timeZoneId":"America/Chicago"},"lat":44.94441,"lng":-93.09327,"population":285068},{"id":5101798,"name":"Newark","timezone":{"dstOffset":-4,"gmtOffset":-5,"timeZoneId":"America/New_York"},"lat":40.73566,"lng":-74.17237,"population":277140},{"id":4469146,"name":"Greensboro","timezone":{"dstOffset":-4,"gmtOffset":-5,"timeZoneId":"America/New_York"},"lat":36.07264,"lng":-79.79198,"population":269666},{"id":5110629,"name":"Buffalo","timezone":{"dstOffset":-4,"gmtOffset":-5,"timeZoneId":"America/New_York"},"lat":42.88645,"lng":-78.87837,"population":261310},{"id":4719457,"name":"Plano","timezone":{"dstOffset":-5,"gmtOffset":-6,"timeZoneId":"America/Chicago"},"lat":33.01984,"lng":-96.69889,"population":259841},{"id":5072006,"name":"Lincoln","timezone":{"dstOffset":-5,"gmtOffset":-6,"timeZoneId":"America/Chicago"},"lat":40.8,"lng":-96.66696,"population":258379},{"id":5505411,"name":"Henderson","timezone":{"dstOffset":-7,"gmtOffset":-8,"timeZoneId":"America/Los_Angeles"},"lat":36.0397,"lng":-114.98194,"population":257729},{"id":4920423,"name":"Fort Wayne","timezone":{"dstOffset":-4,"gmtOffset":-5,"timeZoneId":"America/Indiana/Indianapolis"},"lat":41.1306,"lng":-85.12886,"population":253691},{"id":5099836,"name":"Jersey City","timezone":{"dstOffset":-4,"gmtOffset":-5,"timeZoneId":"America/New_York"},"lat":40.72816,"lng":-74.07764,"population":247597},{"id":4171563,"name":"Saint Petersburg","timezone":{"dstOffset":-4,"gmtOffset":-5,"timeZoneId":"America/New_York"},"lat":27.77086,"lng":-82.67927,"population":244769},{"id":5336899,"name":"Chula Vista","timezone":{"dstOffset":-7,"gmtOffset":-8,"timeZoneId":"America/Los_Angeles"},"lat":32.64005,"lng":-117.0842,"population":243916},{"id":4299276,"name":"Louisville","timezone":{"dstOffset":-4,"gmtOffset":-5,"timeZoneId":"America/Kentucky/Louisville"},"lat":38.25424,"lng":-85.75941,"population":243639},{"id":4776222,"name":"Norfolk","timezone":{"dstOffset":-4,"gmtOffset":-5,"timeZoneId":"America/New_York"},"lat":36.84681,"lng":-76.28522,"population":242803},{"id":4167147,"name":"Orlando","timezone":{"dstOffset":-4,"gmtOffset":-5,"timeZoneId":"America/New_York"},"lat":28.53834,"lng":-81.37924,"population":238300},{"id":5289282,"name":"Chandler","timezone":{"dstOffset":-7,"gmtOffset":-7,"timeZoneId":"America/Phoenix"},"lat":33.30616,"lng":-111.84125,"population":236123},{"id":4705349,"name":"Laredo","timezone":{"dstOffset":-5,"gmtOffset":-6,"timeZoneId":"America/Chicago"},"lat":27.50641,"lng":-99.50754,"population":236091},{"id":5261457,"name":"Madison","timezone":{"dstOffset":-5,"gmtOffset":-6,"timeZoneId":"America/Chicago"},"lat":43.07305,"lng":-89.40123,"population":233209},{"id":4499612,"name":"Winston-Salem","timezone":{"dstOffset":-4,"gmtOffset":-5,"timeZoneId":"America/New_York"},"lat":36.09986,"lng":-80.24422,"population":229617},{"id":5525577,"name":"Lubbock","timezone":{"dstOffset":-5,"gmtOffset":-6,"timeZoneId":"America/Chicago"},"lat":33.57786,"lng":-101.85517,"population":229573},{"id":4315588,"name":"Baton Rouge","timezone":{"dstOffset":-5,"gmtOffset":-6,"timeZoneId":"America/Chicago"},"lat":30.45075,"lng":-91.15455,"population":229493},{"id":4464368,"name":"Durham","timezone":{"dstOffset":-4,"gmtOffset":-5,"timeZoneId":"America/New_York"},"lat":35.99403,"lng":-78.89862,"population":228330},{"id":4693003,"name":"Garland","timezone":{"dstOffset":-5,"gmtOffset":-6,"timeZoneId":"America/Chicago"},"lat":32.91262,"lng":-96.63888,"population":226876},{"id":5295985,"name":"Glendale","timezone":{"dstOffset":-7,"gmtOffset":-7,"timeZoneId":"America/Phoenix"},"lat":33.53865,"lng":-112.18599,"population":226721},{"id":4297983,"name":"Lexington","timezone":{"dstOffset":-4,"gmtOffset":-5,"timeZoneId":"America/New_York"},"lat":37.98869,"lng":-84.47772,"population":225366},{"id":5511077,"name":"Reno","timezone":{"dstOffset":-7,"gmtOffset":-8,"timeZoneId":"America/Los_Angeles"},"lat":39.52963,"lng":-119.8138,"population":225221},{"id":4158476,"name":"Hialeah","timezone":{"dstOffset":-4,"gmtOffset":-5,"timeZoneId":"America/New_York"},"lat":25.8576,"lng":-80.27811,"population":224669},{"id":5509952,"name":"Paradise","timezone":{"dstOffset":-7,"gmtOffset":-8,"timeZoneId":"America/Los_Angeles"},"lat":36.09719,"lng":-115.14666,"population":223167},{"id":4752186,"name":"Chesapeake","timezone":{"dstOffset":-4,"gmtOffset":-5,"timeZoneId":"America/New_York"},"lat":36.81904,"lng":-76.27494,"population":222209},{"id":5313457,"name":"Scottsdale","timezone":{"dstOffset":-7,"gmtOffset":-7,"timeZoneId":"America/Phoenix"},"lat":33.50921,"lng":-111.89903,"population":217385},{"id":5509403,"name":"North Las Vegas","timezone":{"dstOffset":-7,"gmtOffset":-8,"timeZoneId":"America/Los_Angeles"},"lat":36.19886,"lng":-115.1175,"population":216961},{"id":5122520,"name":"Jamaica","timezone":{"dstOffset":-4,"gmtOffset":-5,"timeZoneId":"America/New_York"},"lat":40.69149,"lng":-73.80569,"population":216866},{"id":4700168,"name":"Irving","timezone":{"dstOffset":-5,"gmtOffset":-6,"timeZoneId":"America/Chicago"},"lat":32.81402,"lng":-96.94889,"population":216290},{"id":5350734,"name":"Fremont","timezone":{"dstOffset":-7,"gmtOffset":-8,"timeZoneId":"America/Los_Angeles"},"lat":37.54827,"lng":-121.98857,"population":214089},{"id":5359777,"name":"Irvine","timezone":{"dstOffset":-7,"gmtOffset":-8,"timeZoneId":"America/Los_Angeles"},"lat":33.66946,"lng":-117.82311,"population":212375},{"id":4049979,"name":"Birmingham","timezone":{"dstOffset":-5,"gmtOffset":-6,"timeZoneId":"America/Chicago"},"lat":33.52066,"lng":-86.80249,"population":212237},{"id":5134086,"name":"Rochester","timezone":{"dstOffset":-4,"gmtOffset":-5,"timeZoneId":"America/New_York"},"lat":43.15478,"lng":-77.61556,"population":210565},{"id":5391710,"name":"San Bernardino","timezone":{"dstOffset":-7,"gmtOffset":-8,"timeZoneId":"America/Los_Angeles"},"lat":34.10834,"lng":-117.28977,"population":209924},{"id":5811696,"name":"Spokane","timezone":{"dstOffset":-7,"gmtOffset":-8,"timeZoneId":"America/Los_Angeles"},"lat":47.65966,"lng":-117.42908,"population":208916},{"id":5295903,"name":"Gilbert","timezone":{"dstOffset":-7,"gmtOffset":-7,"timeZoneId":"America/Phoenix"},"lat":33.35283,"lng":-111.78903,"population":208453},{"id":4744709,"name":"Arlington","timezone":{"dstOffset":-4,"gmtOffset":-5,"timeZoneId":"America/New_York"},"lat":38.88101,"lng":-77.10428,"population":207627},{"id":4076784,"name":"Montgomery","timezone":{"dstOffset":-5,"gmtOffset":-6,"timeZoneId":"America/Chicago"},"lat":32.36681,"lng":-86.29997,"population":205764},{"id":4781708,"name":"Richmond","timezone":{"dstOffset":-4,"gmtOffset":-5,"timeZoneId":"America/New_York"},"lat":37.55376,"lng":-77.46026,"population":204214},{"id":4853828,"name":"Des Moines","timezone":{"dstOffset":-5,"gmtOffset":-6,"timeZoneId":"America/Chicago"},"lat":41.60054,"lng":-93.60911,"population":203433},{"id":5377613,"name":"North Glendale","timezone":{"dstOffset":-7,"gmtOffset":-8,"timeZoneId":"America/Los_Angeles"},"lat":34.16056,"lng":-118.26452,"population":203201},{"id":5373900,"name":"Modesto","timezone":{"dstOffset":-7,"gmtOffset":-8,"timeZoneId":"America/Los_Angeles"},"lat":37.6391,"lng":-120.99688,"population":201165},{"id":4466033,"name":"Fayetteville","timezone":{"dstOffset":-4,"gmtOffset":-5,"timeZoneId":"America/New_York"},"lat":35.05266,"lng":-78.87836,"population":200564},{"id":4341513,"name":"Shreveport","timezone":{"dstOffset":-5,"gmtOffset":-6,"timeZoneId":"America/Chicago"},"lat":32.52515,"lng":-93.75018,"population":199311},{"id":5145476,"name":"Akron","timezone":{"dstOffset":-4,"gmtOffset":-5,"timeZoneId":"America/New_York"},"lat":41.08144,"lng":-81.51901,"population":199110},{"id":5812944,"name":"Tacoma","timezone":{"dstOffset":-7,"gmtOffset":-8,"timeZoneId":"America/Los_Angeles"},"lat":47.25288,"lng":-122.44429,"population":198397},{"id":4883817,"name":"Aurora","timezone":{"dstOffset":-5,"gmtOffset":-6,"timeZoneId":"America/Chicago"},"lat":41.76058,"lng":-88.32007,"population":197899},{"id":5380184,"name":"Oxnard","timezone":{"dstOffset":-7,"gmtOffset":-8,"timeZoneId":"America/Los_Angeles"},"lat":34.1975,"lng":-119.17705,"population":197899},{"id":5349755,"name":"Fontana","timezone":{"dstOffset":-7,"gmtOffset":-8,"timeZoneId":"America/Los_Angeles"},"lat":34.09223,"lng":-117.43505,"population":196069},{"id":5145215,"name":"Yonkers","timezone":{"dstOffset":-4,"gmtOffset":-5,"timeZoneId":"America/New_York"},"lat":40.93121,"lng":-73.89875,"population":195976},{"id":4076598,"name":"Mobile","timezone":{"dstOffset":-5,"gmtOffset":-6,"timeZoneId":"America/Chicago"},"lat":30.69436,"lng":-88.04305,"population":195111},{"id":4119403,"name":"Little Rock","timezone":{"dstOffset":-5,"gmtOffset":-6,"timeZoneId":"America/Chicago"},"lat":34.74648,"lng":-92.28959,"population":193524},{"id":5374732,"name":"Moreno Valley","timezone":{"dstOffset":-7,"gmtOffset":-8,"timeZoneId":"America/Los_Angeles"},"lat":33.93752,"lng":-117.23059,"population":193365},{"id":5352423,"name":"Glendale","timezone":{"dstOffset":-7,"gmtOffset":-8,"timeZoneId":"America/Los_Angeles"},"lat":34.14251,"lng":-118.25508,"population":191719},{"id":5516233,"name":"Amarillo","timezone":{"dstOffset":-5,"gmtOffset":-6,"timeZoneId":"America/Chicago"},"lat":35.222,"lng":-101.8313,"population":190695},{"id":5358705,"name":"Huntington Beach","timezone":{"dstOffset":-7,"gmtOffset":-8,"timeZoneId":"America/Los_Angeles"},"lat":33.6603,"lng":-117.99923,"population":189992},{"id":4188985,"name":"Columbus","timezone":{"dstOffset":-4,"gmtOffset":-5,"timeZoneId":"America/New_York"},"lat":32.46098,"lng":-84.98771,"population":189885},{"id":5513343,"name":"Sunrise Manor","timezone":{"dstOffset":-7,"gmtOffset":-8,"timeZoneId":"America/Los_Angeles"},"lat":36.21108,"lng":-115.07306,"population":189372},{"id":4994358,"name":"Grand Rapids","timezone":{"dstOffset":-4,"gmtOffset":-5,"timeZoneId":"America/Detroit"},"lat":42.96336,"lng":-85.66809,"population":188040},{"id":5380202,"name":"Oxnard Shores","timezone":{"dstOffset":-7,"gmtOffset":-8,"timeZoneId":"America/Los_Angeles"},"lat":34.19084,"lng":-119.2415,"population":187235},{"id":5780993,"name":"Salt Lake City","timezone":{"dstOffset":-6,"gmtOffset":-7,"timeZoneId":"America/Denver"},"lat":40.76078,"lng":-111.89105,"population":186440},{"id":4174715,"name":"Tallahassee","timezone":{"dstOffset":-4,"gmtOffset":-5,"timeZoneId":"America/New_York"},"lat":30.43826,"lng":-84.28073,"population":181376},{"id":4956184,"name":"Worcester","timezone":{"dstOffset":-4,"gmtOffset":-5,"timeZoneId":"America/New_York"},"lat":42.26259,"lng":-71.80229,"population":181045},{"id":4776024,"name":"Newport News","timezone":{"dstOffset":-4,"gmtOffset":-5,"timeZoneId":"America/New_York"},"lat":36.97876,"lng":-76.428,"population":180719},{"id":4068590,"name":"Huntsville","timezone":{"dstOffset":-5,"gmtOffset":-6,"timeZoneId":"America/Chicago"},"lat":34.73037,"lng":-86.5861,"population":180105},{"id":4634946,"name":"Knoxville","timezone":{"dstOffset":-4,"gmtOffset":-5,"timeZoneId":"America/New_York"},"lat":35.96064,"lng":-83.92074,"population":178874},{"id":5512909,"name":"Spring Valley","timezone":{"dstOffset":-7,"gmtOffset":-8,"timeZoneId":"America/Los_Angeles"},"lat":36.10803,"lng":-115.245,"population":178395},{"id":5224151,"name":"Providence","timezone":{"dstOffset":-4,"gmtOffset":-5,"timeZoneId":"America/New_York"},"lat":41.82399,"lng":-71.41283,"population":178042},{"id":5393049,"name":"Santa Clarita","timezone":{"dstOffset":-7,"gmtOffset":-8,"timeZoneId":"America/Los_Angeles"},"lat":34.39166,"lng":-118.54259,"population":176320},{"id":4694482,"name":"Grand Prairie","timezone":{"dstOffset":-5,"gmtOffset":-6,"timeZoneId":"America/Chicago"},"lat":32.74596,"lng":-96.99778,"population":175396},{"id":4676740,"name":"Brownsville","timezone":{"dstOffset":-5,"gmtOffset":-6,"timeZoneId":"America/Chicago"},"lat":25.90175,"lng":-97.49748,"population":175023},{"id":4431410,"name":"Jackson","timezone":{"dstOffset":-5,"gmtOffset":-6,"timeZoneId":"America/Chicago"},"lat":32.29876,"lng":-90.18481,"population":173514},{"id":4276873,"name":"Overland Park","timezone":{"dstOffset":-5,"gmtOffset":-6,"timeZoneId":"America/Chicago"},"lat":38.98223,"lng":-94.67079,"population":173372},{"id":5115985,"name":"East New York","timezone":{"dstOffset":-4,"gmtOffset":-5,"timeZoneId":"America/New_York"},"lat":40.66677,"lng":-73.88236,"population":173198},{"id":5351515,"name":"Garden Grove","timezone":{"dstOffset":-7,"gmtOffset":-8,"timeZoneId":"America/Los_Angeles"},"lat":33.77391,"lng":-117.94145,"population":170883},{"id":5393287,"name":"Santa Rosa","timezone":{"dstOffset":-7,"gmtOffset":-8,"timeZoneId":"America/Los_Angeles"},"lat":38.44047,"lng":-122.71443,"population":167815},{"id":4612862,"name":"Chattanooga","timezone":{"dstOffset":-4,"gmtOffset":-5,"timeZoneId":"America/New_York"},"lat":35.04563,"lng":-85.30968,"population":167674},{"id":5357527,"name":"Hollywood","timezone":{"dstOffset":-7,"gmtOffset":-8,"timeZoneId":"America/Los_Angeles"},"lat":34.09834,"lng":-118.32674,"population":167664},{"id":5378771,"name":"Oceanside","timezone":{"dstOffset":-7,"gmtOffset":-8,"timeZoneId":"America/Los_Angeles"},"lat":33.19587,"lng":-117.37948,"population":167086},{"id":4155966,"name":"Fort Lauderdale","timezone":{"dstOffset":-4,"gmtOffset":-5,"timeZoneId":"America/New_York"},"lat":26.12231,"lng":-80.14338,"population":165521},{"id":5385955,"name":"Rancho Cucamonga","timezone":{"dstOffset":-7,"gmtOffset":-8,"timeZoneId":"America/Los_Angeles"},"lat":34.1064,"lng":-117.59311,"population":165269},{"id":4169171,"name":"Port Saint Lucie","timezone":{"dstOffset":-4,"gmtOffset":-5,"timeZoneId":"America/New_York"},"lat":27.29393,"lng":-80.35033,"population":164603},{"id":5379439,"name":"Ontario","timezone":{"dstOffset":-7,"gmtOffset":-8,"timeZoneId":"America/Los_Angeles"},"lat":34.06334,"lng":-117.65089,"population":163924},{"id":5814616,"name":"Vancouver","timezone":{"dstOffset":-7,"gmtOffset":-8,"timeZoneId":"America/Los_Angeles"},"lat":45.63873,"lng":-122.66149,"population":161791},{"id":5317058,"name":"Tempe","timezone":{"dstOffset":-7,"gmtOffset":-7,"timeZoneId":"America/Phoenix"},"lat":33.41477,"lng":-111.90931,"population":161719},{"id":4409896,"name":"Springfield","timezone":{"dstOffset":-5,"gmtOffset":-6,"timeZoneId":"America/Chicago"},"lat":37.21533,"lng":-93.29824,"population":159498},{"id":5317071,"name":"Tempe Junction","timezone":{"dstOffset":-7,"gmtOffset":-7,"timeZoneId":"America/Phoenix"},"lat":33.41421,"lng":-111.94348,"population":158368},{"id":5364940,"name":"Lancaster","timezone":{"dstOffset":-7,"gmtOffset":-8,"timeZoneId":"America/Los_Angeles"},"lat":34.69804,"lng":-118.13674,"population":156633},{"id":5725846,"name":"Eugene","timezone":{"dstOffset":-7,"gmtOffset":-8,"timeZoneId":"America/Los_Angeles"},"lat":44.05207,"lng":-123.08675,"population":156185},{"id":4168139,"name":"Pembroke Pines","timezone":{"dstOffset":-4,"gmtOffset":-5,"timeZoneId":"America/New_York"},"lat":26.00315,"lng":-80.22394,"population":154750},{"id":5750162,"name":"Salem","timezone":{"dstOffset":-7,"gmtOffset":-8,"timeZoneId":"America/Los_Angeles"},"lat":44.9429,"lng":-123.0351,"population":154637},{"id":4149962,"name":"Cape Coral","timezone":{"dstOffset":-4,"gmtOffset":-5,"timeZoneId":"America/New_York"},"lat":26.56285,"lng":-81.94953,"population":154305},{"id":5308480,"name":"Peoria","timezone":{"dstOffset":-7,"gmtOffset":-7,"timeZoneId":"America/Phoenix"},"lat":33.5806,"lng":-112.23738,"population":154065},{"id":4619947,"name":"East Chattanooga","timezone":{"dstOffset":-4,"gmtOffset":-5,"timeZoneId":"America/New_York"},"lat":35.06535,"lng":-85.24912,"population":154024},{"id":5231851,"name":"Sioux Falls","timezone":{"dstOffset":-5,"gmtOffset":-6,"timeZoneId":"America/Chicago"},"lat":43.54997,"lng":-96.70033,"population":153888},{"id":4951788,"name":"Springfield","timezone":{"dstOffset":-4,"gmtOffset":-5,"timeZoneId":"America/New_York"},"lat":42.10148,"lng":-72.58981,"population":153060},{"id":5346111,"name":"Elk Grove","timezone":{"dstOffset":-7,"gmtOffset":-8,"timeZoneId":"America/Los_Angeles"},"lat":38.4088,"lng":-121.37162,"population":153015},{"id":4907959,"name":"Rockford","timezone":{"dstOffset":-5,"gmtOffset":-6,"timeZoneId":"America/Chicago"},"lat":42.27113,"lng":-89.094,"population":152871},{"id":5380698,"name":"Palmdale","timezone":{"dstOffset":-7,"gmtOffset":-8,"timeZoneId":"America/Los_Angeles"},"lat":34.57943,"lng":-118.11646,"population":152750},{"id":5339631,"name":"Corona","timezone":{"dstOffset":-7,"gmtOffset":-8,"timeZoneId":"America/Los_Angeles"},"lat":33.87529,"lng":-117.56644,"population":152374},{"id":5391295,"name":"Salinas","timezone":{"dstOffset":-7,"gmtOffset":-8,"timeZoneId":"America/Los_Angeles"},"lat":36.67774,"lng":-121.6555,"population":150441},{"id":5384170,"name":"Pomona","timezone":{"dstOffset":-7,"gmtOffset":-8,"timeZoneId":"America/Los_Angeles"},"lat":34.05529,"lng":-117.75228,"population":149058},{"id":4717782,"name":"Pasadena","timezone":{"dstOffset":-5,"gmtOffset":-6,"timeZoneId":"America/Chicago"},"lat":29.69106,"lng":-95.2091,"population":149043},{"id":5405288,"name":"Valencia","timezone":{"dstOffset":-7,"gmtOffset":-8,"timeZoneId":"America/Los_Angeles"},"lat":34.44361,"lng":-118.60953,"population":148456},{"id":4756955,"name":"East Hampton","timezone":{"dstOffset":-4,"gmtOffset":-5,"timeZoneId":"America/New_York"},"lat":37.03737,"lng":-76.33161,"population":147993},{"id":4898015,"name":"Joliet","timezone":{"dstOffset":-5,"gmtOffset":-6,"timeZoneId":"America/Chicago"},"lat":41.52519,"lng":-88.0834,"population":147433},{"id":5102466,"name":"Paterson","timezone":{"dstOffset":-4,"gmtOffset":-5,"timeZoneId":"America/New_York"},"lat":40.91677,"lng":-74.17181,"population":146199},{"id":5586437,"name":"Boise","timezone":{"dstOffset":-6,"gmtOffset":-7,"timeZoneId":"America/Boise"},"lat":43.6135,"lng":-116.20345,"population":145987},{"id":4273837,"name":"Kansas City","timezone":{"dstOffset":-5,"gmtOffset":-6,"timeZoneId":"America/Chicago"},"lat":39.11417,"lng":-94.62746,"population":145786},{"id":5403022,"name":"Torrance","timezone":{"dstOffset":-7,"gmtOffset":-8,"timeZoneId":"America/Los_Angeles"},"lat":33.83585,"lng":-118.34063,"population":145438},{"id":5140405,"name":"Syracuse","timezone":{"dstOffset":-4,"gmtOffset":-5,"timeZoneId":"America/New_York"},"lat":43.04812,"lng":-76.14742,"population":145170},{"id":5282804,"name":"Bridgeport","timezone":{"dstOffset":-4,"gmtOffset":-5,"timeZoneId":"America/New_York"},"lat":41.16704,"lng":-73.20483,"population":144229},{"id":5355933,"name":"Hayward","timezone":{"dstOffset":-7,"gmtOffset":-8,"timeZoneId":"America/Los_Angeles"},"lat":37.66882,"lng":-122.0808,"population":144186},{"id":5577147,"name":"Fort Collins","timezone":{"dstOffset":-6,"gmtOffset":-7,"timeZoneId":"America/Denver"},"lat":40.58526,"lng":-105.08442,"population":143986},{"id":5346827,"name":"Escondido","timezone":{"dstOffset":-7,"gmtOffset":-8,"timeZoneId":"America/Los_Angeles"},"lat":33.11921,"lng":-117.08642,"population":143911},{"id":5427946,"name":"Lakewood","timezone":{"dstOffset":-6,"gmtOffset":-7,"timeZoneId":"America/Denver"},"lat":39.70471,"lng":-105.08137,"population":142980},{"id":4333190,"name":"Metairie Terrace","timezone":{"dstOffset":-5,"gmtOffset":-6,"timeZoneId":"America/Chicago"},"lat":29.97854,"lng":-90.16396,"population":142489},{"id":4903279,"name":"Naperville","timezone":{"dstOffset":-5,"gmtOffset":-6,"timeZoneId":"America/Chicago"},"lat":41.78586,"lng":-88.14729,"population":141853},{"id":4509884,"name":"Dayton","timezone":{"dstOffset":-4,"gmtOffset":-5,"timeZoneId":"America/New_York"},"lat":39.75895,"lng":-84.19161,"population":141527},{"id":4158928,"name":"Hollywood","timezone":{"dstOffset":-4,"gmtOffset":-5,"timeZoneId":"America/New_York"},"lat":26.0112,"lng":-80.14949,"population":140768},{"id":5400075,"name":"Sunnyvale","timezone":{"dstOffset":-7,"gmtOffset":-8,"timeZoneId":"America/Los_Angeles"},"lat":37.36883,"lng":-122.03635,"population":140081},{"id":4744091,"name":"Alexandria","timezone":{"dstOffset":-4,"gmtOffset":-5,"timeZoneId":"America/New_York"},"lat":38.80484,"lng":-77.04692,"population":139966},{"id":4710826,"name":"Mesquite","timezone":{"dstOffset":-5,"gmtOffset":-6,"timeZoneId":"America/Chicago"},"lat":32.7668,"lng":-96.59916,"population":139824},{"id":4333177,"name":"Metairie","timezone":{"dstOffset":-5,"gmtOffset":-6,"timeZoneId":"America/Chicago"},"lat":29.98409,"lng":-90.15285,"population":138481},{"id":4762894,"name":"Hampton","timezone":{"dstOffset":-4,"gmtOffset":-5,"timeZoneId":"America/New_York"},"lat":37.02987,"lng":-76.34522,"population":137436},{"id":5381396,"name":"Pasadena","timezone":{"dstOffset":-7,"gmtOffset":-8,"timeZoneId":"America/Los_Angeles"},"lat":34.14778,"lng":-118.14452,"population":137122},{"id":5405693,"name":"Van Nuys","timezone":{"dstOffset":-7,"gmtOffset":-8,"timeZoneId":"America/Los_Angeles"},"lat":34.18667,"lng":-118.44897,"population":136443},{"id":5379513,"name":"Orange","timezone":{"dstOffset":-7,"gmtOffset":-8,"timeZoneId":"America/Los_Angeles"},"lat":33.78779,"lng":-117.85311,"population":136416},{"id":4221552,"name":"Savannah","timezone":{"dstOffset":-4,"gmtOffset":-5,"timeZoneId":"America/New_York"},"lat":32.08354,"lng":-81.09983,"population":136286},{"id":4459467,"name":"Cary","timezone":{"dstOffset":-4,"gmtOffset":-5,"timeZoneId":"America/New_York"},"lat":35.79154,"lng":-78.78112,"population":135234},{"id":5351247,"name":"Fullerton","timezone":{"dstOffset":-7,"gmtOffset":-8,"timeZoneId":"America/Los_Angeles"},"lat":33.87029,"lng":-117.92534,"population":135161},{"id":5014051,"name":"Warren","timezone":{"dstOffset":-4,"gmtOffset":-5,"timeZoneId":"America/Detroit"},"lat":42.47754,"lng":-83.0277,"population":134056},{"id":4613868,"name":"Clarksville","timezone":{"dstOffset":-5,"gmtOffset":-6,"timeZoneId":"America/Chicago"},"lat":36.52977,"lng":-87.35945,"population":132929},{"id":4710178,"name":"McKinney","timezone":{"dstOffset":-5,"gmtOffset":-6,"timeZoneId":"America/Chicago"},"lat":33.19762,"lng":-96.61527,"population":131117},{"id":4709796,"name":"McAllen","timezone":{"dstOffset":-5,"gmtOffset":-6,"timeZoneId":"America/Chicago"},"lat":26.20341,"lng":-98.23001,"population":129877},{"id":4839366,"name":"New Haven","timezone":{"dstOffset":-4,"gmtOffset":-5,"timeZoneId":"America/New_York"},"lat":41.30815,"lng":-72.92816,"population":129779},{"id":5011148,"name":"Sterling Heights","timezone":{"dstOffset":-4,"gmtOffset":-5,"timeZoneId":"America/Detroit"},"lat":42.58031,"lng":-83.0302,"population":129699},{"id":5784607,"name":"West Valley City","timezone":{"dstOffset":-6,"gmtOffset":-7,"timeZoneId":"America/Denver"},"lat":40.69161,"lng":-112.00105,"population":129480},{"id":4575352,"name":"Columbia","timezone":{"dstOffset":-4,"gmtOffset":-5,"timeZoneId":"America/New_York"},"lat":34.00071,"lng":-81.03481,"population":129272},{"id":4703223,"name":"Killeen","timezone":{"dstOffset":-5,"gmtOffset":-6,"timeZoneId":"America/Chicago"},"lat":31.11712,"lng":-97.7278,"population":127921},{"id":4280539,"name":"Topeka","timezone":{"dstOffset":-5,"gmtOffset":-6,"timeZoneId":"America/Chicago"},"lat":39.04833,"lng":-95.67804,"population":127473},{"id":5402405,"name":"Thousand Oaks","timezone":{"dstOffset":-7,"gmtOffset":-8,"timeZoneId":"America/Los_Angeles"},"lat":34.17056,"lng":-118.83759,"population":126683},{"id":5344994,"name":"East Los Angeles","timezone":{"dstOffset":-7,"gmtOffset":-8,"timeZoneId":"America/Los_Angeles"},"lat":34.0239,"lng":-118.17202,"population":126496},{"id":4850751,"name":"Cedar Rapids","timezone":{"dstOffset":-5,"gmtOffset":-6,"timeZoneId":"America/Chicago"},"lat":42.00833,"lng":-91.64407,"population":126326},{"id":4276614,"name":"Olathe","timezone":{"dstOffset":-5,"gmtOffset":-6,"timeZoneId":"America/Chicago"},"lat":38.8814,"lng":-94.81913,"population":125872},{"id":5097598,"name":"Elizabeth","timezone":{"dstOffset":-4,"gmtOffset":-5,"timeZoneId":"America/New_York"},"lat":40.66399,"lng":-74.2107,"population":124969},{"id":4739526,"name":"Waco","timezone":{"dstOffset":-5,"gmtOffset":-6,"timeZoneId":"America/Chicago"},"lat":31.54933,"lng":-97.14667,"population":124805},{"id":4835797,"name":"Hartford","timezone":{"dstOffset":-4,"gmtOffset":-5,"timeZoneId":"America/New_York"},"lat":41.76371,"lng":-72.68509,"population":124775},{"id":5406567,"name":"Visalia","timezone":{"dstOffset":-7,"gmtOffset":-8,"timeZoneId":"America/Los_Angeles"},"lat":36.33023,"lng":-119.29206,"population":124442},{"id":4156404,"name":"Gainesville","timezone":{"dstOffset":-4,"gmtOffset":-5,"timeZoneId":"America/New_York"},"lat":29.65163,"lng":-82.32483,"population":124354},{"id":5396003,"name":"Simi Valley","timezone":{"dstOffset":-7,"gmtOffset":-8,"timeZoneId":"America/Los_Angeles"},"lat":34.26945,"lng":-118.78148,"population":124237},{"id":4843564,"name":"Stamford","timezone":{"dstOffset":-4,"gmtOffset":-5,"timeZoneId":"America/New_York"},"lat":41.05343,"lng":-73.53873,"population":122643},{"id":5107129,"name":"Amherst","timezone":{"dstOffset":-4,"gmtOffset":-5,"timeZoneId":"America/New_York"},"lat":42.97839,"lng":-78.79976,"population":122366},{"id":5786882,"name":"Bellevue","timezone":{"dstOffset":-7,"gmtOffset":-8,"timeZoneId":"America/Los_Angeles"},"lat":47.61038,"lng":-122.20068,"population":122363},{"id":5339111,"name":"Concord","timezone":{"dstOffset":-7,"gmtOffset":-8,"timeZoneId":"America/Los_Angeles"},"lat":37.97798,"lng":-122.03107,"population":122067},{"id":4164601,"name":"Miramar","timezone":{"dstOffset":-4,"gmtOffset":-5,"timeZoneId":"America/New_York"},"lat":25.98731,"lng":-80.23227,"population":122041},{"id":4839745,"name":"North Stamford","timezone":{"dstOffset":-4,"gmtOffset":-5,"timeZoneId":"America/New_York"},"lat":41.13815,"lng":-73.54346,"population":121230},{"id":4151909,"name":"Coral Springs","timezone":{"dstOffset":-4,"gmtOffset":-5,"timeZoneId":"America/New_York"},"lat":26.27119,"lng":-80.2706,"population":121096},{"id":4330145,"name":"Lafayette","timezone":{"dstOffset":-5,"gmtOffset":-6,"timeZoneId":"America/Chicago"},"lat":30.22409,"lng":-92.01984,"population":120623},{"id":4574324,"name":"Charleston","timezone":{"dstOffset":-4,"gmtOffset":-5,"timeZoneId":"America/New_York"},"lat":32.77657,"lng":-79.93092,"population":120083},{"id":4679195,"name":"Carrollton","timezone":{"dstOffset":-5,"gmtOffset":-6,"timeZoneId":"America/Chicago"},"lat":32.95373,"lng":-96.89028,"population":119097},{"id":5388881,"name":"Roseville","timezone":{"dstOffset":-7,"gmtOffset":-8,"timeZoneId":"America/Los_Angeles"},"lat":38.75212,"lng":-121.28801,"population":118788},{"id":5441492,"name":"Thornton","timezone":{"dstOffset":-6,"gmtOffset":-7,"timeZoneId":"America/Denver"},"lat":39.86804,"lng":-104.97192,"population":118772},{"id":4672989,"name":"Beaumont","timezone":{"dstOffset":-5,"gmtOffset":-6,"timeZoneId":"America/Chicago"},"lat":30.08605,"lng":-94.10185,"population":118296},{"id":5178127,"name":"Allentown","timezone":{"dstOffset":-4,"gmtOffset":-5,"timeZoneId":"America/New_York"},"lat":40.60843,"lng":-75.49018,"population":118032},{"id":5316428,"name":"Surprise","timezone":{"dstOffset":-7,"gmtOffset":-7,"timeZoneId":"America/Phoenix"},"lat":33.63059,"lng":-112.33322,"population":117517},{"id":4257227,"name":"Evansville","timezone":{"dstOffset":-5,"gmtOffset":-6,"timeZoneId":"America/Chicago"},"lat":37.97476,"lng":-87.55585,"population":117429},{"id":4669635,"name":"Abilene","timezone":{"dstOffset":-5,"gmtOffset":-6,"timeZoneId":"America/Chicago"},"lat":32.44874,"lng":-99.73314,"population":117063},{"id":4692559,"name":"Frisco","timezone":{"dstOffset":-5,"gmtOffset":-6,"timeZoneId":"America/Chicago"},"lat":33.15067,"lng":-96.82361,"population":116989},{"id":4391812,"name":"Independence","timezone":{"dstOffset":-5,"gmtOffset":-6,"timeZoneId":"America/Chicago"},"lat":39.09112,"lng":-94.41551,"population":116830},{"id":4180386,"name":"Athens","timezone":{"dstOffset":-4,"gmtOffset":-5,"timeZoneId":"America/New_York"},"lat":33.96095,"lng":-83.37794,"population":116714},{"id":5393015,"name":"Santa Clara","timezone":{"dstOffset":-7,"gmtOffset":-8,"timeZoneId":"America/Los_Angeles"},"lat":37.35411,"lng":-121.95524,"population":116468},{"id":4250542,"name":"Springfield","timezone":{"dstOffset":-5,"gmtOffset":-6,"timeZoneId":"America/Chicago"},"lat":39.80172,"lng":-89.64371,"population":116250},{"id":5405380,"name":"Vallejo","timezone":{"dstOffset":-7,"gmtOffset":-8,"timeZoneId":"America/Los_Angeles"},"lat":38.10409,"lng":-122.25664,"population":115942},{"id":5406222,"name":"Victorville","timezone":{"dstOffset":-7,"gmtOffset":-8,"timeZoneId":"America/Los_Angeles"},"lat":34.53611,"lng":-117.29116,"population":115903},{"id":4905687,"name":"Peoria","timezone":{"dstOffset":-5,"gmtOffset":-6,"timeZoneId":"America/Chicago"},"lat":40.69365,"lng":-89.58899,"population":115007},{"id":4998830,"name":"Lansing","timezone":{"dstOffset":-4,"gmtOffset":-5,"timeZoneId":"America/Detroit"},"lat":42.73254,"lng":-84.55553,"population":114297},{"id":4984247,"name":"Ann Arbor","timezone":{"dstOffset":-4,"gmtOffset":-5,"timeZoneId":"America/Detroit"},"lat":42.27756,"lng":-83.74088,"population":113934},{"id":5345743,"name":"El Monte","timezone":{"dstOffset":-7,"gmtOffset":-8,"timeZoneId":"America/Los_Angeles"},"lat":34.06862,"lng":-118.02757,"population":113475},{"id":4685907,"name":"Denton","timezone":{"dstOffset":-5,"gmtOffset":-6,"timeZoneId":"America/Chicago"},"lat":33.21484,"lng":-97.13307,"population":113383},{"id":4903976,"name":"North Peoria","timezone":{"dstOffset":-5,"gmtOffset":-6,"timeZoneId":"America/Chicago"},"lat":40.71754,"lng":-89.58426,"population":113004},{"id":5327684,"name":"Berkeley","timezone":{"dstOffset":-7,"gmtOffset":-8,"timeZoneId":"America/Los_Angeles"},"lat":37.87159,"lng":-122.27275,"population":112580},{"id":5780026,"name":"Provo","timezone":{"dstOffset":-6,"gmtOffset":-7,"timeZoneId":"America/Denver"},"lat":40.23384,"lng":-111.65853,"population":112488},{"id":5343858,"name":"Downey","timezone":{"dstOffset":-7,"gmtOffset":-8,"timeZoneId":"America/Los_Angeles"},"lat":33.94001,"lng":-118.13257,"population":111772},{"id":5526337,"name":"Midland","timezone":{"dstOffset":-5,"gmtOffset":-6,"timeZoneId":"America/Chicago"},"lat":31.99735,"lng":-102.07791,"population":111147},{"id":4543762,"name":"Norman","timezone":{"dstOffset":-5,"gmtOffset":-6,"timeZoneId":"America/Chicago"},"lat":35.22257,"lng":-97.43948,"population":110925},{"id":4385018,"name":"East Independence","timezone":{"dstOffset":-5,"gmtOffset":-6,"timeZoneId":"America/Chicago"},"lat":39.09556,"lng":-94.35523,"population":110675},{"id":4845193,"name":"Waterbury","timezone":{"dstOffset":-4,"gmtOffset":-5,"timeZoneId":"America/New_York"},"lat":41.55815,"lng":-73.0515,"population":110366},{"id":5339840,"name":"Costa Mesa","timezone":{"dstOffset":-7,"gmtOffset":-8,"timeZoneId":"America/Los_Angeles"},"lat":33.64113,"lng":-117.91867,"population":109960},{"id":5359488,"name":"Inglewood","timezone":{"dstOffset":-7,"gmtOffset":-8,"timeZoneId":"America/Los_Angeles"},"lat":33.96168,"lng":-118.35313,"population":109673},{"id":5089178,"name":"Manchester","timezone":{"dstOffset":-4,"gmtOffset":-5,"timeZoneId":"America/New_York"},"lat":42.99564,"lng":-71.45479,"population":109565},{"id":4644312,"name":"Murfreesboro","timezone":{"dstOffset":-5,"gmtOffset":-6,"timeZoneId":"America/Chicago"},"lat":35.84562,"lng":-86.39027,"population":108755},{"id":4381982,"name":"Columbia","timezone":{"dstOffset":-5,"gmtOffset":-6,"timeZoneId":"America/Chicago"},"lat":38.95171,"lng":-92.33407,"population":108500},{"id":5503766,"name":"Enterprise","timezone":{"dstOffset":-7,"gmtOffset":-8,"timeZoneId":"America/Los_Angeles"},"lat":36.02525,"lng":-115.24194,"population":108481},{"id":4890864,"name":"Elgin","timezone":{"dstOffset":-5,"gmtOffset":-6,"timeZoneId":"America/Chicago"},"lat":42.03725,"lng":-88.28119,"population":108188},{"id":4151316,"name":"Clearwater","timezone":{"dstOffset":-4,"gmtOffset":-5,"timeZoneId":"America/New_York"},"lat":27.96585,"lng":-82.8001,"population":107685},{"id":4164167,"name":"Miami Gardens","timezone":{"dstOffset":-4,"gmtOffset":-5,"timeZoneId":"America/New_York"},"lat":25.94204,"lng":-80.2456,"population":107167},{"id":5043473,"name":"Rochester","timezone":{"dstOffset":-5,"gmtOffset":-6,"timeZoneId":"America/Chicago"},"lat":44.02163,"lng":-92.4699,"population":106769},{"id":5435464,"name":"Pueblo","timezone":{"dstOffset":-6,"gmtOffset":-7,"timeZoneId":"America/Denver"},"lat":38.25445,"lng":-104.60914,"population":106595},{"id":4942618,"name":"Lowell","timezone":{"dstOffset":-4,"gmtOffset":-5,"timeZoneId":"America/New_York"},"lat":42.63342,"lng":-71.31617,"population":106519},{"id":4499379,"name":"Wilmington","timezone":{"dstOffset":-4,"gmtOffset":-5,"timeZoneId":"America/New_York"},"lat":34.22573,"lng":-77.94471,"population":106476},{"id":5412199,"name":"Arvada","timezone":{"dstOffset":-6,"gmtOffset":-7,"timeZoneId":"America/Denver"},"lat":39.80276,"lng":-105.08748,"population":106433},{"id":5443910,"name":"Westminster","timezone":{"dstOffset":-6,"gmtOffset":-7,"timeZoneId":"America/Denver"},"lat":39.83665,"lng":-105.0372,"population":106114},{"id":5407933,"name":"West Covina","timezone":{"dstOffset":-7,"gmtOffset":-8,"timeZoneId":"America/Los_Angeles"},"lat":34.06862,"lng":-117.93895,"population":106098},{"id":5729485,"name":"Gresham","timezone":{"dstOffset":-7,"gmtOffset":-8,"timeZoneId":"America/Los_Angeles"},"lat":45.49818,"lng":-122.43148,"population":105594},{"id":5059163,"name":"Fargo","timezone":{"dstOffset":-5,"gmtOffset":-6,"timeZoneId":"America/Chicago"},"lat":46.87719,"lng":-96.7898,"population":105549},{"id":5377995,"name":"Norwalk","timezone":{"dstOffset":-7,"gmtOffset":-8,"timeZoneId":"America/Los_Angeles"},"lat":33.90224,"lng":-118.08173,"population":105549},{"id":5334223,"name":"Carlsbad","timezone":{"dstOffset":-7,"gmtOffset":-8,"timeZoneId":"America/Los_Angeles"},"lat":33.15809,"lng":-117.35059,"population":105328},{"id":5347335,"name":"Fairfield","timezone":{"dstOffset":-7,"gmtOffset":-8,"timeZoneId":"America/Los_Angeles"},"lat":38.24936,"lng":-122.03997,"population":105321},{"id":4931972,"name":"Cambridge","timezone":{"dstOffset":-4,"gmtOffset":-5,"timeZoneId":"America/New_York"},"lat":42.3751,"lng":-71.10561,"population":105162},{"id":5404794,"name":"Universal City","timezone":{"dstOffset":-7,"gmtOffset":-8,"timeZoneId":"America/Los_Angeles"},"lat":34.1389,"lng":-118.35341,"population":105000},{"id":4741752,"name":"Wichita Falls","timezone":{"dstOffset":-5,"gmtOffset":-6,"timeZoneId":"America/Chicago"},"lat":33.91371,"lng":-98.49339,"population":104553},{"id":4471025,"name":"High Point","timezone":{"dstOffset":-4,"gmtOffset":-5,"timeZoneId":"America/New_York"},"lat":35.95569,"lng":-80.00532,"population":104371},{"id":5640350,"name":"Billings","timezone":{"dstOffset":-6,"gmtOffset":-7,"timeZoneId":"America/Denver"},"lat":45.78329,"lng":-108.50069,"population":104170},{"id":5254962,"name":"Green Bay","timezone":{"dstOffset":-5,"gmtOffset":-6,"timeZoneId":"America/Chicago"},"lat":44.51916,"lng":-88.01983,"population":104057},{"id":5784549,"name":"West Jordan","timezone":{"dstOffset":-6,"gmtOffset":-7,"timeZoneId":"America/Denver"},"lat":40.60967,"lng":-111.9391,"population":103712},{"id":5387428,"name":"Richmond","timezone":{"dstOffset":-7,"gmtOffset":-8,"timeZoneId":"America/Los_Angeles"},"lat":37.93576,"lng":-122.34775,"population":103701},{"id":4148757,"name":"Brandon","timezone":{"dstOffset":-4,"gmtOffset":-5,"timeZoneId":"America/New_York"},"lat":27.9378,"lng":-82.28592,"population":103483},{"id":5375911,"name":"Murrieta","timezone":{"dstOffset":-7,"gmtOffset":-8,"timeZoneId":"America/Los_Angeles"},"lat":33.55391,"lng":-117.21392,"population":103466},{"id":5331835,"name":"Burbank","timezone":{"dstOffset":-7,"gmtOffset":-8,"timeZoneId":"America/Los_Angeles"},"lat":34.18084,"lng":-118.30897,"population":103340},{"id":4167499,"name":"Palm Bay","timezone":{"dstOffset":-4,"gmtOffset":-5,"timeZoneId":"America/New_York"},"lat":28.03446,"lng":-80.58866,"population":103190},{"id":5793933,"name":"Everett","timezone":{"dstOffset":-7,"gmtOffset":-8,"timeZoneId":"America/Los_Angeles"},"lat":47.97898,"lng":-122.20208,"population":103019},{"id":5097529,"name":"Edison","timezone":{"dstOffset":-4,"gmtOffset":-5,"timeZoneId":"America/New_York"},"lat":40.51872,"lng":-74.4121,"population":102548},{"id":4992982,"name":"Flint","timezone":{"dstOffset":-4,"gmtOffset":-5,"timeZoneId":"America/Detroit"},"lat":43.01253,"lng":-83.68746,"population":102434},{"id":5324200,"name":"Antioch","timezone":{"dstOffset":-7,"gmtOffset":-8,"timeZoneId":"America/Los_Angeles"},"lat":38.00492,"lng":-121.80579,"population":102372},{"id":5188843,"name":"Erie","timezone":{"dstOffset":-4,"gmtOffset":-5,"timeZoneId":"America/New_York"},"lat":42.12922,"lng":-80.08506,"population":101786},{"id":4926563,"name":"South Bend","timezone":{"dstOffset":-4,"gmtOffset":-5,"timeZoneId":"America/Indiana/Indianapolis"},"lat":41.68338,"lng":-86.25001,"population":101168},{"id":5341430,"name":"Daly City","timezone":{"dstOffset":-7,"gmtOffset":-8,"timeZoneId":"America/Los_Angeles"},"lat":37.70577,"lng":-122.46192,"population":101123},{"id":5416541,"name":"Centennial","timezone":{"dstOffset":-6,"gmtOffset":-7,"timeZoneId":"America/Denver"},"lat":39.57916,"lng":-104.87692,"population":100377},{"id":5401395,"name":"Temecula","timezone":{"dstOffset":-7,"gmtOffset":-8,"timeZoneId":"America/Los_Angeles"},"lat":33.49364,"lng":-117.14836,"population":100097},{"id":5527554,"name":"Odessa","timezone":{"dstOffset":-5,"gmtOffset":-6,"timeZoneId":"America/Chicago"},"lat":31.84568,"lng":-102.36764,"population":99940},{"id":4177887,"name":"West Palm Beach","timezone":{"dstOffset":-4,"gmtOffset":-5,"timeZoneId":"America/New_York"},"lat":26.71534,"lng":-80.05337,"population":99919},{"id":4724129,"name":"Round Rock","timezone":{"dstOffset":-5,"gmtOffset":-6,"timeZoneId":"America/Chicago"},"lat":30.50826,"lng":-97.6789,"population":99887},{"id":4169014,"name":"Pompano Beach","timezone":{"dstOffset":-4,"gmtOffset":-5,"timeZoneId":"America/New_York"},"lat":26.23786,"lng":-80.12477,"population":99845},{"id":4989133,"name":"Charter Township of Clinton","timezone":{"dstOffset":-4,"gmtOffset":-5,"timeZoneId":"America/Detroit"},"lat":42.58698,"lng":-82.91992,"population":99753},{"id":4853423,"name":"Davenport","timezone":{"dstOffset":-5,"gmtOffset":-6,"timeZoneId":"America/Chicago"},"lat":41.52364,"lng":-90.57764,"population":99685},{"id":4352053,"name":"Columbia","timezone":{"dstOffset":-4,"gmtOffset":-5,"timeZoneId":"America/New_York"},"lat":39.24038,"lng":-76.83942,"population":99615},{"id":5393180,"name":"Santa Maria","timezone":{"dstOffset":-7,"gmtOffset":-8,"timeZoneId":"America/Los_Angeles"},"lat":34.95303,"lng":-120.43572,"population":99553},{"id":5345529,"name":"El Cajon","timezone":{"dstOffset":-7,"gmtOffset":-8,"timeZoneId":"America/Los_Angeles"},"lat":32.79477,"lng":-116.96253,"population":99478},{"id":4722625,"name":"Richardson","timezone":{"dstOffset":-5,"gmtOffset":-6,"timeZoneId":"America/Chicago"},"lat":32.94818,"lng":-96.72972,"population":99223},{"id":5258393,"name":"Kenosha","timezone":{"dstOffset":-5,"gmtOffset":-6,"timeZoneId":"America/Chicago"},"lat":42.58474,"lng":-87.82119,"population":99218},{"id":5387288,"name":"Rialto","timezone":{"dstOffset":-7,"gmtOffset":-8,"timeZoneId":"America/Los_Angeles"},"lat":34.1064,"lng":-117.37032,"population":99171},{"id":4780011,"name":"Portsmouth Heights","timezone":{"dstOffset":-4,"gmtOffset":-5,"timeZoneId":"America/New_York"},"lat":36.82098,"lng":-76.36883,"population":99049},{"id":4531405,"name":"Broken Arrow","timezone":{"dstOffset":-5,"gmtOffset":-6,"timeZoneId":"America/Chicago"},"lat":36.0526,"lng":-95.79082,"population":98850},{"id":4173838,"name":"Spring Hill","timezone":{"dstOffset":-4,"gmtOffset":-5,"timeZoneId":"America/New_York"},"lat":28.47688,"lng":-82.52546,"population":98621},{"id":4990510,"name":"Dearborn","timezone":{"dstOffset":-4,"gmtOffset":-5,"timeZoneId":"America/Detroit"},"lat":42.32226,"lng":-83.17631,"population":98153},{"id":5106834,"name":"Albany","timezone":{"dstOffset":-4,"gmtOffset":-5,"timeZoneId":"America/New_York"},"lat":42.65258,"lng":-73.75623,"population":97856},{"id":5475352,"name":"Las Cruces","timezone":{"dstOffset":-6,"gmtOffset":-7,"timeZoneId":"America/Denver"},"lat":32.31232,"lng":-106.77834,"population":97618},{"id":4589387,"name":"North Charleston","timezone":{"dstOffset":-4,"gmtOffset":-5,"timeZoneId":"America/New_York"},"lat":32.85462,"lng":-79.97481,"population":97471},{"id":4161438,"name":"Lakeland","timezone":{"dstOffset":-4,"gmtOffset":-5,"timeZoneId":"America/New_York"},"lat":28.03947,"lng":-81.9498,"population":97422},{"id":5574991,"name":"Boulder","timezone":{"dstOffset":-6,"gmtOffset":-7,"timeZoneId":"America/Denver"},"lat":40.01499,"lng":-105.27055,"population":97385},{"id":5392423,"name":"San Mateo","timezone":{"dstOffset":-7,"gmtOffset":-8,"timeZoneId":"America/Los_Angeles"},"lat":37.56299,"lng":-122.32553,"population":97207},{"id":4782167,"name":"Roanoke","timezone":{"dstOffset":-4,"gmtOffset":-5,"timeZoneId":"America/New_York"},"lat":37.27097,"lng":-79.94143,"population":97032},{"id":4999837,"name":"Livonia","timezone":{"dstOffset":-4,"gmtOffset":-5,"timeZoneId":"America/Detroit"},"lat":42.36837,"lng":-83.35271,"population":96942},{"id":4738214,"name":"Tyler","timezone":{"dstOffset":-5,"gmtOffset":-6,"timeZoneId":"America/Chicago"},"lat":32.35126,"lng":-95.30106,"population":96900},{"id":4540737,"name":"Lawton","timezone":{"dstOffset":-5,"gmtOffset":-6,"timeZoneId":"America/Chicago"},"lat":34.60869,"lng":-98.39033,"population":96867},{"id":5405878,"name":"Ventura","timezone":{"dstOffset":-7,"gmtOffset":-8,"timeZoneId":"America/Los_Angeles"},"lat":34.27834,"lng":-119.29317,"population":96769},{"id":5425043,"name":"Highlands Ranch","timezone":{"dstOffset":-6,"gmtOffset":-7,"timeZoneId":"America/Denver"},"lat":39.55388,"lng":-104.96943,"population":96713},{"id":5339066,"name":"Compton","timezone":{"dstOffset":-7,"gmtOffset":-8,"timeZoneId":"America/Los_Angeles"},"lat":33.89585,"lng":-118.22007,"population":96455},{"id":5338122,"name":"Clovis","timezone":{"dstOffset":-7,"gmtOffset":-8,"timeZoneId":"America/Los_Angeles"},"lat":36.82523,"lng":-119.70292,"population":95631},{"id":4779999,"name":"Portsmouth","timezone":{"dstOffset":-4,"gmtOffset":-5,"timeZoneId":"America/New_York"},"lat":36.83543,"lng":-76.29827,"population":95535},{"id":4706057,"name":"Lewisville","timezone":{"dstOffset":-5,"gmtOffset":-6,"timeZoneId":"America/Chicago"},"lat":33.04623,"lng":-96.99417,"population":95290},{"id":4945121,"name":"New Bedford","timezone":{"dstOffset":-4,"gmtOffset":-5,"timeZoneId":"America/New_York"},"lat":41.63622,"lng":-70.9342,"population":95072},{"id":5397603,"name":"South Gate","timezone":{"dstOffset":-7,"gmtOffset":-8,"timeZoneId":"America/Los_Angeles"},"lat":33.95474,"lng":-118.21202,"population":94396},{"id":4682464,"name":"College Station","timezone":{"dstOffset":-5,"gmtOffset":-6,"timeZoneId":"America/Chicago"},"lat":30.62798,"lng":-96.33441,"population":93857},{"id":4221333,"name":"Sandy Springs","timezone":{"dstOffset":-4,"gmtOffset":-5,"timeZoneId":"America/New_York"},"lat":33.92427,"lng":-84.37854,"population":93853},{"id":4736476,"name":"The Woodlands","timezone":{"dstOffset":-5,"gmtOffset":-6,"timeZoneId":"America/Chicago"},"lat":30.15799,"lng":-95.48938,"population":93847},{"id":5406602,"name":"Vista","timezone":{"dstOffset":-7,"gmtOffset":-8,"timeZoneId":"America/Los_Angeles"},"lat":33.20004,"lng":-117.24254,"population":93834},{"id":4931429,"name":"Brockton","timezone":{"dstOffset":-4,"gmtOffset":-5,"timeZoneId":"America/New_York"},"lat":42.08343,"lng":-71.01838,"population":93810},{"id":5143620,"name":"West Albany","timezone":{"dstOffset":-4,"gmtOffset":-5,"timeZoneId":"America/New_York"},"lat":42.68313,"lng":-73.77845,"population":93794},{"id":5373763,"name":"Mission Viejo","timezone":{"dstOffset":-7,"gmtOffset":-8,"timeZoneId":"America/Los_Angeles"},"lat":33.60002,"lng":-117.672,"population":93305},{"id":5530022,"name":"San Angelo","timezone":{"dstOffset":-5,"gmtOffset":-6,"timeZoneId":"America/Chicago"},"lat":31.46377,"lng":-100.43704,"population":93200},{"id":5322053,"name":"Yuma","timezone":{"dstOffset":-7,"gmtOffset":-7,"timeZoneId":"America/Phoenix"},"lat":32.72532,"lng":-114.6244,"population":93064},{"id":5577592,"name":"Greeley","timezone":{"dstOffset":-6,"gmtOffset":-7,"timeZoneId":"America/Denver"},"lat":40.42331,"lng":-104.70913,"population":92889},{"id":5330413,"name":"Boyle Heights","timezone":{"dstOffset":-7,"gmtOffset":-8,"timeZoneId":"America/Los_Angeles"},"lat":34.0339,"lng":-118.20535,"population":92785},{"id":5405228,"name":"Vacaville","timezone":{"dstOffset":-7,"gmtOffset":-8,"timeZoneId":"America/Los_Angeles"},"lat":38.35658,"lng":-121.98774,"population":92428},{"id":5799625,"name":"Kent","timezone":{"dstOffset":-7,"gmtOffset":-8,"timeZoneId":"America/Los_Angeles"},"lat":47.38093,"lng":-122.23484,"population":92411},{"id":4948247,"name":"Quincy","timezone":{"dstOffset":-4,"gmtOffset":-5,"timeZoneId":"America/New_York"},"lat":42.25288,"lng":-71.00227,"population":92271},{"id":7260806,"name":"Arden-Arcade","timezone":{"dstOffset":-7,"gmtOffset":-8,"timeZoneId":"America/Los_Angeles"},"lat":38.6025,"lng":-121.37854,"population":92186},{"id":4152820,"name":"Davie","timezone":{"dstOffset":-4,"gmtOffset":-5,"timeZoneId":"America/New_York"},"lat":26.06287,"lng":-80.2331,"population":91992},{"id":5334519,"name":"Carson","timezone":{"dstOffset":-7,"gmtOffset":-8,"timeZoneId":"America/Los_Angeles"},"lat":33.83141,"lng":-118.28202,"population":91714},{"id":5731371,"name":"Hillsboro","timezone":{"dstOffset":-7,"gmtOffset":-8,"timeZoneId":"America/Los_Angeles"},"lat":45.52289,"lng":-122.98983,"population":91611},{"id":4394870,"name":"Lee's Summit","timezone":{"dstOffset":-5,"gmtOffset":-6,"timeZoneId":"America/Chicago"},"lat":38.91084,"lng":-94.38217,"population":91364},{"id":4207400,"name":"Macon","timezone":{"dstOffset":-4,"gmtOffset":-5,"timeZoneId":"America/New_York"},"lat":32.84069,"lng":-83.6324,"population":91351},{"id":4718097,"name":"Pearland","timezone":{"dstOffset":-5,"gmtOffset":-6,"timeZoneId":"America/Chicago"},"lat":29.56357,"lng":-95.28605,"population":91252},{"id":5816605,"name":"Yakima","timezone":{"dstOffset":-7,"gmtOffset":-8,"timeZoneId":"America/Los_Angeles"},"lat":46.60207,"lng":-120.5059,"population":91067},{"id":5808189,"name":"Renton","timezone":{"dstOffset":-7,"gmtOffset":-8,"timeZoneId":"America/Los_Angeles"},"lat":47.48288,"lng":-122.21707,"population":90927},{"id":4094455,"name":"Tuscaloosa","timezone":{"dstOffset":-5,"gmtOffset":-6,"timeZoneId":"America/Chicago"},"lat":33.20984,"lng":-87.56917,"population":90468},{"id":4942807,"name":"Lynn","timezone":{"dstOffset":-4,"gmtOffset":-5,"timeZoneId":"America/New_York"},"lat":42.46676,"lng":-70.94949,"population":90329},{"id":5512862,"name":"Sparks","timezone":{"dstOffset":-7,"gmtOffset":-8,"timeZoneId":"America/Los_Angeles"},"lat":39.53491,"lng":-119.75269,"population":90264},{"id":5356576,"name":"Hesperia","timezone":{"dstOffset":-7,"gmtOffset":-8,"timeZoneId":"America/Los_Angeles"},"lat":34.42639,"lng":-117.30088,"population":90173},{"id":5570160,"name":"Redding","timezone":{"dstOffset":-7,"gmtOffset":-8,"timeZoneId":"America/Los_Angeles"},"lat":40.58654,"lng":-122.39168,"population":89861},{"id":5713376,"name":"Beaverton","timezone":{"dstOffset":-7,"gmtOffset":-8,"timeZoneId":"America/Los_Angeles"},"lat":45.48706,"lng":-122.80371,"population":89803},{"id":5811729,"name":"Spokane Valley","timezone":{"dstOffset":-7,"gmtOffset":-8,"timeZoneId":"America/Los_Angeles"},"lat":47.67323,"lng":-117.23937,"population":89755},{"id":5393212,"name":"Santa Monica","timezone":{"dstOffset":-7,"gmtOffset":-8,"timeZoneId":"America/Los_Angeles"},"lat":34.01945,"lng":-118.49119,"population":89736},{"id":5408406,"name":"Westminster","timezone":{"dstOffset":-7,"gmtOffset":-8,"timeZoneId":"America/Los_Angeles"},"lat":33.75918,"lng":-118.00673,"population":89701},{"id":5781070,"name":"Sandy Hills","timezone":{"dstOffset":-6,"gmtOffset":-7,"timeZoneId":"America/Denver"},"lat":40.58106,"lng":-111.85077,"population":89575},{"id":5794245,"name":"Federal Way","timezone":{"dstOffset":-7,"gmtOffset":-8,"timeZoneId":"America/Los_Angeles"},"lat":47.32232,"lng":-122.31262,"population":89306},{"id":4915734,"name":"Waukegan","timezone":{"dstOffset":-5,"gmtOffset":-6,"timeZoneId":"America/Chicago"},"lat":42.36363,"lng":-87.84479,"population":89078},{"id":4936159,"name":"Fall River","timezone":{"dstOffset":-4,"gmtOffset":-5,"timeZoneId":"America/New_York"},"lat":41.70149,"lng":-71.15505,"population":88857},{"id":4504476,"name":"Toms River","timezone":{"dstOffset":-4,"gmtOffset":-5,"timeZoneId":"America/New_York"},"lat":39.95373,"lng":-74.19792,"population":88791},{"id":5392952,"name":"Santa Barbara","timezone":{"dstOffset":-7,"gmtOffset":-8,"timeZoneId":"America/Los_Angeles"},"lat":34.42083,"lng":-119.69819,"population":88410},{"id":4219934,"name":"Roswell","timezone":{"dstOffset":-4,"gmtOffset":-5,"timeZoneId":"America/New_York"},"lat":34.02316,"lng":-84.36159,"population":88346},{"id":5779334,"name":"Orem","timezone":{"dstOffset":-6,"gmtOffset":-7,"timeZoneId":"America/Denver"},"lat":40.2969,"lng":-111.69465,"population":88328},{"id":5207728,"name":"Reading","timezone":{"dstOffset":-4,"gmtOffset":-5,"timeZoneId":"America/New_York"},"lat":40.33565,"lng":-75.92687,"population":88082},{"id":4164143,"name":"Miami Beach","timezone":{"dstOffset":-4,"gmtOffset":-5,"timeZoneId":"America/New_York"},"lat":25.79065,"lng":-80.13005,"population":87779},{"id":4274277,"name":"Lawrence","timezone":{"dstOffset":-5,"gmtOffset":-6,"timeZoneId":"America/Chicago"},"lat":38.97167,"lng":-95.23525,"population":87643},{"id":5487811,"name":"Rio Rancho","timezone":{"dstOffset":-6,"gmtOffset":-7,"timeZoneId":"America/Denver"},"lat":35.23338,"lng":-106.66447,"population":87521},{"id":7839240,"name":"Enchanted Hills","timezone":{"dstOffset":-6,"gmtOffset":-7,"timeZoneId":"America/Denver"},"lat":35.33676,"lng":-106.59296,"population":87521},{"id":5781061,"name":"Sandy","timezone":{"dstOffset":-6,"gmtOffset":-7,"timeZoneId":"America/Denver"},"lat":40.59161,"lng":-111.8841,"population":87461},{"id":5392263,"name":"San Leandro","timezone":{"dstOffset":-7,"gmtOffset":-8,"timeZoneId":"America/Los_Angeles"},"lat":37.72493,"lng":-122.15608,"population":86869},{"id":4987990,"name":"Canton","timezone":{"dstOffset":-4,"gmtOffset":-5,"timeZoneId":"America/Detroit"},"lat":42.30865,"lng":-83.48216,"population":86825},{"id":4161785,"name":"Lehigh Acres","timezone":{"dstOffset":-4,"gmtOffset":-5,"timeZoneId":"America/New_York"},"lat":26.62535,"lng":-81.6248,"population":86784},{"id":5119347,"name":"Greenburgh","timezone":{"dstOffset":-4,"gmtOffset":-5,"timeZoneId":"America/New_York"},"lat":41.03288,"lng":-73.84291,"population":86764},{"id":5090046,"name":"Nashua","timezone":{"dstOffset":-4,"gmtOffset":-5,"timeZoneId":"America/New_York"},"lat":42.76537,"lng":-71.46757,"population":86494},{"id":4356050,"name":"Germantown","timezone":{"dstOffset":-4,"gmtOffset":-5,"timeZoneId":"America/New_York"},"lat":39.17316,"lng":-77.27165,"population":86395},{"id":5579276,"name":"Longmont","timezone":{"dstOffset":-6,"gmtOffset":-7,"timeZoneId":"America/Denver"},"lat":40.16721,"lng":-105.10193,"population":86270},{"id":5024719,"name":"Duluth","timezone":{"dstOffset":-5,"gmtOffset":-6,"timeZoneId":"America/Chicago"},"lat":46.78327,"lng":-92.10658,"population":86265},{"id":4111410,"name":"Fort Smith","timezone":{"dstOffset":-5,"gmtOffset":-6,"timeZoneId":"America/Chicago"},"lat":35.38592,"lng":-94.39855,"population":86209},{"id":5336269,"name":"Chico","timezone":{"dstOffset":-7,"gmtOffset":-8,"timeZoneId":"America/Los_Angeles"},"lat":39.72849,"lng":-121.83748,"population":86187},{"id":4839822,"name":"Norwalk","timezone":{"dstOffset":-4,"gmtOffset":-5,"timeZoneId":"America/New_York"},"lat":41.1176,"lng":-73.4079,"population":85603},{"id":5409059,"name":"Whittier","timezone":{"dstOffset":-7,"gmtOffset":-8,"timeZoneId":"America/Los_Angeles"},"lat":33.97918,"lng":-118.03284,"population":85331},{"id":5376890,"name":"Newport Beach","timezone":{"dstOffset":-7,"gmtOffset":-8,"timeZoneId":"America/Los_Angeles"},"lat":33.61891,"lng":-117.92895,"population":85186},{"id":4153146,"name":"Deltona","timezone":{"dstOffset":-4,"gmtOffset":-5,"timeZoneId":"America/New_York"},"lat":28.90054,"lng":-81.26367,"population":85182},{"id":4945283,"name":"Newton","timezone":{"dstOffset":-4,"gmtOffset":-5,"timeZoneId":"America/New_York"},"lat":42.33704,"lng":-71.20922,"population":85146},{"id":4168782,"name":"Plantation","timezone":{"dstOffset":-4,"gmtOffset":-5,"timeZoneId":"America/New_York"},"lat":26.13421,"lng":-80.23184,"population":84955},{"id":5105496,"name":"Trenton","timezone":{"dstOffset":-4,"gmtOffset":-5,"timeZoneId":"America/New_York"},"lat":40.21705,"lng":-74.74294,"population":84913},{"id":4788158,"name":"Suffolk","timezone":{"dstOffset":-4,"gmtOffset":-5,"timeZoneId":"America/New_York"},"lat":36.72836,"lng":-76.58496,"population":84585},{"id":4469160,"name":"Greenville","timezone":{"dstOffset":-4,"gmtOffset":-5,"timeZoneId":"America/New_York"},"lat":35.61266,"lng":-77.36635,"population":84554},{"id":4833505,"name":"East Norwalk","timezone":{"dstOffset":-4,"gmtOffset":-5,"timeZoneId":"America/New_York"},"lat":41.10565,"lng":-73.39845,"population":84530},{"id":4174402,"name":"Sunrise","timezone":{"dstOffset":-4,"gmtOffset":-5,"timeZoneId":"America/New_York"},"lat":26.13397,"lng":-80.1131,"population":84439},{"id":4148411,"name":"Boca Raton","timezone":{"dstOffset":-4,"gmtOffset":-5,"timeZoneId":"America/New_York"},"lat":26.35869,"lng":-80.0831,"population":84392},{"id":5355828,"name":"Hawthorne","timezone":{"dstOffset":-7,"gmtOffset":-8,"timeZoneId":"America/Los_Angeles"},"lat":33.9164,"lng":-118.35257,"population":84293},{"id":4670300,"name":"Allen","timezone":{"dstOffset":-5,"gmtOffset":-6,"timeZoneId":"America/Chicago"},"lat":33.10317,"lng":-96.67055,"population":84246},{"id":5096699,"name":"Clifton","timezone":{"dstOffset":-4,"gmtOffset":-5,"timeZoneId":"America/New_York"},"lat":40.85843,"lng":-74.16376,"population":84136},{"id":5014681,"name":"Westland","timezone":{"dstOffset":-4,"gmtOffset":-5,"timeZoneId":"America/Detroit"},"lat":42.3242,"lng":-83.40021,"population":84094},{"id":4888015,"name":"Cicero","timezone":{"dstOffset":-5,"gmtOffset":-6,"timeZoneId":"America/Chicago"},"lat":41.84559,"lng":-87.75394,"population":83891},{"id":5392368,"name":"San Marcos","timezone":{"dstOffset":-7,"gmtOffset":-8,"timeZoneId":"America/Los_Angeles"},"lat":33.14337,"lng":-117.16614,"population":83781},{"id":4705692,"name":"League City","timezone":{"dstOffset":-5,"gmtOffset":-6,"timeZoneId":"America/Chicago"},"lat":29.50745,"lng":-95.09493,"population":83560},{"id":4453066,"name":"Asheville","timezone":{"dstOffset":-4,"gmtOffset":-5,"timeZoneId":"America/New_York"},"lat":35.60095,"lng":-82.55402,"population":83393},{"id":5337561,"name":"Citrus Heights","timezone":{"dstOffset":-7,"gmtOffset":-8,"timeZoneId":"America/Los_Angeles"},"lat":38.70712,"lng":-121.28106,"population":83301},{"id":5323060,"name":"Alhambra","timezone":{"dstOffset":-7,"gmtOffset":-8,"timeZoneId":"America/Los_Angeles"},"lat":34.09529,"lng":-118.12701,"population":83089},{"id":5403191,"name":"Tracy","timezone":{"dstOffset":-7,"gmtOffset":-8,"timeZoneId":"America/Los_Angeles"},"lat":37.73987,"lng":-121.42618,"population":82922},{"id":5018739,"name":"Bloomington","timezone":{"dstOffset":-5,"gmtOffset":-6,"timeZoneId":"America/Chicago"},"lat":44.8408,"lng":-93.29828,"population":82893},{"id":5779206,"name":"Ogden","timezone":{"dstOffset":-6,"gmtOffset":-7,"timeZoneId":"America/Denver"},"lat":41.223,"lng":-111.97383,"population":82825},{"id":4876523,"name":"Sioux City","timezone":{"dstOffset":-5,"gmtOffset":-6,"timeZoneId":"America/Chicago"},"lat":42.49999,"lng":-96.40031,"population":82684},{"id":5225507,"name":"Warwick","timezone":{"dstOffset":-4,"gmtOffset":-5,"timeZoneId":"America/New_York"},"lat":41.7001,"lng":-71.41617,"population":82672},{"id":4067994,"name":"Hoover","timezone":{"dstOffset":-5,"gmtOffset":-6,"timeZoneId":"America/Chicago"},"lat":33.40539,"lng":-86.81138,"population":81619},{"id":5166177,"name":"Parma","timezone":{"dstOffset":-4,"gmtOffset":-5,"timeZoneId":"America/New_York"},"lat":41.40477,"lng":-81.72291,"population":81601},{"id":5601933,"name":"Nampa","timezone":{"dstOffset":-6,"gmtOffset":-7,"timeZoneId":"America/Boise"},"lat":43.54072,"lng":-116.56346,"population":81557},{"id":4535740,"name":"Edmond","timezone":{"dstOffset":-5,"gmtOffset":-6,"timeZoneId":"America/Chicago"},"lat":35.65283,"lng":-97.4781,"population":81405},{"id":7310164,"name":"San Tan Valley","timezone":{"dstOffset":-7,"gmtOffset":-7,"timeZoneId":"America/Phoenix"},"lat":33.1911,"lng":-111.528,"population":81321},{"id":4887158,"name":"Champaign","timezone":{"dstOffset":-5,"gmtOffset":-6,"timeZoneId":"America/Chicago"},"lat":40.11642,"lng":-88.24338,"population":81055},{"id":5012639,"name":"Troy","timezone":{"dstOffset":-4,"gmtOffset":-5,"timeZoneId":"America/Detroit"},"lat":42.60559,"lng":-83.14993,"population":80980},{"id":5367440,"name":"Livermore","timezone":{"dstOffset":-7,"gmtOffset":-8,"timeZoneId":"America/Los_Angeles"},"lat":37.68187,"lng":-121.76801,"population":80968},{"id":4832353,"name":"Danbury","timezone":{"dstOffset":-4,"gmtOffset":-5,"timeZoneId":"America/New_York"},"lat":41.39482,"lng":-73.45401,"population":80893},{"id":5786899,"name":"Bellingham","timezone":{"dstOffset":-7,"gmtOffset":-8,"timeZoneId":"America/Los_Angeles"},"lat":48.75955,"lng":-122.48822,"population":80885},{"id":4921100,"name":"Hammond","timezone":{"dstOffset":-5,"gmtOffset":-6,"timeZoneId":"America/Chicago"},"lat":41.58337,"lng":-87.50004,"population":80830},{"id":4786714,"name":"South Suffolk","timezone":{"dstOffset":-4,"gmtOffset":-5,"timeZoneId":"America/New_York"},"lat":36.71709,"lng":-76.59023,"population":80690},{"id":5331575,"name":"Buena Park","timezone":{"dstOffset":-7,"gmtOffset":-8,"timeZoneId":"America/Los_Angeles"},"lat":33.86751,"lng":-117.99812,"population":80530},{"id":4707814,"name":"Longview","timezone":{"dstOffset":-5,"gmtOffset":-6,"timeZoneId":"America/Chicago"},"lat":32.5007,"lng":-94.74049,"population":80455},{"id":4254679,"name":"Bloomington","timezone":{"dstOffset":-4,"gmtOffset":-5,"timeZoneId":"America/Indiana/Indianapolis"},"lat":39.16532,"lng":-86.52639,"population":80405},{"id":5221659,"name":"Cranston","timezone":{"dstOffset":-4,"gmtOffset":-5,"timeZoneId":"America/New_York"},"lat":41.77982,"lng":-71.43728,"population":80387},{"id":4920607,"name":"Gary","timezone":{"dstOffset":-5,"gmtOffset":-6,"timeZoneId":"America/Chicago"},"lat":41.59337,"lng":-87.34643,"population":80294},{"id":5364855,"name":"Lakewood","timezone":{"dstOffset":-7,"gmtOffset":-8,"timeZoneId":"America/Los_Angeles"},"lat":33.85363,"lng":-118.13396,"population":80048},{"id":4992523,"name":"Farmington Hills","timezone":{"dstOffset":-4,"gmtOffset":-5,"timeZoneId":"America/Detroit"},"lat":42.48531,"lng":-83.37716,"population":79740},{"id":4401242,"name":"O'Fallon","timezone":{"dstOffset":-5,"gmtOffset":-6,"timeZoneId":"America/Chicago"},"lat":38.81061,"lng":-90.69985,"population":79329},{"id":4255466,"name":"Carmel","timezone":{"dstOffset":-4,"gmtOffset":-5,"timeZoneId":"America/Indiana/Indianapolis"},"lat":39.97837,"lng":-86.11804,"population":79191},{"id":4461574,"name":"Concord","timezone":{"dstOffset":-4,"gmtOffset":-5,"timeZoneId":"America/New_York"},"lat":35.40888,"lng":-80.58158,"population":79066},{"id":5372253,"name":"Merced","timezone":{"dstOffset":-7,"gmtOffset":-8,"timeZoneId":"America/Los_Angeles"},"lat":37.30216,"lng":-120.48297,"population":78958},{"id":5268249,"name":"Racine","timezone":{"dstOffset":-5,"gmtOffset":-6,"timeZoneId":"America/Chicago"},"lat":42.72613,"lng":-87.78285,"population":78860},{"id":4734825,"name":"Sugar Land","timezone":{"dstOffset":-5,"gmtOffset":-6,"timeZoneId":"America/Chicago"},"lat":29.61968,"lng":-95.63495,"population":78817},{"id":5356277,"name":"Hemet","timezone":{"dstOffset":-7,"gmtOffset":-8,"timeZoneId":"America/Los_Angeles"},"lat":33.74761,"lng":-116.97307,"population":78657},{"id":4175538,"name":"Town 'n' Country","timezone":{"dstOffset":-4,"gmtOffset":-5,"timeZoneId":"America/New_York"},"lat":28.01057,"lng":-82.57732,"population":78442},{"id":5392528,"name":"San Pedro","timezone":{"dstOffset":-7,"gmtOffset":-8,"timeZoneId":"America/Los_Angeles"},"lat":33.73585,"lng":-118.29229,"population":78405},{"id":6332439,"name":"Alafaya","timezone":{"dstOffset":-4,"gmtOffset":-5,"timeZoneId":"America/New_York"},"lat":28.5641,"lng":-81.2114,"population":78113},{"id":5336537,"name":"Chino","timezone":{"dstOffset":-7,"gmtOffset":-8,"timeZoneId":"America/Los_Angeles"},"lat":34.01223,"lng":-117.68894,"population":77983},{"id":5377654,"name":"North Hollywood","timezone":{"dstOffset":-7,"gmtOffset":-8,"timeZoneId":"America/Los_Angeles"},"lat":34.17223,"lng":-118.37897,"population":77848},{"id":4161580,"name":"Largo","timezone":{"dstOffset":-4,"gmtOffset":-5,"timeZoneId":"America/New_York"},"lat":27.90979,"lng":-82.78842,"population":77648},{"id":5372205,"name":"Menifee","timezone":{"dstOffset":-7,"gmtOffset":-8,"timeZoneId":"America/Los_Angeles"},"lat":33.72835,"lng":-117.14642,"population":77519},{"id":4179320,"name":"Albany","timezone":{"dstOffset":-4,"gmtOffset":-5,"timeZoneId":"America/New_York"},"lat":31.57851,"lng":-84.15574,"population":77434},{"id":4501018,"name":"Camden","timezone":{"dstOffset":-4,"gmtOffset":-5,"timeZoneId":"America/New_York"},"lat":39.92595,"lng":-75.11962,"population":77344},{"id":5364514,"name":"Lake Forest","timezone":{"dstOffset":-7,"gmtOffset":-8,"timeZoneId":"America/Los_Angeles"},"lat":33.64697,"lng":-117.68922,"population":77264},{"id":4688275,"name":"Edinburg","timezone":{"dstOffset":-5,"gmtOffset":-6,"timeZoneId":"America/Chicago"},"lat":26.30174,"lng":-98.16334,"population":77100},{"id":5128549,"name":"New Rochelle","timezone":{"dstOffset":-4,"gmtOffset":-5,"timeZoneId":"America/New_York"},"lat":40.91149,"lng":-73.78235,"population":77062},{"id":4711725,"name":"Mission","timezone":{"dstOffset":-5,"gmtOffset":-6,"timeZoneId":"America/Chicago"},"lat":26.21591,"lng":-98.32529,"population":77058},{"id":5376095,"name":"Napa","timezone":{"dstOffset":-7,"gmtOffset":-8,"timeZoneId":"America/Los_Angeles"},"lat":38.29714,"lng":-122.28553,"population":76915},{"id":5386834,"name":"Redwood City","timezone":{"dstOffset":-7,"gmtOffset":-8,"timeZoneId":"America/Los_Angeles"},"lat":37.48522,"lng":-122.23635,"population":76815},{"id":4257494,"name":"Fishers","timezone":{"dstOffset":-4,"gmtOffset":-5,"timeZoneId":"America/Indiana/Indianapolis"},"lat":39.95559,"lng":-86.01387,"population":76794},{"id":4407010,"name":"St. Joseph","timezone":{"dstOffset":-5,"gmtOffset":-6,"timeZoneId":"America/Chicago"},"lat":39.76861,"lng":-94.84663,"population":76780},{"id":6331909,"name":"Johns Creek","timezone":{"dstOffset":-4,"gmtOffset":-5,"timeZoneId":"America/New_York"},"lat":34.02893,"lng":-84.19858,"population":76728},{"id":5713587,"name":"Bend","timezone":{"dstOffset":-7,"gmtOffset":-8,"timeZoneId":"America/Los_Angeles"},"lat":44.05817,"lng":-121.31531,"population":76639},{"id":5327422,"name":"Bellflower","timezone":{"dstOffset":-7,"gmtOffset":-8,"timeZoneId":"America/Los_Angeles"},"lat":33.88168,"lng":-118.11701,"population":76616},{"id":4885164,"name":"Bloomington","timezone":{"dstOffset":-5,"gmtOffset":-6,"timeZoneId":"America/Chicago"},"lat":40.4842,"lng":-88.99369,"population":76610},{"id":4941720,"name":"Lawrence","timezone":{"dstOffset":-4,"gmtOffset":-5,"timeZoneId":"America/New_York"},"lat":42.70704,"lng":-71.16311,"population":76377},{"id":5552301,"name":"Avondale","timezone":{"dstOffset":-7,"gmtOffset":-7,"timeZoneId":"America/Phoenix"},"lat":33.4356,"lng":-112.3496,"population":76238},{"id":4677008,"name":"Bryan","timezone":{"dstOffset":-5,"gmtOffset":-6,"timeZoneId":"America/Chicago"},"lat":30.67436,"lng":-96.36996,"population":76201},{"id":4236895,"name":"Decatur","timezone":{"dstOffset":-5,"gmtOffset":-6,"timeZoneId":"America/Chicago"},"lat":39.84031,"lng":-88.9548,"population":76122},{"id":5211303,"name":"Scranton","timezone":{"dstOffset":-4,"gmtOffset":-5,"timeZoneId":"America/New_York"},"lat":41.40916,"lng":-75.6649,"population":76089},{"id":4163971,"name":"Melbourne","timezone":{"dstOffset":-4,"gmtOffset":-5,"timeZoneId":"America/New_York"},"lat":28.08363,"lng":-80.60811,"population":76068},{"id":5359446,"name":"Indio","timezone":{"dstOffset":-7,"gmtOffset":-8,"timeZoneId":"America/Los_Angeles"},"lat":33.7207,"lng":-116.21677,"population":76036},{"id":5019335,"name":"Brooklyn Park","timezone":{"dstOffset":-5,"gmtOffset":-6,"timeZoneId":"America/Chicago"},"lat":45.09413,"lng":-93.35634,"population":75781},{"id":4951257,"name":"Somerville","timezone":{"dstOffset":-4,"gmtOffset":-5,"timeZoneId":"America/New_York"},"lat":42.3876,"lng":-71.0995,"population":75754},{"id":5014130,"name":"Waterford","timezone":{"dstOffset":-4,"gmtOffset":-5,"timeZoneId":"America/Detroit"},"lat":42.69303,"lng":-83.41181,"population":75737},{"id":4771075,"name":"Lynchburg","timezone":{"dstOffset":-4,"gmtOffset":-5,"timeZoneId":"America/New_York"},"lat":37.41375,"lng":-79.14225,"population":75568},{"id":5404119,"name":"Tustin","timezone":{"dstOffset":-7,"gmtOffset":-8,"timeZoneId":"America/Los_Angeles"},"lat":33.74585,"lng":-117.82617,"population":75540},{"id":5325866,"name":"Baldwin Park","timezone":{"dstOffset":-7,"gmtOffset":-8,"timeZoneId":"America/Los_Angeles"},"lat":34.08529,"lng":-117.9609,"population":75390},{"id":4160711,"name":"Kendall","timezone":{"dstOffset":-4,"gmtOffset":-5,"timeZoneId":"America/New_York"},"lat":25.67927,"lng":-80.31727,"population":75371},{"id":4167538,"name":"Palm Coast","timezone":{"dstOffset":-4,"gmtOffset":-5,"timeZoneId":"America/New_York"},"lat":29.58497,"lng":-81.20784,"population":75180},{"id":5112375,"name":"Cheektowaga","timezone":{"dstOffset":-4,"gmtOffset":-5,"timeZoneId":"America/New_York"},"lat":42.90339,"lng":-78.75475,"population":75178},{"id":4883555,"name":"Arlington Heights","timezone":{"dstOffset":-5,"gmtOffset":-6,"timeZoneId":"America/Chicago"},"lat":42.08836,"lng":-87.98063,"population":75101},{"id":5600685,"name":"Meridian","timezone":{"dstOffset":-6,"gmtOffset":-7,"timeZoneId":"America/Boise"},"lat":43.61211,"lng":-116.39151,"population":75092},{"id":4153071,"name":"Deerfield Beach","timezone":{"dstOffset":-4,"gmtOffset":-5,"timeZoneId":"America/New_York"},"lat":26.31841,"lng":-80.09977,"population":75018},{"id":5180225,"name":"Bethlehem","timezone":{"dstOffset":-4,"gmtOffset":-5,"timeZoneId":"America/New_York"},"lat":40.62593,"lng":-75.37046,"population":74982},{"id":5740099,"name":"Medford","timezone":{"dstOffset":-7,"gmtOffset":-8,"timeZoneId":"America/Los_Angeles"},"lat":42.32652,"lng":-122.87559,"population":74907},{"id":5336545,"name":"Chino Hills","timezone":{"dstOffset":-7,"gmtOffset":-8,"timeZoneId":"America/Los_Angeles"},"lat":33.9938,"lng":-117.75888,"population":74799},{"id":4891382,"name":"Evanston","timezone":{"dstOffset":-5,"gmtOffset":-6,"timeZoneId":"America/Chicago"},"lat":42.04114,"lng":-87.69006,"population":74486},{"id":4997787,"name":"Kalamazoo","timezone":{"dstOffset":-4,"gmtOffset":-5,"timeZoneId":"America/Detroit"},"lat":42.29171,"lng":-85.58723,"population":74262},{"id":4910713,"name":"Schaumburg","timezone":{"dstOffset":-5,"gmtOffset":-6,"timeZoneId":"America/Chicago"},"lat":42.03336,"lng":-88.08341,"population":74227},{"id":5009586,"name":"Shelby","timezone":{"dstOffset":-4,"gmtOffset":-5,"timeZoneId":"America/Detroit"},"lat":42.67087,"lng":-83.03298,"population":74099},{"id":5375480,"name":"Mountain View","timezone":{"dstOffset":-7,"gmtOffset":-8,"timeZoneId":"America/Los_Angeles"},"lat":37.38605,"lng":-122.08385,"population":74066},{"id":5799610,"name":"Kennewick","timezone":{"dstOffset":-7,"gmtOffset":-8,"timeZoneId":"America/Los_Angeles"},"lat":46.21125,"lng":-119.13723,"population":73917},{"id":5322737,"name":"Alameda","timezone":{"dstOffset":-7,"gmtOffset":-8,"timeZoneId":"America/Los_Angeles"},"lat":37.76521,"lng":-122.24164,"population":73812},{"id":5404915,"name":"Upland","timezone":{"dstOffset":-7,"gmtOffset":-8,"timeZoneId":"America/Los_Angeles"},"lat":34.09751,"lng":-117.64839,"population":73732},{"id":4110486,"name":"Fayetteville","timezone":{"dstOffset":-5,"gmtOffset":-6,"timeZoneId":"America/Chicago"},"lat":36.06258,"lng":-94.15743,"population":73580},{"id":4885265,"name":"Bolingbrook","timezone":{"dstOffset":-5,"gmtOffset":-6,"timeZoneId":"America/Chicago"},"lat":41.69864,"lng":-88.0684,"population":73366},{"id":4839292,"name":"New Britain","timezone":{"dstOffset":-4,"gmtOffset":-5,"timeZoneId":"America/New_York"},"lat":41.66121,"lng":-72.77954,"population":73206},{"id":5149222,"name":"Canton","timezone":{"dstOffset":-4,"gmtOffset":-5,"timeZoneId":"America/New_York"},"lat":40.79895,"lng":-81.37845,"population":73007},{"id":5546220,"name":"Saint George","timezone":{"dstOffset":-6,"gmtOffset":-7,"timeZoneId":"America/Denver"},"lat":37.10415,"lng":-113.58412,"population":72897},{"id":5244080,"name":"Appleton","timezone":{"dstOffset":-5,"gmtOffset":-6,"timeZoneId":"America/Chicago"},"lat":44.26193,"lng":-88.41538,"population":72623},{"id":5349705,"name":"Folsom","timezone":{"dstOffset":-7,"gmtOffset":-8,"timeZoneId":"America/Los_Angeles"},"lat":38.67796,"lng":-121.17606,"population":72203},{"id":5392593,"name":"San Ramon","timezone":{"dstOffset":-7,"gmtOffset":-8,"timeZoneId":"America/Los_Angeles"},"lat":37.77993,"lng":-121.97802,"population":72148},{"id":5015618,"name":"Wyoming","timezone":{"dstOffset":-4,"gmtOffset":-5,"timeZoneId":"America/Detroit"},"lat":42.91336,"lng":-85.70531,"population":72125},{"id":4330236,"name":"Lake Charles","timezone":{"dstOffset":-5,"gmtOffset":-6,"timeZoneId":"America/Chicago"},"lat":30.21309,"lng":-93.2044,"population":71993},{"id":4672731,"name":"Baytown","timezone":{"dstOffset":-5,"gmtOffset":-6,"timeZoneId":"America/Chicago"},"lat":29.7355,"lng":-94.97743,"population":71802},{"id":4467732,"name":"Gastonia","timezone":{"dstOffset":-4,"gmtOffset":-5,"timeZoneId":"America/New_York"},"lat":35.26208,"lng":-81.1873,"population":71741},{"id":5010636,"name":"Southfield","timezone":{"dstOffset":-4,"gmtOffset":-5,"timeZoneId":"America/Detroit"},"lat":42.47337,"lng":-83.22187,"population":71739},{"id":4369596,"name":"Silver Spring","timezone":{"dstOffset":-4,"gmtOffset":-5,"timeZoneId":"America/New_York"},"lat":38.99067,"lng":-77.02609,"population":71452},{"id":4450687,"name":"West Gulfport","timezone":{"dstOffset":-5,"gmtOffset":-6,"timeZoneId":"America/Chicago"},"lat":30.40409,"lng":-89.0942,"population":71329},{"id":5223869,"name":"Pawtucket","timezone":{"dstOffset":-4,"gmtOffset":-5,"timeZoneId":"America/New_York"},"lat":41.87871,"lng":-71.38256,"population":71148},{"id":4751839,"name":"Centreville","timezone":{"dstOffset":-4,"gmtOffset":-5,"timeZoneId":"America/New_York"},"lat":38.84039,"lng":-77.42888,"population":71135},{"id":4170156,"name":"Riverview","timezone":{"dstOffset":-4,"gmtOffset":-5,"timeZoneId":"America/New_York"},"lat":27.86614,"lng":-82.32648,"population":71050},{"id":5007402,"name":"Rochester Hills","timezone":{"dstOffset":-4,"gmtOffset":-5,"timeZoneId":"America/Detroit"},"lat":42.65837,"lng":-83.14993,"population":70995},{"id":4145381,"name":"Wilmington","timezone":{"dstOffset":-4,"gmtOffset":-5,"timeZoneId":"America/New_York"},"lat":39.74595,"lng":-75.54659,"population":70851},{"id":5278052,"name":"Waukesha","timezone":{"dstOffset":-5,"gmtOffset":-6,"timeZoneId":"America/Chicago"},"lat":43.01168,"lng":-88.23148,"population":70718},{"id":5041926,"name":"Plymouth","timezone":{"dstOffset":-5,"gmtOffset":-6,"timeZoneId":"America/Chicago"},"lat":45.01052,"lng":-93.45551,"population":70576},{"id":4501198,"name":"Cherry Hill","timezone":{"dstOffset":-4,"gmtOffset":-5,"timeZoneId":"America/New_York"},"lat":39.93484,"lng":-75.03073,"population":70475},{"id":4718721,"name":"Pharr","timezone":{"dstOffset":-5,"gmtOffset":-6,"timeZoneId":"America/Chicago"},"lat":26.1948,"lng":-98.18362,"population":70400},{"id":5383777,"name":"Pleasanton","timezone":{"dstOffset":-7,"gmtOffset":-8,"timeZoneId":"America/Los_Angeles"},"lat":37.66243,"lng":-121.87468,"population":70285},{"id":5785965,"name":"Auburn","timezone":{"dstOffset":-7,"gmtOffset":-8,"timeZoneId":"America/Los_Angeles"},"lat":47.30732,"lng":-122.22845,"population":70180},{"id":4473083,"name":"Jacksonville","timezone":{"dstOffset":-4,"gmtOffset":-5,"timeZoneId":"America/New_York"},"lat":34.75405,"lng":-77.43024,"population":70145},{"id":4924006,"name":"Muncie","timezone":{"dstOffset":-4,"gmtOffset":-5,"timeZoneId":"America/Indiana/Indianapolis"},"lat":40.19338,"lng":-85.38636,"population":70085},{"id":5410438,"name":"Woodland Hills","timezone":{"dstOffset":-7,"gmtOffset":-8,"timeZoneId":"America/Los_Angeles"},"lat":34.16834,"lng":-118.60592,"population":70000},{"id":4132093,"name":"Springdale","timezone":{"dstOffset":-5,"gmtOffset":-6,"timeZoneId":"America/Chicago"},"lat":36.18674,"lng":-94.12881,"population":69797},{"id":5102443,"name":"Passaic","timezone":{"dstOffset":-4,"gmtOffset":-5,"timeZoneId":"America/New_York"},"lat":40.85677,"lng":-74.12848,"population":69781},{"id":5369367,"name":"Lynwood","timezone":{"dstOffset":-7,"gmtOffset":-8,"timeZoneId":"America/Los_Angeles"},"lat":33.93029,"lng":-118.21146,"population":69772},{"id":5404555,"name":"Union City","timezone":{"dstOffset":-7,"gmtOffset":-8,"timeZoneId":"America/Los_Angeles"},"lat":37.59577,"lng":-122.01913,"population":69516},{"id":5324363,"name":"Apple Valley","timezone":{"dstOffset":-7,"gmtOffset":-8,"timeZoneId":"America/Los_Angeles"},"lat":34.50083,"lng":-117.18588,"population":69135},{"id":5386754,"name":"Redlands","timezone":{"dstOffset":-7,"gmtOffset":-8,"timeZoneId":"America/Los_Angeles"},"lat":34.05557,"lng":-117.18254,"population":68747},{"id":4905211,"name":"Palatine","timezone":{"dstOffset":-5,"gmtOffset":-6,"timeZoneId":"America/Chicago"},"lat":42.1103,"lng":-88.03424,"population":68557},{"id":5404024,"name":"Turlock","timezone":{"dstOffset":-7,"gmtOffset":-8,"timeZoneId":"America/Los_Angeles"},"lat":37.49466,"lng":-120.84659,"population":68549},{"id":5377985,"name":"Northridge","timezone":{"dstOffset":-7,"gmtOffset":-8,"timeZoneId":"America/Los_Angeles"},"lat":34.22834,"lng":-118.53675,"population":68469},{"id":4880889,"name":"Waterloo","timezone":{"dstOffset":-5,"gmtOffset":-6,"timeZoneId":"America/Chicago"},"lat":42.49276,"lng":-92.34296,"population":68406},{"id":5382146,"name":"Perris","timezone":{"dstOffset":-7,"gmtOffset":-8,"timeZoneId":"America/Los_Angeles"},"lat":33.78252,"lng":-117.22865,"population":68386},{"id":4937230,"name":"Framingham","timezone":{"dstOffset":-4,"gmtOffset":-5,"timeZoneId":"America/New_York"},"lat":42.27926,"lng":-71.41617,"population":68318},{"id":4148677,"name":"Boynton Beach","timezone":{"dstOffset":-4,"gmtOffset":-5,"timeZoneId":"America/New_York"},"lat":26.52535,"lng":-80.06643,"population":68217},{"id":5768233,"name":"Rapid City","timezone":{"dstOffset":-6,"gmtOffset":-7,"timeZoneId":"America/Denver"},"lat":44.08054,"lng":-103.23101,"population":67956},{"id":5490263,"name":"Santa Fe","timezone":{"dstOffset":-6,"gmtOffset":-7,"timeZoneId":"America/Denver"},"lat":35.68698,"lng":-105.9378,"population":67947},{"id":4862034,"name":"Iowa City","timezone":{"dstOffset":-5,"gmtOffset":-6,"timeZoneId":"America/Chicago"},"lat":41.66113,"lng":-91.53017,"population":67862},{"id":4588165,"name":"Mt. Pleasant","timezone":{"dstOffset":-4,"gmtOffset":-5,"timeZoneId":"America/New_York"},"lat":32.79407,"lng":-79.86259,"population":67843},{"id":4428667,"name":"Gulfport","timezone":{"dstOffset":-5,"gmtOffset":-6,"timeZoneId":"America/Chicago"},"lat":30.36742,"lng":-89.09282,"population":67793},{"id":4372599,"name":"Waldorf","timezone":{"dstOffset":-4,"gmtOffset":-5,"timeZoneId":"America/New_York"},"lat":38.62456,"lng":-76.93914,"population":67752},{"id":4356188,"name":"Glen Burnie","timezone":{"dstOffset":-4,"gmtOffset":-5,"timeZoneId":"America/New_York"},"lat":39.16261,"lng":-76.62469,"population":67639},{"id":4711801,"name":"Missouri City","timezone":{"dstOffset":-5,"gmtOffset":-6,"timeZoneId":"America/Chicago"},"lat":29.61857,"lng":-95.53772,"population":67358},{"id":5777107,"name":"Layton","timezone":{"dstOffset":-6,"gmtOffset":-7,"timeZoneId":"America/Denver"},"lat":41.06022,"lng":-111.97105,"population":67311},{"id":5127835,"name":"Mount Vernon","timezone":{"dstOffset":-4,"gmtOffset":-5,"timeZoneId":"America/New_York"},"lat":40.9126,"lng":-73.83708,"population":67292},{"id":4116834,"name":"Jonesboro","timezone":{"dstOffset":-5,"gmtOffset":-6,"timeZoneId":"America/Chicago"},"lat":35.8423,"lng":-90.70428,"population":67263},{"id":4922462,"name":"Lafayette","timezone":{"dstOffset":-4,"gmtOffset":-5,"timeZoneId":"America/Indiana/Indianapolis"},"lat":40.4167,"lng":-86.87529,"population":67140},{"id":5370164,"name":"Manteca","timezone":{"dstOffset":-7,"gmtOffset":-8,"timeZoneId":"America/Los_Angeles"},"lat":37.79743,"lng":-121.21605,"population":67096},{"id":5177568,"name":"Youngstown","timezone":{"dstOffset":-4,"gmtOffset":-5,"timeZoneId":"America/New_York"},"lat":41.09978,"lng":-80.64952,"population":66982},{"id":4161625,"name":"Lauderhill","timezone":{"dstOffset":-4,"gmtOffset":-5,"timeZoneId":"America/New_York"},"lat":26.14036,"lng":-80.21338,"population":66887},{"id":5579368,"name":"Loveland","timezone":{"dstOffset":-6,"gmtOffset":-7,"timeZoneId":"America/Denver"},"lat":40.39776,"lng":-105.07498,"population":66859},{"id":5288661,"name":"Casas Adobes","timezone":{"dstOffset":-7,"gmtOffset":-7,"timeZoneId":"America/Phoenix"},"lat":32.32341,"lng":-110.9951,"population":66795},{"id":5373327,"name":"Milpitas","timezone":{"dstOffset":-7,"gmtOffset":-8,"timeZoneId":"America/Los_Angeles"},"lat":37.42827,"lng":-121.90662,"population":66790},{"id":5666639,"name":"Missoula","timezone":{"dstOffset":-6,"gmtOffset":-7,"timeZoneId":"America/Denver"},"lat":46.87215,"lng":-113.994,"population":66788},{"id":5386785,"name":"Redondo Beach","timezone":{"dstOffset":-7,"gmtOffset":-8,"timeZoneId":"America/Los_Angeles"},"lat":33.84918,"lng":-118.38841,"population":66748},{"id":4329753,"name":"Kenner","timezone":{"dstOffset":-5,"gmtOffset":-6,"timeZoneId":"America/Chicago"},"lat":29.99409,"lng":-90.24174,"population":66702},{"id":4229476,"name":"Warner Robins","timezone":{"dstOffset":-4,"gmtOffset":-5,"timeZoneId":"America/New_York"},"lat":32.62098,"lng":-83.5999,"population":66588},{"id":5105634,"name":"Union City","timezone":{"dstOffset":-4,"gmtOffset":-5,"timeZoneId":"America/New_York"},"lat":40.77955,"lng":-74.02375,"population":66455},{"id":4975802,"name":"Portland","timezone":{"dstOffset":-4,"gmtOffset":-5,"timeZoneId":"America/New_York"},"lat":43.66147,"lng":-70.25533,"population":66194},{"id":4593142,"name":"Rock Hill","timezone":{"dstOffset":-4,"gmtOffset":-5,"timeZoneId":"America/New_York"},"lat":34.92487,"lng":-81.02508,"population":66154},{"id":5136454,"name":"Schenectady","timezone":{"dstOffset":-4,"gmtOffset":-5,"timeZoneId":"America/New_York"},"lat":42.81424,"lng":-73.93957,"population":66135},{"id":4735966,"name":"Temple","timezone":{"dstOffset":-5,"gmtOffset":-6,"timeZoneId":"America/Chicago"},"lat":31.09823,"lng":-97.34278,"population":66102},{"id":5265838,"name":"Oshkosh","timezone":{"dstOffset":-5,"gmtOffset":-6,"timeZoneId":"America/Chicago"},"lat":44.02471,"lng":-88.54261,"population":66083},{"id":4755158,"name":"Dale City","timezone":{"dstOffset":-4,"gmtOffset":-5,"timeZoneId":"America/New_York"},"lat":38.63706,"lng":-77.31109,"population":65969},{"id":5251436,"name":"Eau Claire","timezone":{"dstOffset":-5,"gmtOffset":-6,"timeZoneId":"America/Chicago"},"lat":44.81135,"lng":-91.49849,"population":65883},{"id":5294810,"name":"Flagstaff","timezone":{"dstOffset":-7,"gmtOffset":-7,"timeZoneId":"America/Phoenix"},"lat":35.19807,"lng":-111.65127,"population":65870},{"id":4671524,"name":"Atascocita","timezone":{"dstOffset":-5,"gmtOffset":-6,"timeZoneId":"America/Chicago"},"lat":29.99883,"lng":-95.1766,"population":65844},{"id":5044407,"name":"Saint Cloud","timezone":{"dstOffset":-5,"gmtOffset":-6,"timeZoneId":"America/Chicago"},"lat":45.5608,"lng":-94.16249,"population":65842},{"id":4354265,"name":"Ellicott City","timezone":{"dstOffset":-4,"gmtOffset":-5,"timeZoneId":"America/New_York"},"lat":39.26733,"lng":-76.79831,"population":65834},{"id":4406831,"name":"St. Charles","timezone":{"dstOffset":-5,"gmtOffset":-6,"timeZoneId":"America/Chicago"},"lat":38.78394,"lng":-90.48123,"population":65794},{"id":5341704,"name":"Davis","timezone":{"dstOffset":-7,"gmtOffset":-8,"timeZoneId":"America/Los_Angeles"},"lat":38.54491,"lng":-121.74052,"population":65622},{"id":4792867,"name":"West Lynchburg","timezone":{"dstOffset":-4,"gmtOffset":-5,"timeZoneId":"America/New_York"},"lat":37.4032,"lng":-79.17808,"population":65517},{"id":4059102,"name":"Dothan","timezone":{"dstOffset":-5,"gmtOffset":-6,"timeZoneId":"America/Chicago"},"lat":31.22323,"lng":-85.39049,"population":65496},{"id":4937232,"name":"Framingham Center","timezone":{"dstOffset":-4,"gmtOffset":-5,"timeZoneId":"America/New_York"},"lat":42.29732,"lng":-71.43701,"population":65413},{"id":4178003,"name":"Weston","timezone":{"dstOffset":-4,"gmtOffset":-5,"timeZoneId":"America/New_York"},"lat":26.10037,"lng":-80.39977,"population":65333},{"id":5296266,"name":"Goodyear","timezone":{"dstOffset":-7,"gmtOffset":-7,"timeZoneId":"America/Phoenix"},"lat":33.43532,"lng":-112.35821,"population":65275},{"id":4355585,"name":"Frederick","timezone":{"dstOffset":-4,"gmtOffset":-5,"timeZoneId":"America/New_York"},"lat":39.41427,"lng":-77.41054,"population":65239},{"id":4632595,"name":"Jackson","timezone":{"dstOffset":-5,"gmtOffset":-6,"timeZoneId":"America/Chicago"},"lat":35.61452,"lng":-88.81395,"population":65211},{"id":5333180,"name":"Camarillo","timezone":{"dstOffset":-7,"gmtOffset":-8,"timeZoneId":"America/Los_Angeles"},"lat":34.21639,"lng":-119.0376,"population":65201},{"id":5411015,"name":"Yuba City","timezone":{"dstOffset":-7,"gmtOffset":-8,"timeZoneId":"America/Los_Angeles"},"lat":39.14045,"lng":-121.61691,"population":64925},{"id":4696233,"name":"Harlingen","timezone":{"dstOffset":-5,"gmtOffset":-6,"timeZoneId":"America/Chicago"},"lat":26.19063,"lng":-97.6961,"population":64849},{"id":4911600,"name":"Skokie","timezone":{"dstOffset":-5,"gmtOffset":-6,"timeZoneId":"America/Chicago"},"lat":42.03336,"lng":-87.73339,"population":64784},{"id":5385941,"name":"Rancho Cordova","timezone":{"dstOffset":-7,"gmtOffset":-8,"timeZoneId":"America/Los_Angeles"},"lat":38.58907,"lng":-121.30273,"population":64776},{"id":7259621,"name":"West Bloomfield","timezone":{"dstOffset":-4,"gmtOffset":-5,"timeZoneId":"America/Detroit"},"lat":42.56891,"lng":-83.38356,"population":64690},{"id":4691585,"name":"Flower Mound","timezone":{"dstOffset":-5,"gmtOffset":-6,"timeZoneId":"America/Chicago"},"lat":33.01457,"lng":-97.09696,"population":64669},{"id":5380748,"name":"Palo Alto","timezone":{"dstOffset":-7,"gmtOffset":-8,"timeZoneId":"America/Los_Angeles"},"lat":37.44188,"lng":-122.14302,"population":64403},{"id":5097441,"name":"East Orange","timezone":{"dstOffset":-4,"gmtOffset":-5,"timeZoneId":"America/New_York"},"lat":40.76732,"lng":-74.20487,"population":64270},{"id":5410902,"name":"Yorba Linda","timezone":{"dstOffset":-7,"gmtOffset":-8,"timeZoneId":"America/Los_Angeles"},"lat":33.88863,"lng":-117.81311,"population":64234},{"id":5024825,"name":"Eagan","timezone":{"dstOffset":-5,"gmtOffset":-6,"timeZoneId":"America/Chicago"},"lat":44.80413,"lng":-93.16689,"population":64206},{"id":5406990,"name":"Walnut Creek","timezone":{"dstOffset":-7,"gmtOffset":-8,"timeZoneId":"America/Los_Angeles"},"lat":37.90631,"lng":-122.06496,"population":64173},{"id":5161262,"name":"Lorain","timezone":{"dstOffset":-4,"gmtOffset":-5,"timeZoneId":"America/New_York"},"lat":41.45282,"lng":-82.18237,"population":64097},{"id":5397765,"name":"South San Francisco","timezone":{"dstOffset":-7,"gmtOffset":-8,"timeZoneId":"America/Los_Angeles"},"lat":37.65466,"lng":-122.40775,"population":63632},{"id":4353765,"name":"Dundalk","timezone":{"dstOffset":-4,"gmtOffset":-5,"timeZoneId":"America/New_York"},"lat":39.25066,"lng":-76.52052,"population":63597},{"id":5257754,"name":"Janesville","timezone":{"dstOffset":-5,"gmtOffset":-6,"timeZoneId":"America/Chicago"},"lat":42.68279,"lng":-89.01872,"population":63575},{"id":5391791,"name":"San Clemente","timezone":{"dstOffset":-7,"gmtOffset":-8,"timeZoneId":"America/Los_Angeles"},"lat":33.42697,"lng":-117.61199,"population":63522},{"id":5101879,"name":"North Bergen","timezone":{"dstOffset":-4,"gmtOffset":-5,"timeZoneId":"America/New_York"},"lat":40.80427,"lng":-74.01208,"population":63484},{"id":7261268,"name":"Florence-Graham","timezone":{"dstOffset":-7,"gmtOffset":-8,"timeZoneId":"America/Los_Angeles"},"lat":33.96772,"lng":-118.24438,"population":63387},{"id":4715292,"name":"North Richland Hills","timezone":{"dstOffset":-5,"gmtOffset":-6,"timeZoneId":"America/Chicago"},"lat":32.8343,"lng":-97.2289,"population":63343},{"id":4845411,"name":"West Hartford","timezone":{"dstOffset":-4,"gmtOffset":-5,"timeZoneId":"America/New_York"},"lat":41.76204,"lng":-72.74204,"population":63268},{"id":5383465,"name":"Pittsburg","timezone":{"dstOffset":-7,"gmtOffset":-8,"timeZoneId":"America/Los_Angeles"},"lat":38.02798,"lng":-121.88468,"population":63264},{"id":4633419,"name":"Johnson City","timezone":{"dstOffset":-4,"gmtOffset":-5,"timeZoneId":"America/New_York"},"lat":36.31344,"lng":-82.35347,"population":63152},{"id":5011908,"name":"Taylor","timezone":{"dstOffset":-4,"gmtOffset":-5,"timeZoneId":"America/Detroit"},"lat":42.24087,"lng":-83.26965,"population":63131},{"id":4150066,"name":"Carol City","timezone":{"dstOffset":-4,"gmtOffset":-5,"timeZoneId":"America/New_York"},"lat":25.94065,"lng":-80.2456,"population":63031},{"id":5095445,"name":"Bayonne","timezone":{"dstOffset":-4,"gmtOffset":-5,"timeZoneId":"America/New_York"},"lat":40.66871,"lng":-74.11431,"population":63024},{"id":5364329,"name":"Laguna Niguel","timezone":{"dstOffset":-7,"gmtOffset":-8,"timeZoneId":"America/Los_Angeles"},"lat":33.52253,"lng":-117.70755,"population":62979},{"id":5382496,"name":"Pico Rivera","timezone":{"dstOffset":-7,"gmtOffset":-8,"timeZoneId":"America/Los_Angeles"},"lat":33.98307,"lng":-118.09674,"population":62942},{"id":4739157,"name":"Victoria","timezone":{"dstOffset":-5,"gmtOffset":-6,"timeZoneId":"America/Chicago"},"lat":28.80527,"lng":-97.0036,"population":62592},{"id":5052361,"name":"West Coon Rapids","timezone":{"dstOffset":-5,"gmtOffset":-6,"timeZoneId":"America/Chicago"},"lat":45.15969,"lng":-93.34967,"population":62528},{"id":5374322,"name":"Montebello","timezone":{"dstOffset":-7,"gmtOffset":-8,"timeZoneId":"America/Los_Angeles"},"lat":34.00946,"lng":-118.10535,"population":62500},{"id":4623560,"name":"Franklin","timezone":{"dstOffset":-5,"gmtOffset":-6,"timeZoneId":"America/Chicago"},"lat":35.92506,"lng":-86.86889,"population":62487},{"id":4513575,"name":"Hamilton","timezone":{"dstOffset":-4,"gmtOffset":-5,"timeZoneId":"America/New_York"},"lat":39.3995,"lng":-84.56134,"population":62477},{"id":4124112,"name":"North Little Rock","timezone":{"dstOffset":-5,"gmtOffset":-6,"timeZoneId":"America/Chicago"},"lat":34.76954,"lng":-92.26709,"population":62304},{"id":4155995,"name":"Fort Myers","timezone":{"dstOffset":-4,"gmtOffset":-5,"timeZoneId":"America/New_York"},"lat":26.62168,"lng":-81.84059,"population":62298},{"id":5142056,"name":"Utica","timezone":{"dstOffset":-4,"gmtOffset":-5,"timeZoneId":"America/New_York"},"lat":43.1009,"lng":-75.23266,"population":62235},