[{"id":3646738,"name":"Caracas","timezone":{"dstOffset":-4.5,"gmtOffset":-4.5,"timeZoneId":"America/Caracas"},"lat":10.48801,"lng":-66.87919,"population":3000000},{"id":3633009,"name":"Maracaibo","timezone":{"dstOffset":-4.5,"gmtOffset":-4.5,"timeZoneId":"America/Caracas"},"lat":10.63167,"lng":-71.64056,"population":2225000},{"id":3632998,"name":"Maracay","timezone":{"dstOffset":-4.5,"gmtOffset":-4.5,"timeZoneId":"America/Caracas"},"lat":10.24694,"lng":-67.59583,"population":1754256},{"id":3625549,"name":"Valencia","timezone":{"dstOffset":-4.5,"gmtOffset":-4.5,"timeZoneId":"America/Caracas"},"lat":10.16202,"lng":-68.00765,"population":1385083},{"id":3648522,"name":"Barquisimeto","timezone":{"dstOffset":-4.5,"gmtOffset":-4.5,"timeZoneId":"America/Caracas"},"lat":10.07389,"lng":-69.32278,"population":809490},{"id":3645528,"name":"Ciudad Guayana","timezone":{"dstOffset":-4.5,"gmtOffset":-4.5,"timeZoneId":"America/Caracas"},"lat":8.35122,"lng":-62.64102,"population":746535},{"id":3648559,"name":"Barcelona","timezone":{"dstOffset":-4.5,"gmtOffset":-4.5,"timeZoneId":"America/Caracas"},"lat":10.13333,"lng":-64.7,"population":424795},{"id":3778045,"name":"Maturín","timezone":{"dstOffset":-4.5,"gmtOffset":-4.5,"timeZoneId":"America/Caracas"},"lat":9.74569,"lng":-63.18323,"population":410972},{"id":3629672,"name":"Puerto Cruz","timezone":{"dstOffset":-4.5,"gmtOffset":-4.5,"timeZoneId":"America/Caracas"},"lat":10.21667,"lng":-64.61667,"population":370000},{"id":3630297,"name":"Petare","timezone":{"dstOffset":-4.5,"gmtOffset":-4.5,"timeZoneId":"America/Caracas"},"lat":10.47226,"lng":-66.80155,"population":364684},{"id":3648546,"name":"Barinas","timezone":{"dstOffset":-4.5,"gmtOffset":-4.5,"timeZoneId":"America/Caracas"},"lat":8.62261,"lng":-70.20749,"population":353442},{"id":3625829,"name":"Turmero","timezone":{"dstOffset":-4.5,"gmtOffset":-4.5,"timeZoneId":"America/Caracas"},"lat":10.22856,"lng":-67.47421,"population":344700},{"id":3645532,"name":"Ciudad Bolivar","timezone":{"dstOffset":-4.5,"gmtOffset":-4.5,"timeZoneId":"America/Caracas"},"lat":8.12923,"lng":-63.54086,"population":338000},{"id":3632308,"name":"Merida","timezone":{"dstOffset":-4.5,"gmtOffset":-4.5,"timeZoneId":"America/Caracas"},"lat":8.59524,"lng":-71.1434,"population":300000},{"id":3487903,"name":"Alto Barinas","timezone":{"dstOffset":-4.5,"gmtOffset":-4.5,"timeZoneId":"America/Caracas"},"lat":8.5931,"lng":-70.2261,"population":284289},{"id":3627047,"name":"Santa Teresa","timezone":{"dstOffset":-4.5,"gmtOffset":-4.5,"timeZoneId":"America/Caracas"},"lat":10.23409,"lng":-66.66308,"population":278890},{"id":3644768,"name":"Cumaná","timezone":{"dstOffset":-4.5,"gmtOffset":-4.5,"timeZoneId":"America/Caracas"},"lat":10.45397,"lng":-64.18256,"population":257783},{"id":3628473,"name":"San Cristobal","timezone":{"dstOffset":-4.5,"gmtOffset":-4.5,"timeZoneId":"America/Caracas"},"lat":7.76694,"lng":-72.225,"population":246583},{"id":3648439,"name":"Baruta","timezone":{"dstOffset":-4.5,"gmtOffset":-4.5,"timeZoneId":"America/Caracas"},"lat":10.43398,"lng":-66.87662,"population":244216},{"id":3631741,"name":"Mucumpiz","timezone":{"dstOffset":-4.5,"gmtOffset":-4.5,"timeZoneId":"America/Caracas"},"lat":8.41667,"lng":-71.13333,"population":215259},{"id":3647651,"name":"Cabimas","timezone":{"dstOffset":-4.5,"gmtOffset":-4.5,"timeZoneId":"America/Caracas"},"lat":10.38828,"lng":-71.43992,"population":200818},{"id":3645213,"name":"Coro","timezone":{"dstOffset":-4.5,"gmtOffset":-4.5,"timeZoneId":"America/Caracas"},"lat":11.4045,"lng":-69.67344,"population":195227},{"id":3639898,"name":"Guatire","timezone":{"dstOffset":-4.5,"gmtOffset":-4.5,"timeZoneId":"America/Caracas"},"lat":10.4762,"lng":-66.54266,"population":191903},{"id":3644918,"name":"Cúa","timezone":{"dstOffset":-4.5,"gmtOffset":-4.5,"timeZoneId":"America/Caracas"},"lat":10.15892,"lng":-66.88575,"population":182558},{"id":3640049,"name":"Guarenas","timezone":{"dstOffset":-4.5,"gmtOffset":-4.5,"timeZoneId":"America/Caracas"},"lat":10.46736,"lng":-66.60663,"population":181612},{"id":3629706,"name":"Puerto Cabello","timezone":{"dstOffset":-4.5,"gmtOffset":-4.5,"timeZoneId":"America/Caracas"},"lat":10.47306,"lng":-68.0125,"population":174000},{"id":3631412,"name":"Ocumare","timezone":{"dstOffset":-4.5,"gmtOffset":-4.5,"timeZoneId":"America/Caracas"},"lat":10.11649,"lng":-66.77609,"population":166072},{"id":3640465,"name":"Guacara","timezone":{"dstOffset":-4.5,"gmtOffset":-4.5,"timeZoneId":"America/Caracas"},"lat":10.22609,"lng":-67.877,"population":151752},{"id":3641351,"name":"El Tigre","timezone":{"dstOffset":-4.5,"gmtOffset":-4.5,"timeZoneId":"America/Caracas"},"lat":8.88752,"lng":-64.24544,"population":150999},{"id":3642833,"name":"El Limón","timezone":{"dstOffset":-4.5,"gmtOffset":-4.5,"timeZoneId":"America/Caracas"},"lat":10.30589,"lng":-67.63212,"population":148247},{"id":3649833,"name":"Acarigua","timezone":{"dstOffset":-4.5,"gmtOffset":-4.5,"timeZoneId":"America/Caracas"},"lat":9.55451,"lng":-69.19564,"population":143704},{"id":3633622,"name":"Los Teques","timezone":{"dstOffset":-4.5,"gmtOffset":-4.5,"timeZoneId":"America/Caracas"},"lat":10.34447,"lng":-67.04325,"population":140617},{"id":3629576,"name":"Punto Fijo","timezone":{"dstOffset":-4.5,"gmtOffset":-4.5,"timeZoneId":"America/Caracas"},"lat":11.6956,"lng":-70.19957,"population":131784},{"id":3645854,"name":"Charallave","timezone":{"dstOffset":-4.5,"gmtOffset":-4.5,"timeZoneId":"America/Caracas"},"lat":10.24247,"lng":-66.85723,"population":129182},{"id":3630932,"name":"Palo Negro","timezone":{"dstOffset":-4.5,"gmtOffset":-4.5,"timeZoneId":"America/Caracas"},"lat":10.17389,"lng":-67.54194,"population":128875},{"id":3647549,"name":"Cagua","timezone":{"dstOffset":-4.5,"gmtOffset":-4.5,"timeZoneId":"America/Caracas"},"lat":10.18634,"lng":-67.45935,"population":119033},{"id":3486270,"name":"Anaco","timezone":{"dstOffset":-4.5,"gmtOffset":-4.5,"timeZoneId":"America/Caracas"},"lat":9.43889,"lng":-64.47278,"population":117596},{"id":3647444,"name":"Calabozo","timezone":{"dstOffset":-4.5,"gmtOffset":-4.5,"timeZoneId":"America/Caracas"},"lat":8.92416,"lng":-67.42929,"population":117132},{"id":3640226,"name":"Guanare","timezone":{"dstOffset":-4.5,"gmtOffset":-4.5,"timeZoneId":"America/Caracas"},"lat":9.04183,"lng":-69.74206,"population":112286},{"id":3646382,"name":"Carupano","timezone":{"dstOffset":-4.5,"gmtOffset":-4.5,"timeZoneId":"America/Caracas"},"lat":10.66781,"lng":-63.25849,"population":112082},{"id":3644417,"name":"Ejido","timezone":{"dstOffset":-4.5,"gmtOffset":-4.5,"timeZoneId":"America/Caracas"},"lat":8.54665,"lng":-71.24087,"population":106915},{"id":3646190,"name":"Catia La Mar","timezone":{"dstOffset":-4.5,"gmtOffset":-4.5,"timeZoneId":"America/Caracas"},"lat":10.60383,"lng":-67.03034,"population":106822},{"id":3632929,"name":"Mariara","timezone":{"dstOffset":-4.5,"gmtOffset":-4.5,"timeZoneId":"America/Caracas"},"lat":10.29644,"lng":-67.71813,"population":105486},{"id":3646487,"name":"Carora","timezone":{"dstOffset":-4.5,"gmtOffset":-4.5,"timeZoneId":"America/Caracas"},"lat":10.17554,"lng":-70.08274,"population":93788},{"id":3625542,"name":"Valera","timezone":{"dstOffset":-4.5,"gmtOffset":-4.5,"timeZoneId":"America/Caracas"},"lat":9.31778,"lng":-70.60361,"population":93756},{"id":3625207,"name":"Yaritagua","timezone":{"dstOffset":-4.5,"gmtOffset":-4.5,"timeZoneId":"America/Caracas"},"lat":10.08,"lng":-69.12611,"population":89662},{"id":3625515,"name":"Valle de La Pascua","timezone":{"dstOffset":-4.5,"gmtOffset":-4.5,"timeZoneId":"America/Caracas"},"lat":9.21554,"lng":-66.00734,"population":89080},{"id":3628053,"name":"San Juan de los Morros","timezone":{"dstOffset":-4.5,"gmtOffset":-4.5,"timeZoneId":"America/Caracas"},"lat":9.91152,"lng":-67.35381,"population":87739},{"id":3629965,"name":"Porlamar","timezone":{"dstOffset":-4.5,"gmtOffset":-4.5,"timeZoneId":"America/Caracas"},"lat":10.95796,"lng":-63.84906,"population":87120},{"id":3634922,"name":"La Victoria","timezone":{"dstOffset":-4.5,"gmtOffset":-4.5,"timeZoneId":"America/Caracas"},"lat":10.21844,"lng":-67.33017,"population":87045},{"id":3626219,"name":"Tinaquillo","timezone":{"dstOffset":-4.5,"gmtOffset":-4.5,"timeZoneId":"America/Caracas"},"lat":9.91861,"lng":-68.30472,"population":82145},{"id":3803449,"name":"El Cafetal","timezone":{"dstOffset":-4.5,"gmtOffset":-4.5,"timeZoneId":"America/Caracas"},"lat":10.46941,"lng":-66.83063,"population":80029},{"id":3805673,"name":"San Fernando de Apure","timezone":{"dstOffset":-4.5,"gmtOffset":-4.5,"timeZoneId":"America/Caracas"},"lat":7.88782,"lng":-67.47236,"population":78779},{"id":3628503,"name":"San Carlos","timezone":{"dstOffset":-4.5,"gmtOffset":-4.5,"timeZoneId":"America/Caracas"},"lat":9.66124,"lng":-68.58268,"population":77192},{"id":3628423,"name":"San Felipe","timezone":{"dstOffset":-4.5,"gmtOffset":-4.5,"timeZoneId":"America/Caracas"},"lat":10.33991,"lng":-68.74247,"population":76766},{"id":3625341,"name":"Villa de Cura","timezone":{"dstOffset":-4.5,"gmtOffset":-4.5,"timeZoneId":"America/Caracas"},"lat":10.03863,"lng":-67.48938,"population":76614},{"id":3649017,"name":"Araure","timezone":{"dstOffset":-4.5,"gmtOffset":-4.5,"timeZoneId":"America/Caracas"},"lat":9.56009,"lng":-69.21475,"population":73054},{"id":3639747,"name":"Güigüe","timezone":{"dstOffset":-4.5,"gmtOffset":-4.5,"timeZoneId":"America/Caracas"},"lat":10.08528,"lng":-67.77917,"population":71530},{"id":3628966,"name":"La Villa del Rosario","timezone":{"dstOffset":-4.5,"gmtOffset":-4.5,"timeZoneId":"America/Caracas"},"lat":10.3258,"lng":-72.31343,"population":65011},{"id":3645981,"name":"Chacao","timezone":{"dstOffset":-4.5,"gmtOffset":-4.5,"timeZoneId":"America/Caracas"},"lat":10.49598,"lng":-66.85347,"population":64609},{"id":3628550,"name":"San Antonio de Los Altos","timezone":{"dstOffset":-4.5,"gmtOffset":-4.5,"timeZoneId":"America/Caracas"},"lat":10.38854,"lng":-66.95179,"population":63873},{"id":3633444,"name":"Machiques","timezone":{"dstOffset":-4.5,"gmtOffset":-4.5,"timeZoneId":"America/Caracas"},"lat":10.06077,"lng":-72.55212,"population":62968},{"id":3628142,"name":"San José de Guanipa","timezone":{"dstOffset":-4.5,"gmtOffset":-4.5,"timeZoneId":"America/Caracas"},"lat":8.88724,"lng":-64.16512,"population":62128},{"id":3641099,"name":"El Vigía","timezone":{"dstOffset":-4.5,"gmtOffset":-4.5,"timeZoneId":"America/Caracas"},"lat":8.61366,"lng":-71.65284,"population":59092},{"id":3803515,"name":"Caucaguita","timezone":{"dstOffset":-4.5,"gmtOffset":-4.5,"timeZoneId":"America/Caracas"},"lat":10.35782,"lng":-66.80252,"population":59000},{"id":3629614,"name":"Punta Cardón","timezone":{"dstOffset":-4.5,"gmtOffset":-4.5,"timeZoneId":"America/Caracas"},"lat":11.65806,"lng":-70.215,"population":58926},{"id":3634184,"name":"Los Dos Caminos","timezone":{"dstOffset":-4.5,"gmtOffset":-4.5,"timeZoneId":"America/Caracas"},"lat":10.49389,"lng":-66.82863,"population":58168},{"id":3643031,"name":"El Hatillo","timezone":{"dstOffset":-4.5,"gmtOffset":-4.5,"timeZoneId":"America/Caracas"},"lat":10.42994,"lng":-66.8161,"population":57591},{"id":3803651,"name":"La Dolorita","timezone":{"dstOffset":-4.5,"gmtOffset":-4.5,"timeZoneId":"America/Caracas"},"lat":10.4883,"lng":-66.78608,"population":56846},{"id":3628489,"name":"San Carlos del Zulia","timezone":{"dstOffset":-4.5,"gmtOffset":-4.5,"timeZoneId":"America/Caracas"},"lat":9.00003,"lng":-71.91352,"population":56582},{"id":3625710,"name":"Upata","timezone":{"dstOffset":-4.5,"gmtOffset":-4.5,"timeZoneId":"America/Caracas"},"lat":8.00861,"lng":-62.39889,"population":53685},{"id":3641275,"name":"Tocuyo","timezone":{"dstOffset":-4.5,"gmtOffset":-4.5,"timeZoneId":"America/Caracas"},"lat":9.78734,"lng":-69.7937,"population":53099},{"id":3633341,"name":"Maiquetía","timezone":{"dstOffset":-4.5,"gmtOffset":-4.5,"timeZoneId":"America/Caracas"},"lat":10.59621,"lng":-66.95485,"population":52564},{"id":3646169,"name":"Caucagüito","timezone":{"dstOffset":-4.5,"gmtOffset":-4.5,"timeZoneId":"America/Caracas"},"lat":10.48666,"lng":-66.73799,"population":52556},{"id":3629710,"name":"Puerto Ayacucho","timezone":{"dstOffset":-4.5,"gmtOffset":-4.5,"timeZoneId":"America/Caracas"},"lat":5.66389,"lng":-67.62361,"population":52526},{"id":3628952,"name":"Rubio","timezone":{"dstOffset":-4.5,"gmtOffset":-4.5,"timeZoneId":"America/Caracas"},"lat":7.70131,"lng":-72.35569,"population":51568},{"id":3625929,"name":"Tucupita","timezone":{"dstOffset":-4.5,"gmtOffset":-4.5,"timeZoneId":"America/Caracas"},"lat":9.06222,"lng":-62.05102,"population":51534},{"id":3627968,"name":"San Mateo","timezone":{"dstOffset":-4.5,"gmtOffset":-4.5,"timeZoneId":"America/Caracas"},"lat":10.21302,"lng":-67.42365,"population":50401},{"id":3645671,"name":"Chivacoa","timezone":{"dstOffset":-4.5,"gmtOffset":-4.5,"timeZoneId":"America/Caracas"},"lat":10.16028,"lng":-68.895,"population":45904},{"id":3631878,"name":"Morón","timezone":{"dstOffset":-4.5,"gmtOffset":-4.5,"timeZoneId":"America/Caracas"},"lat":10.48889,"lng":-68.20028,"population":44308},{"id":3637623,"name":"Lagunillas","timezone":{"dstOffset":-4.5,"gmtOffset":-4.5,"timeZoneId":"America/Caracas"},"lat":10.13008,"lng":-71.25946,"population":44257},{"id":3628267,"name":"San Joaquín","timezone":{"dstOffset":-4.5,"gmtOffset":-4.5,"timeZoneId":"America/Caracas"},"lat":10.263,"lng":-67.7858,"population":41630},{"id":3629419,"name":"Quíbor","timezone":{"dstOffset":-4.5,"gmtOffset":-4.5,"timeZoneId":"America/Caracas"},"lat":9.92866,"lng":-69.6201,"population":41526},{"id":3625066,"name":"Zaraza","timezone":{"dstOffset":-4.5,"gmtOffset":-4.5,"timeZoneId":"America/Caracas"},"lat":9.35029,"lng":-65.32452,"population":41483},{"id":3646451,"name":"Carrizal","timezone":{"dstOffset":-4.5,"gmtOffset":-4.5,"timeZoneId":"America/Caracas"},"lat":10.34985,"lng":-66.98632,"population":40618},{"id":3649408,"name":"Altagracia de Orituco","timezone":{"dstOffset":-4.5,"gmtOffset":-4.5,"timeZoneId":"America/Caracas"},"lat":9.86005,"lng":-66.38139,"population":40052},{"id":3639725,"name":"Güiria","timezone":{"dstOffset":-4.5,"gmtOffset":-4.5,"timeZoneId":"America/Caracas"},"lat":10.57806,"lng":-62.29772,"population":40000},{"id":3646062,"name":"Tacarigua","timezone":{"dstOffset":-4.5,"gmtOffset":-4.5,"timeZoneId":"America/Caracas"},"lat":10.08621,"lng":-67.91982,"population":39205},{"id":3628060,"name":"San Juan de Colón","timezone":{"dstOffset":-4.5,"gmtOffset":-4.5,"timeZoneId":"America/Caracas"},"lat":8.03125,"lng":-72.26053,"population":38233},{"id":3625979,"name":"Trujillo","timezone":{"dstOffset":-4.5,"gmtOffset":-4.5,"timeZoneId":"America/Caracas"},"lat":9.37084,"lng":-70.43472,"population":38110},{"id":3646767,"name":"Caraballeda","timezone":{"dstOffset":-4.5,"gmtOffset":-4.5,"timeZoneId":"America/Caracas"},"lat":10.61119,"lng":-66.85215,"population":37824},{"id":3480908,"name":"La Asunción","timezone":{"dstOffset":-4.5,"gmtOffset":-4.5,"timeZoneId":"America/Caracas"},"lat":11.03333,"lng":-63.86278,"population":35084},{"id":3633677,"name":"Los Rastrojos","timezone":{"dstOffset":-4.5,"gmtOffset":-4.5,"timeZoneId":"America/Caracas"},"lat":10.02588,"lng":-69.24166,"population":34636},{"id":3648540,"name":"Barinitas","timezone":{"dstOffset":-4.5,"gmtOffset":-4.5,"timeZoneId":"America/Caracas"},"lat":8.76222,"lng":-70.41111,"population":34397},{"id":3635325,"name":"Las Tejerías","timezone":{"dstOffset":-4.5,"gmtOffset":-4.5,"timeZoneId":"America/Caracas"},"lat":10.25237,"lng":-67.18472,"population":33320},{"id":3646869,"name":"Cantaura","timezone":{"dstOffset":-4.5,"gmtOffset":-4.5,"timeZoneId":"America/Caracas"},"lat":9.30571,"lng":-64.35841,"population":33040},{"id":3628549,"name":"San Antonio del Táchira","timezone":{"dstOffset":-4.5,"gmtOffset":-4.5,"timeZoneId":"America/Caracas"},"lat":7.81454,"lng":-72.4431,"population":32458},{"id":3627186,"name":"Santa Rita","timezone":{"dstOffset":-4.5,"gmtOffset":-4.5,"timeZoneId":"America/Caracas"},"lat":10.53642,"lng":-71.51104,"population":31810},{"id":3804949,"name":"Guasdualito","timezone":{"dstOffset":-4.5,"gmtOffset":-4.5,"timeZoneId":"America/Caracas"},"lat":7.24241,"lng":-70.73236,"population":30860},{"id":3631507,"name":"Nirgua","timezone":{"dstOffset":-4.5,"gmtOffset":-4.5,"timeZoneId":"America/Caracas"},"lat":10.15526,"lng":-68.5663,"population":30188},{"id":3627382,"name":"Santa Elena de Uairén","timezone":{"dstOffset":-4.5,"gmtOffset":-4.5,"timeZoneId":"America/Caracas"},"lat":4.60226,"lng":-61.11025,"population":29795},{"id":3639107,"name":"Juan Griego","timezone":{"dstOffset":-4.5,"gmtOffset":-4.5,"timeZoneId":"America/Caracas"},"lat":11.08172,"lng":-63.96549,"population":28256},{"id":3625346,"name":"Villa Bruzual","timezone":{"dstOffset":-4.5,"gmtOffset":-4.5,"timeZoneId":"America/Caracas"},"lat":9.33278,"lng":-69.12083,"population":27993},{"id":3626402,"name":"Táriba","timezone":{"dstOffset":-4.5,"gmtOffset":-4.5,"timeZoneId":"America/Caracas"},"lat":7.8188,"lng":-72.22427,"population":27432},{"id":3795152,"name":"La Fría","timezone":{"dstOffset":-4.5,"gmtOffset":-4.5,"timeZoneId":"America/Caracas"},"lat":8.21523,"lng":-72.24888,"population":27077},{"id":3637721,"name":"La Guaira","timezone":{"dstOffset":-4.5,"gmtOffset":-4.5,"timeZoneId":"America/Caracas"},"lat":10.59901,"lng":-66.9346,"population":25259},{"id":3645806,"name":"Chichiriviche","timezone":{"dstOffset":-4.5,"gmtOffset":-4.5,"timeZoneId":"America/Caracas"},"lat":10.9333,"lng":-68.27716,"population":12500},{"id":3625965,"name":"Tucacas","timezone":{"dstOffset":-4.5,"gmtOffset":-4.5,"timeZoneId":"America/Caracas"},"lat":10.7906,"lng":-68.32577,"population":12500},{"id":3631413,"name":"Ocumare de la Costa","timezone":{"dstOffset":-4.5,"gmtOffset":-4.5,"timeZoneId":"America/Caracas"},"lat":10.46127,"lng":-67.76872,"population":0},{"id":3631431,"name":"Obispos","timezone":{"dstOffset":-4.5,"gmtOffset":-4.5,"timeZoneId":"America/Caracas"},"lat":8.60701,"lng":-70.10489,"population":0},{"id":3631465,"name":"Nueva Bolivia","timezone":{"dstOffset":-4.5,"gmtOffset":-4.5,"timeZoneId":"America/Caracas"},"lat":9.14176,"lng":-71.0912,"population":0},{"id":3631614,"name":"Naguanagua","timezone":{"dstOffset":-4.5,"gmtOffset":-4.5,"timeZoneId":"America/Caracas"},"lat":10.26,"lng":-68.01861,"population":0},{"id":3631752,"name":"Mucuchíes","timezone":{"dstOffset":-4.5,"gmtOffset":-4.5,"timeZoneId":"America/Caracas"},"lat":8.74899,"lng":-70.91418,"population":0},{"id":3631791,"name":"Motatán","timezone":{"dstOffset":-4.5,"gmtOffset":-4.5,"timeZoneId":"America/Caracas"},"lat":9.39002,"lng":-70.59119,"population":0},{"id":3632051,"name":"Monte Carmelo","timezone":{"dstOffset":-4.5,"gmtOffset":-4.5,"timeZoneId":"America/Caracas"},"lat":9.18583,"lng":-70.81561,"population":0},{"id":3632072,"name":"Montalbán","timezone":{"dstOffset":-4.5,"gmtOffset":-4.5,"timeZoneId":"America/Caracas"},"lat":10.21298,"lng":-68.32674,"population":0},{"id":3632186,"name":"Mirimire","timezone":{"dstOffset":-4.5,"gmtOffset":-4.5,"timeZoneId":"America/Caracas"},"lat":11.1602,"lng":-68.72604,"population":0},{"id":3632198,"name":"Miranda","timezone":{"dstOffset":-4.5,"gmtOffset":-4.5,"timeZoneId":"America/Caracas"},"lat":10.14987,"lng":-68.39418,"population":0},{"id":3632260,"name":"Michelena","timezone":{"dstOffset":-4.5,"gmtOffset":-4.5,"timeZoneId":"America/Caracas"},"lat":7.9549,"lng":-72.24322,"population":0},{"id":3632401,"name":"Mene de Mauroa","timezone":{"dstOffset":-4.5,"gmtOffset":-4.5,"timeZoneId":"America/Caracas"},"lat":10.68156,"lng":-71.03678,"population":0},{"id":3632836,"name":"Masparrito","timezone":{"dstOffset":-4.5,"gmtOffset":-4.5,"timeZoneId":"America/Caracas"},"lat":9.00194,"lng":-70.30139,"population":0},{"id":3632867,"name":"Maroa","timezone":{"dstOffset":-4.5,"gmtOffset":-4.5,"timeZoneId":"America/Caracas"},"lat":2.71861,"lng":-67.55992,"population":0},{"id":3632890,"name":"Maripa","timezone":{"dstOffset":-4.5,"gmtOffset":-4.5,"timeZoneId":"America/Caracas"},"lat":7.41537,"lng":-65.18961,"population":0},{"id":3632910,"name":"Marigüitar","timezone":{"dstOffset":-4.5,"gmtOffset":-4.5,"timeZoneId":"America/Caracas"},"lat":10.44716,"lng":-63.90449,"population":0},{"id":3633063,"name":"Maporal","timezone":{"dstOffset":-4.5,"gmtOffset":-4.5,"timeZoneId":"America/Caracas"},"lat":7.645,"lng":-70.41985,"population":0},{"id":3633248,"name":"Mamporal","timezone":{"dstOffset":-4.5,"gmtOffset":-4.5,"timeZoneId":"America/Caracas"},"lat":10.36461,"lng":-66.13044,"population":0},{"id":3634116,"name":"Los Guayos","timezone":{"dstOffset":-4.5,"gmtOffset":-4.5,"timeZoneId":"America/Caracas"},"lat":10.18026,"lng":-67.9377,"population":0},{"id":3634696,"name":"Lobatera","timezone":{"dstOffset":-4.5,"gmtOffset":-4.5,"timeZoneId":"America/Caracas"},"lat":7.9293,"lng":-72.24683,"population":0},{"id":3634760,"name":"Libertad","timezone":{"dstOffset":-4.5,"gmtOffset":-4.5,"timeZoneId":"America/Caracas"},"lat":9.35562,"lng":-68.69177,"population":0},{"id":3634761,"name":"Libertad","timezone":{"dstOffset":-4.5,"gmtOffset":-4.5,"timeZoneId":"America/Caracas"},"lat":8.32651,"lng":-69.62977,"population":0},{"id":3634763,"name":"Capacho Viejo","timezone":{"dstOffset":-4.5,"gmtOffset":-4.5,"timeZoneId":"America/Caracas"},"lat":7.82853,"lng":-72.31907,"population":0},{"id":3634816,"name":"La Yuca","timezone":{"dstOffset":-4.5,"gmtOffset":-4.5,"timeZoneId":"America/Caracas"},"lat":8.73109,"lng":-70.18072,"population":0},{"id":3634965,"name":"La Vela de Coro","timezone":{"dstOffset":-4.5,"gmtOffset":-4.5,"timeZoneId":"America/Caracas"},"lat":11.46209,"lng":-69.56591,"population":0},{"id":3634973,"name":"Veguitas","timezone":{"dstOffset":-4.5,"gmtOffset":-4.5,"timeZoneId":"America/Caracas"},"lat":8.82391,"lng":-69.99581,"population":0},{"id":3635064,"name":"La Unión","timezone":{"dstOffset":-4.5,"gmtOffset":-4.5,"timeZoneId":"America/Caracas"},"lat":8.21573,"lng":-67.76653,"population":0},{"id":3635260,"name":"Las Vegas","timezone":{"dstOffset":-4.5,"gmtOffset":-4.5,"timeZoneId":"America/Caracas"},"lat":9.53727,"lng":-68.6296,"population":0},{"id":3635714,"name":"Las Mercedes","timezone":{"dstOffset":-4.5,"gmtOffset":-4.5,"timeZoneId":"America/Caracas"},"lat":9.11018,"lng":-66.39718,"population":0},{"id":3636565,"name":"La Quebrada","timezone":{"dstOffset":-4.5,"gmtOffset":-4.5,"timeZoneId":"America/Caracas"},"lat":9.15462,"lng":-70.57604,"population":0},{"id":3636682,"name":"La Plata","timezone":{"dstOffset":-4.5,"gmtOffset":-4.5,"timeZoneId":"America/Caracas"},"lat":10.32025,"lng":-71.2721,"population":0},{"id":3637311,"name":"La Luz","timezone":{"dstOffset":-4.5,"gmtOffset":-4.5,"timeZoneId":"America/Caracas"},"lat":8.39419,"lng":-69.82358,"population":0},{"id":3637624,"name":"Lagunillas","timezone":{"dstOffset":-4.5,"gmtOffset":-4.5,"timeZoneId":"America/Caracas"},"lat":8.51286,"lng":-71.38789,"population":0},{"id":3638075,"name":"La Esmeralda","timezone":{"dstOffset":-4.5,"gmtOffset":-4.5,"timeZoneId":"America/Caracas"},"lat":3.16667,"lng":-65.55,"population":0},{"id":3638264,"name":"La Cruz de Taratara","timezone":{"dstOffset":-4.5,"gmtOffset":-4.5,"timeZoneId":"America/Caracas"},"lat":11.06396,"lng":-69.7131,"population":0},{"id":3638371,"name":"La Concepción","timezone":{"dstOffset":-4.5,"gmtOffset":-4.5,"timeZoneId":"America/Caracas"},"lat":10.61919,"lng":-71.83814,"population":0},{"id":3638497,"name":"Chameta","timezone":{"dstOffset":-4.5,"gmtOffset":-4.5,"timeZoneId":"America/Caracas"},"lat":8.10024,"lng":-70.90671,"population":0},{"id":3638655,"name":"Caramuca","timezone":{"dstOffset":-4.5,"gmtOffset":-4.5,"timeZoneId":"America/Caracas"},"lat":8.59708,"lng":-70.32056,"population":0},{"id":3638904,"name":"La Azulita","timezone":{"dstOffset":-4.5,"gmtOffset":-4.5,"timeZoneId":"America/Caracas"},"lat":8.71314,"lng":-71.44417,"population":0},{"id":3639282,"name":"Jacura","timezone":{"dstOffset":-4.5,"gmtOffset":-4.5,"timeZoneId":"America/Caracas"},"lat":11.07417,"lng":-68.85604,"population":0},{"id":3639350,"name":"Irapa","timezone":{"dstOffset":-4.5,"gmtOffset":-4.5,"timeZoneId":"America/Caracas"},"lat":10.56968,"lng":-62.58102,"population":0},{"id":3639526,"name":"Higuerote","timezone":{"dstOffset":-4.5,"gmtOffset":-4.5,"timeZoneId":"America/Caracas"},"lat":10.48106,"lng":-66.10083,"population":0},{"id":3639880,"name":"Guayabal","timezone":{"dstOffset":-4.5,"gmtOffset":-4.5,"timeZoneId":"America/Caracas"},"lat":8.00077,"lng":-67.39732,"population":0},{"id":3639922,"name":"Guasipati","timezone":{"dstOffset":-4.5,"gmtOffset":-4.5,"timeZoneId":"America/Caracas"},"lat":7.47702,"lng":-61.89666,"population":0},{"id":3640100,"name":"Guaraque","timezone":{"dstOffset":-4.5,"gmtOffset":-4.5,"timeZoneId":"America/Caracas"},"lat":8.15347,"lng":-71.73563,"population":0},{"id":3640179,"name":"Guanta","timezone":{"dstOffset":-4.5,"gmtOffset":-4.5,"timeZoneId":"America/Caracas"},"lat":10.23448,"lng":-64.59552,"population":0},{"id":3640215,"name":"Guanarito","timezone":{"dstOffset":-4.5,"gmtOffset":-4.5,"timeZoneId":"America/Caracas"},"lat":8.69625,"lng":-69.20832,"population":0},{"id":3640324,"name":"Guama","timezone":{"dstOffset":-4.5,"gmtOffset":-4.5,"timeZoneId":"America/Caracas"},"lat":10.27032,"lng":-68.82131,"population":0},{"id":3640407,"name":"Guadarrama","timezone":{"dstOffset":-4.5,"gmtOffset":-4.5,"timeZoneId":"America/Caracas"},"lat":8.53508,"lng":-68.04923,"population":0},{"id":3640853,"name":"Farriar","timezone":{"dstOffset":-4.5,"gmtOffset":-4.5,"timeZoneId":"America/Caracas"},"lat":10.46967,"lng":-68.55857,"population":0},{"id":3641008,"name":"Encontrados","timezone":{"dstOffset":-4.5,"gmtOffset":-4.5,"timeZoneId":"America/Caracas"},"lat":9.06085,"lng":-72.23413,"population":0},{"id":3641154,"name":"El Valle del Espíritu Santo","timezone":{"dstOffset":-4.5,"gmtOffset":-4.5,"timeZoneId":"America/Caracas"},"lat":10.98283,"lng":-63.8831,"population":0},{"id":3641251,"name":"El Toro","timezone":{"dstOffset":-4.5,"gmtOffset":-4.5,"timeZoneId":"America/Caracas"},"lat":10.95423,"lng":-71.64843,"population":0},{"id":3641440,"name":"El Sombrero","timezone":{"dstOffset":-4.5,"gmtOffset":-4.5,"timeZoneId":"America/Caracas"},"lat":9.3863,"lng":-67.05818,"population":0},{"id":3641460,"name":"El Socorro","timezone":{"dstOffset":-4.5,"gmtOffset":-4.5,"timeZoneId":"America/Caracas"},"lat":8.99352,"lng":-65.74247,"population":0},{"id":3641775,"name":"El Regalo","timezone":{"dstOffset":-4.5,"gmtOffset":-4.5,"timeZoneId":"America/Caracas"},"lat":8.43455,"lng":-69.1767,"population":0},{"id":3642031,"name":"San Rafael del Piñal","timezone":{"dstOffset":-4.5,"gmtOffset":-4.5,"timeZoneId":"America/Caracas"},"lat":7.52986,"lng":-71.95922,"population":0},{"id":3642042,"name":"El Pilar","timezone":{"dstOffset":-4.5,"gmtOffset":-4.5,"timeZoneId":"America/Caracas"},"lat":10.53333,"lng":-63.15,"population":0},{"id":3642243,"name":"El Paradero","timezone":{"dstOffset":-4.5,"gmtOffset":-4.5,"timeZoneId":"America/Caracas"},"lat":9.77233,"lng":-70.61544,"population":0},{"id":3642260,"name":"El Pao","timezone":{"dstOffset":-4.5,"gmtOffset":-4.5,"timeZoneId":"America/Caracas"},"lat":9.63752,"lng":-68.12884,"population":0},{"id":3642292,"name":"El Palmer","timezone":{"dstOffset":-4.5,"gmtOffset":-4.5,"timeZoneId":"America/Caracas"},"lat":8.03333,"lng":-61.88333,"population":0},{"id":3642390,"name":"Elorza","timezone":{"dstOffset":-4.5,"gmtOffset":-4.5,"timeZoneId":"America/Caracas"},"lat":7.06088,"lng":-69.49765,"population":0},{"id":3643361,"name":"El Dividive","timezone":{"dstOffset":-4.5,"gmtOffset":-4.5,"timeZoneId":"America/Caracas"},"lat":9.47447,"lng":-70.73385,"population":0},{"id":3643516,"name":"El Corozo","timezone":{"dstOffset":-4.5,"gmtOffset":-4.5,"timeZoneId":"America/Caracas"},"lat":10.12061,"lng":-71.04422,"population":0},{"id":3643531,"name":"El Corozo","timezone":{"dstOffset":-4.5,"gmtOffset":-4.5,"timeZoneId":"America/Caracas"},"lat":8.5675,"lng":-70.35778,"population":0},{"id":3643568,"name":"El Consejo","timezone":{"dstOffset":-4.5,"gmtOffset":-4.5,"timeZoneId":"America/Caracas"},"lat":10.23717,"lng":-67.2714,"population":0},{"id":3643620,"name":"El Cobre","timezone":{"dstOffset":-4.5,"gmtOffset":-4.5,"timeZoneId":"America/Caracas"},"lat":8.03566,"lng":-72.05551,"population":0},{"id":3643962,"name":"El Cantón","timezone":{"dstOffset":-4.5,"gmtOffset":-4.5,"timeZoneId":"America/Caracas"},"lat":7.47729,"lng":-71.2956,"population":0},{"id":3644163,"name":"El Baúl","timezone":{"dstOffset":-4.5,"gmtOffset":-4.5,"timeZoneId":"America/Caracas"},"lat":8.96216,"lng":-68.29554,"population":0},{"id":3644440,"name":"Duaca","timezone":{"dstOffset":-4.5,"gmtOffset":-4.5,"timeZoneId":"America/Caracas"},"lat":10.28586,"lng":-69.16227,"population":0},{"id":3644478,"name":"Dolores","timezone":{"dstOffset":-4.5,"gmtOffset":-4.5,"timeZoneId":"America/Caracas"},"lat":8.28623,"lng":-69.56633,"population":0},{"id":3644571,"name":"Dabajuro","timezone":{"dstOffset":-4.5,"gmtOffset":-4.5,"timeZoneId":"America/Caracas"},"lat":11.02273,"lng":-70.67769,"population":0},{"id":3644646,"name":"Curiapo","timezone":{"dstOffset":-4.5,"gmtOffset":-4.5,"timeZoneId":"America/Caracas"},"lat":8.58094,"lng":-60.99755,"population":0},{"id":3644656,"name":"Curbatí","timezone":{"dstOffset":-4.5,"gmtOffset":-4.5,"timeZoneId":"America/Caracas"},"lat":8.45443,"lng":-70.55441,"population":0},{"id":3644701,"name":"Cupira","timezone":{"dstOffset":-4.5,"gmtOffset":-4.5,"timeZoneId":"America/Caracas"},"lat":10.16128,"lng":-65.70013,"population":0},{"id":3644767,"name":"Cumanacoa","timezone":{"dstOffset":-4.5,"gmtOffset":-4.5,"timeZoneId":"America/Caracas"},"lat":10.25013,"lng":-63.91918,"population":0},{"id":3645304,"name":"Concepción","timezone":{"dstOffset":-4.5,"gmtOffset":-4.5,"timeZoneId":"America/Caracas"},"lat":10.8,"lng":-71.76667,"population":0},{"id":3645360,"name":"Coloncito","timezone":{"dstOffset":-4.5,"gmtOffset":-4.5,"timeZoneId":"America/Caracas"},"lat":8.32563,"lng":-72.08951,"population":0},{"id":3645387,"name":"Cojedes","timezone":{"dstOffset":-4.5,"gmtOffset":-4.5,"timeZoneId":"America/Caracas"},"lat":9.62232,"lng":-68.91805,"population":0},{"id":3645469,"name":"Cocorote","timezone":{"dstOffset":-4.5,"gmtOffset":-4.5,"timeZoneId":"America/Caracas"},"lat":10.31978,"lng":-68.78386,"population":0},{"id":3645522,"name":"Clarines","timezone":{"dstOffset":-4.5,"gmtOffset":-4.5,"timeZoneId":"America/Caracas"},"lat":9.93991,"lng":-65.16517,"population":0},{"id":3645527,"name":"Ciudad Ojeda","timezone":{"dstOffset":-4.5,"gmtOffset":-4.5,"timeZoneId":"America/Caracas"},"lat":10.19635,"lng":-71.30818,"population":0},{"id":3645529,"name":"Ciudad De Nutrias","timezone":{"dstOffset":-4.5,"gmtOffset":-4.5,"timeZoneId":"America/Caracas"},"lat":8.09536,"lng":-69.30798,"population":0},{"id":3645531,"name":"Ciudad Bolivia","timezone":{"dstOffset":-4.5,"gmtOffset":-4.5,"timeZoneId":"America/Caracas"},"lat":8.35304,"lng":-70.57121,"population":0},{"id":3645586,"name":"Churuguara","timezone":{"dstOffset":-4.5,"gmtOffset":-4.5,"timeZoneId":"America/Caracas"},"lat":10.8137,"lng":-69.53782,"population":0},{"id":3645827,"name":"Chejendé","timezone":{"dstOffset":-4.5,"gmtOffset":-4.5,"timeZoneId":"America/Caracas"},"lat":9.61892,"lng":-70.35696,"population":0},{"id":3645944,"name":"Chaguaramas","timezone":{"dstOffset":-4.5,"gmtOffset":-4.5,"timeZoneId":"America/Caracas"},"lat":9.33855,"lng":-66.25255,"population":0},{"id":3646175,"name":"Caucagua","timezone":{"dstOffset":-4.5,"gmtOffset":-4.5,"timeZoneId":"America/Caracas"},"lat":10.2831,"lng":-66.37591,"population":0},{"id":3646296,"name":"Casigua El Cubo","timezone":{"dstOffset":-4.5,"gmtOffset":-4.5,"timeZoneId":"America/Caracas"},"lat":8.74493,"lng":-72.51967,"population":0},{"id":3646316,"name":"Casanay","timezone":{"dstOffset":-4.5,"gmtOffset":-4.5,"timeZoneId":"America/Caracas"},"lat":10.50368,"lng":-63.41553,"population":0},{"id":3646534,"name":"Caripito","timezone":{"dstOffset":-4.5,"gmtOffset":-4.5,"timeZoneId":"America/Caracas"},"lat":10.11026,"lng":-63.09633,"population":0},{"id":3646581,"name":"Cariaco","timezone":{"dstOffset":-4.5,"gmtOffset":-4.5,"timeZoneId":"America/Caracas"},"lat":10.49573,"lng":-63.55399,"population":0},{"id":3646731,"name":"Carache","timezone":{"dstOffset":-4.5,"gmtOffset":-4.5,"timeZoneId":"America/Caracas"},"lat":9.62872,"lng":-70.22855,"population":0},{"id":3646796,"name":"Capitanejo","timezone":{"dstOffset":-4.5,"gmtOffset":-4.5,"timeZoneId":"America/Caracas"},"lat":8.01171,"lng":-71.00458,"population":0},{"id":3646829,"name":"Capatárida","timezone":{"dstOffset":-4.5,"gmtOffset":-4.5,"timeZoneId":"America/Caracas"},"lat":11.1748,"lng":-70.61898,"population":0},{"id":3647197,"name":"Campo Elías","timezone":{"dstOffset":-4.5,"gmtOffset":-4.5,"timeZoneId":"America/Caracas"},"lat":9.39347,"lng":-70.06035,"population":0},{"id":3647382,"name":"Camatagua","timezone":{"dstOffset":-4.5,"gmtOffset":-4.5,"timeZoneId":"America/Caracas"},"lat":9.78762,"lng":-66.90619,"population":0},{"id":3647400,"name":"Camaguán","timezone":{"dstOffset":-4.5,"gmtOffset":-4.5,"timeZoneId":"America/Caracas"},"lat":8.10655,"lng":-67.60724,"population":0},{"id":3647435,"name":"Calderas","timezone":{"dstOffset":-4.5,"gmtOffset":-4.5,"timeZoneId":"America/Caracas"},"lat":8.91426,"lng":-70.44745,"population":0},{"id":3647535,"name":"Caicara","timezone":{"dstOffset":-4.5,"gmtOffset":-4.5,"timeZoneId":"America/Caracas"},"lat":9.81754,"lng":-63.61331,"population":0},{"id":3647636,"name":"Cabure","timezone":{"dstOffset":-4.5,"gmtOffset":-4.5,"timeZoneId":"America/Caracas"},"lat":11.15,"lng":-69.60889,"population":0},{"id":3647637,"name":"Cabudare","timezone":{"dstOffset":-4.5,"gmtOffset":-4.5,"timeZoneId":"America/Caracas"},"lat":10.02889,"lng":-69.08944,"population":0},{"id":3647729,"name":"Bum Bum","timezone":{"dstOffset":-4.5,"gmtOffset":-4.5,"timeZoneId":"America/Caracas"},"lat":8.27664,"lng":-70.76664,"population":0},{"id":3647931,"name":"Bruzual","timezone":{"dstOffset":-4.5,"gmtOffset":-4.5,"timeZoneId":"America/Caracas"},"lat":8.05052,"lng":-69.33257,"population":0},{"id":3648042,"name":"Boraure","timezone":{"dstOffset":-4.5,"gmtOffset":-4.5,"timeZoneId":"America/Caracas"},"lat":10.24933,"lng":-68.7695,"population":0},{"id":3648127,"name":"Boconoíto","timezone":{"dstOffset":-4.5,"gmtOffset":-4.5,"timeZoneId":"America/Caracas"},"lat":8.84659,"lng":-69.98032,"population":0},{"id":3648132,"name":"Boconó","timezone":{"dstOffset":-4.5,"gmtOffset":-4.5,"timeZoneId":"America/Caracas"},"lat":9.24426,"lng":-70.26938,"population":0},{"id":3648163,"name":"Boca de Uchire","timezone":{"dstOffset":-4.5,"gmtOffset":-4.5,"timeZoneId":"America/Caracas"},"lat":10.13152,"lng":-65.42115,"population":0},{"id":3648187,"name":"Boca del Río","timezone":{"dstOffset":-4.5,"gmtOffset":-4.5,"timeZoneId":"America/Caracas"},"lat":10.96757,"lng":-64.1805,"population":0},{"id":3648274,"name":"Biscucuy","timezone":{"dstOffset":-4.5,"gmtOffset":-4.5,"timeZoneId":"America/Caracas"},"lat":9.35944,"lng":-69.9839,"population":0},{"id":3648279,"name":"Biruaca","timezone":{"dstOffset":-4.5,"gmtOffset":-4.5,"timeZoneId":"America/Caracas"},"lat":7.84483,"lng":-67.51679,"population":0},{"id":3648290,"name":"Betijoque","timezone":{"dstOffset":-4.5,"gmtOffset":-4.5,"timeZoneId":"America/Caracas"},"lat":9.37568,"lng":-70.73131,"population":0},{"id":3648386,"name":"Bejuma","timezone":{"dstOffset":-4.5,"gmtOffset":-4.5,"timeZoneId":"America/Caracas"},"lat":10.17309,"lng":-68.25887,"population":0},{"id":3625051,"name":"Zea","timezone":{"dstOffset":-4.5,"gmtOffset":-4.5,"timeZoneId":"America/Caracas"},"lat":8.37628,"lng":-71.78185,"population":0},{"id":3625155,"name":"Yumare","timezone":{"dstOffset":-4.5,"gmtOffset":-4.5,"timeZoneId":"America/Caracas"},"lat":10.59732,"lng":-68.67245,"population":0},{"id":3625214,"name":"Yaracal","timezone":{"dstOffset":-4.5,"gmtOffset":-4.5,"timeZoneId":"America/Caracas"},"lat":10.97099,"lng":-68.54435,"population":0},{"id":3625239,"name":"Yaguaraparo","timezone":{"dstOffset":-4.5,"gmtOffset":-4.5,"timeZoneId":"America/Caracas"},"lat":10.56916,"lng":-62.82693,"population":0},{"id":3625469,"name":"Las Casitas del Vegon de Nutrias","timezone":{"dstOffset":-4.5,"gmtOffset":-4.5,"timeZoneId":"America/Caracas"},"lat":8.23704,"lng":-69.4183,"population":0},{"id":3625519,"name":"Valle de Guanape","timezone":{"dstOffset":-4.5,"gmtOffset":-4.5,"timeZoneId":"America/Caracas"},"lat":9.90999,"lng":-65.67405,"population":0},{"id":3625613,"name":"Urumaco","timezone":{"dstOffset":-4.5,"gmtOffset":-4.5,"timeZoneId":"America/Caracas"},"lat":11.19913,"lng":-70.25499,"population":0},{"id":3625655,"name":"Urena","timezone":{"dstOffset":-4.5,"gmtOffset":-4.5,"timeZoneId":"America/Caracas"},"lat":7.91689,"lng":-72.44188,"population":0},{"id":3625693,"name":"Uracoa","timezone":{"dstOffset":-4.5,"gmtOffset":-4.5,"timeZoneId":"America/Caracas"},"lat":8.9996,"lng":-62.35164,"population":0},{"id":3625696,"name":"Urachiche","timezone":{"dstOffset":-4.5,"gmtOffset":-4.5,"timeZoneId":"America/Caracas"},"lat":10.15917,"lng":-69.01111,"population":0},{"id":3625732,"name":"Umuquena","timezone":{"dstOffset":-4.5,"gmtOffset":-4.5,"timeZoneId":"America/Caracas"},"lat":8.26588,"lng":-72.06371,"population":0},{"id":3625944,"name":"Tucupido","timezone":{"dstOffset":-4.5,"gmtOffset":-4.5,"timeZoneId":"America/Caracas"},"lat":9.27496,"lng":-65.77153,"population":0},{"id":3625963,"name":"Tucaní","timezone":{"dstOffset":-4.5,"gmtOffset":-4.5,"timeZoneId":"America/Caracas"},"lat":8.97003,"lng":-71.27277,"population":0},{"id":3626047,"name":"Tovar","timezone":{"dstOffset":-4.5,"gmtOffset":-4.5,"timeZoneId":"America/Caracas"},"lat":8.33204,"lng":-71.75118,"population":0},{"id":3626074,"name":"Torunos","timezone":{"dstOffset":-4.5,"gmtOffset":-4.5,"timeZoneId":"America/Caracas"},"lat":8.50016,"lng":-70.08056,"population":0},{"id":3626094,"name":"Torondoy","timezone":{"dstOffset":-4.5,"gmtOffset":-4.5,"timeZoneId":"America/Caracas"},"lat":9.03115,"lng":-71.01406,"population":0},{"id":3626168,"name":"Tocopero","timezone":{"dstOffset":-4.5,"gmtOffset":-4.5,"timeZoneId":"America/Caracas"},"lat":11.49897,"lng":-69.25892,"population":0},{"id":3626235,"name":"Tinaco","timezone":{"dstOffset":-4.5,"gmtOffset":-4.5,"timeZoneId":"America/Caracas"},"lat":9.69871,"lng":-68.43348,"population":0},{"id":3626237,"name":"Timotes","timezone":{"dstOffset":-4.5,"gmtOffset":-4.5,"timeZoneId":"America/Caracas"},"lat":8.98224,"lng":-70.73926,"population":0},{"id":3626302,"name":"Tía Juana","timezone":{"dstOffset":-4.5,"gmtOffset":-4.5,"timeZoneId":"America/Caracas"},"lat":10.25838,"lng":-71.36865,"population":0},{"id":3626595,"name":"Tabay","timezone":{"dstOffset":-4.5,"gmtOffset":-4.5,"timeZoneId":"America/Caracas"},"lat":8.6311,"lng":-71.07843,"population":0},{"id":3626741,"name":"Soledad","timezone":{"dstOffset":-4.5,"gmtOffset":-4.5,"timeZoneId":"America/Caracas"},"lat":8.16281,"lng":-63.56584,"population":0},{"id":3626764,"name":"Socopó","timezone":{"dstOffset":-4.5,"gmtOffset":-4.5,"timeZoneId":"America/Caracas"},"lat":8.23062,"lng":-70.82198,"population":0},{"id":3626785,"name":"Siquisique","timezone":{"dstOffset":-4.5,"gmtOffset":-4.5,"timeZoneId":"America/Caracas"},"lat":10.57027,"lng":-69.70302,"population":0},{"id":3626809,"name":"Sinamaica","timezone":{"dstOffset":-4.5,"gmtOffset":-4.5,"timeZoneId":"America/Caracas"},"lat":11.08656,"lng":-71.85595,"population":0},{"id":3626921,"name":"Seboruco","timezone":{"dstOffset":-4.5,"gmtOffset":-4.5,"timeZoneId":"America/Caracas"},"lat":8.14514,"lng":-72.07332,"population":0},{"id":3626960,"name":"Sarare","timezone":{"dstOffset":-4.5,"gmtOffset":-4.5,"timeZoneId":"America/Caracas"},"lat":9.78128,"lng":-69.1633,"population":0},{"id":3627021,"name":"Santo Domingo","timezone":{"dstOffset":-4.5,"gmtOffset":-4.5,"timeZoneId":"America/Caracas"},"lat":8.86052,"lng":-70.6948,"population":0},{"id":3627034,"name":"San Timoteo","timezone":{"dstOffset":-4.5,"gmtOffset":-4.5,"timeZoneId":"America/Caracas"},"lat":9.8,"lng":-71.06667,"population":0},{"id":3627148,"name":"Santa Rosa","timezone":{"dstOffset":-4.5,"gmtOffset":-4.5,"timeZoneId":"America/Caracas"},"lat":8.44033,"lng":-69.70105,"population":0},{"id":3627237,"name":"Santa María de Ipire","timezone":{"dstOffset":-4.5,"gmtOffset":-4.5,"timeZoneId":"America/Caracas"},"lat":8.81556,"lng":-65.3225,"population":0},{"id":3627240,"name":"Santa María de Caparo","timezone":{"dstOffset":-4.5,"gmtOffset":-4.5,"timeZoneId":"America/Caracas"},"lat":7.71412,"lng":-71.46466,"population":0},{"id":3627304,"name":"Santa Lucía","timezone":{"dstOffset":-4.5,"gmtOffset":-4.5,"timeZoneId":"America/Caracas"},"lat":8.10155,"lng":-69.77752,"population":0},{"id":3627334,"name":"Santa Isabel","timezone":{"dstOffset":-4.5,"gmtOffset":-4.5,"timeZoneId":"America/Caracas"},"lat":9.63217,"lng":-70.80759,"population":0},{"id":3627360,"name":"Santa Inés","timezone":{"dstOffset":-4.5,"gmtOffset":-4.5,"timeZoneId":"America/Caracas"},"lat":8.26241,"lng":-69.89795,"population":0},{"id":3627384,"name":"Santa Elena de Arenales","timezone":{"dstOffset":-4.5,"gmtOffset":-4.5,"timeZoneId":"America/Caracas"},"lat":8.81924,"lng":-71.46564,"population":0},{"id":3627418,"name":"Santa Cruz","timezone":{"dstOffset":-4.5,"gmtOffset":-4.5,"timeZoneId":"America/Caracas"},"lat":8.39823,"lng":-71.64126,"population":0},{"id":3627423,"name":"Santa Cruz de Bucaral","timezone":{"dstOffset":-4.5,"gmtOffset":-4.5,"timeZoneId":"America/Caracas"},"lat":10.81953,"lng":-69.27776,"population":0},{"id":3627457,"name":"Santa Cruz","timezone":{"dstOffset":-4.5,"gmtOffset":-4.5,"timeZoneId":"America/Caracas"},"lat":10.18,"lng":-67.51184,"population":0},{"id":3627510,"name":"Santa Catalina","timezone":{"dstOffset":-4.5,"gmtOffset":-4.5,"timeZoneId":"America/Caracas"},"lat":7.92408,"lng":-68.91745,"population":0},{"id":3627549,"name":"Santa Bárbara","timezone":{"dstOffset":-4.5,"gmtOffset":-4.5,"timeZoneId":"America/Caracas"},"lat":9.60886,"lng":-63.61003,"population":0},{"id":3627561,"name":"Santa Bárbara","timezone":{"dstOffset":-4.5,"gmtOffset":-4.5,"timeZoneId":"America/Caracas"},"lat":7.81348,"lng":-71.17788,"population":0},{"id":3627576,"name":"Santa Apolonia","timezone":{"dstOffset":-4.5,"gmtOffset":-4.5,"timeZoneId":"America/Caracas"},"lat":9.47139,"lng":-71.01419,"population":0},{"id":3627593,"name":"Santa Ana","timezone":{"dstOffset":-4.5,"gmtOffset":-4.5,"timeZoneId":"America/Caracas"},"lat":11.06908,"lng":-63.9242,"population":0},{"id":3627609,"name":"Santa Ana","timezone":{"dstOffset":-4.5,"gmtOffset":-4.5,"timeZoneId":"America/Caracas"},"lat":9.3056,"lng":-64.65478,"population":0},{"id":3627611,"name":"Santa Ana","timezone":{"dstOffset":-4.5,"gmtOffset":-4.5,"timeZoneId":"America/Caracas"},"lat":8.11697,"lng":-72.02174,"population":0},{"id":3627633,"name":"San Simón","timezone":{"dstOffset":-4.5,"gmtOffset":-4.5,"timeZoneId":"America/Caracas"},"lat":8.35078,"lng":-71.85028,"population":0},{"id":3627635,"name":"San Silvestre","timezone":{"dstOffset":-4.5,"gmtOffset":-4.5,"timeZoneId":"America/Caracas"},"lat":8.27585,"lng":-70.11027,"population":0},{"id":3627680,"name":"San Rafael de Onoto","timezone":{"dstOffset":-4.5,"gmtOffset":-4.5,"timeZoneId":"America/Caracas"},"lat":9.67742,"lng":-68.97344,"population":0},{"id":3627683,"name":"San Rafael de Carvajal","timezone":{"dstOffset":-4.5,"gmtOffset":-4.5,"timeZoneId":"America/Caracas"},"lat":9.30339,"lng":-70.58532,"population":0},{"id":3627685,"name":"San Rafael de Canaguá","timezone":{"dstOffset":-4.5,"gmtOffset":-4.5,"timeZoneId":"America/Caracas"},"lat":8.02667,"lng":-70.00861,"population":0},{"id":3627874,"name":"San Pablo","timezone":{"dstOffset":-4.5,"gmtOffset":-4.5,"timeZoneId":"America/Caracas"},"lat":10.24828,"lng":-68.84451,"population":0},{"id":3627969,"name":"San Mateo","timezone":{"dstOffset":-4.5,"gmtOffset":-4.5,"timeZoneId":"America/Caracas"},"lat":9.7392,"lng":-64.5496,"population":0},{"id":3627997,"name":"San Luis","timezone":{"dstOffset":-4.5,"gmtOffset":-4.5,"timeZoneId":"America/Caracas"},"lat":11.12034,"lng":-69.68397,"population":0},{"id":3628052,"name":"San Juan de Manapiare","timezone":{"dstOffset":-4.5,"gmtOffset":-4.5,"timeZoneId":"America/Caracas"},"lat":5.31718,"lng":-66.04862,"population":0},{"id":3628066,"name":"San Juan Bautista","timezone":{"dstOffset":-4.5,"gmtOffset":-4.5,"timeZoneId":"America/Caracas"},"lat":11.01116,"lng":-63.94406,"population":0},{"id":3628129,"name":"San José de Barlovento","timezone":{"dstOffset":-4.5,"gmtOffset":-4.5,"timeZoneId":"America/Caracas"},"lat":10.30125,"lng":-65.99052,"population":0},{"id":3628148,"name":"San José de Aerocuar","timezone":{"dstOffset":-4.5,"gmtOffset":-4.5,"timeZoneId":"America/Caracas"},"lat":10.59973,"lng":-63.32852,"population":0},{"id":3628350,"name":"San Francisco de Yare","timezone":{"dstOffset":-4.5,"gmtOffset":-4.5,"timeZoneId":"America/Caracas"},"lat":10.17793,"lng":-66.74648,"population":0},{"id":3628374,"name":"San Francisco","timezone":{"dstOffset":-4.5,"gmtOffset":-4.5,"timeZoneId":"America/Caracas"},"lat":10.55363,"lng":-71.70364,"population":0},{"id":3628394,"name":"San Fernando de Atabapo","timezone":{"dstOffset":-4.5,"gmtOffset":-4.5,"timeZoneId":"America/Caracas"},"lat":4.04956,"lng":-67.70032,"population":0},{"id":3628462,"name":"San Diego","timezone":{"dstOffset":-4.5,"gmtOffset":-4.5,"timeZoneId":"America/Caracas"},"lat":10.25982,"lng":-67.9533,"population":0},{"id":3628487,"name":"San Casimiro","timezone":{"dstOffset":-4.5,"gmtOffset":-4.5,"timeZoneId":"America/Caracas"},"lat":10.00169,"lng":-67.01464,"population":0},{"id":3628488,"name":"San Carlos de Río Negro","timezone":{"dstOffset":-4.5,"gmtOffset":-4.5,"timeZoneId":"America/Caracas"},"lat":1.91667,"lng":-67.06667,"population":0},{"id":3628545,"name":"Sanare","timezone":{"dstOffset":-4.5,"gmtOffset":-4.5,"timeZoneId":"America/Caracas"},"lat":9.75145,"lng":-69.65318,"population":0},{"id":3628552,"name":"San Antonio del Golfo","timezone":{"dstOffset":-4.5,"gmtOffset":-4.5,"timeZoneId":"America/Caracas"},"lat":10.44155,"lng":-63.78961,"population":0},{"id":3628657,"name":"San Antonio","timezone":{"dstOffset":-4.5,"gmtOffset":-4.5,"timeZoneId":"America/Caracas"},"lat":7.96378,"lng":-68.43384,"population":0},{"id":3628853,"name":"Sabaneta","timezone":{"dstOffset":-4.5,"gmtOffset":-4.5,"timeZoneId":"America/Caracas"},"lat":8.75326,"lng":-69.93516,"population":0},{"id":3628904,"name":"Sabana Grande","timezone":{"dstOffset":-4.5,"gmtOffset":-4.5,"timeZoneId":"America/Caracas"},"lat":9.4028,"lng":-70.79762,"population":0},{"id":3628918,"name":"Sabana de Parra","timezone":{"dstOffset":-4.5,"gmtOffset":-4.5,"timeZoneId":"America/Caracas"},"lat":10.12111,"lng":-69.03639,"population":0},{"id":3628921,"name":"Sabana de Mendoza","timezone":{"dstOffset":-4.5,"gmtOffset":-4.5,"timeZoneId":"America/Caracas"},"lat":9.43513,"lng":-70.77612,"population":0},{"id":3629102,"name":"Río Chico","timezone":{"dstOffset":-4.5,"gmtOffset":-4.5,"timeZoneId":"America/Caracas"},"lat":10.32043,"lng":-65.97782,"population":0},{"id":3629107,"name":"Río Caribe","timezone":{"dstOffset":-4.5,"gmtOffset":-4.5,"timeZoneId":"America/Caracas"},"lat":10.6971,"lng":-63.10964,"population":0},{"id":3629385,"name":"Quiriquire","timezone":{"dstOffset":-4.5,"gmtOffset":-4.5,"timeZoneId":"America/Caracas"},"lat":9.9795,"lng":-63.21991,"population":0},{"id":3629459,"name":"Queniquea","timezone":{"dstOffset":-4.5,"gmtOffset":-4.5,"timeZoneId":"America/Caracas"},"lat":7.91717,"lng":-72.01557,"population":0},{"id":3629490,"name":"Quebrada Seca","timezone":{"dstOffset":-4.5,"gmtOffset":-4.5,"timeZoneId":"America/Caracas"},"lat":8.70015,"lng":-70.31941,"population":0},{"id":3629601,"name":"Punta de Piedras","timezone":{"dstOffset":-4.5,"gmtOffset":-4.5,"timeZoneId":"America/Caracas"},"lat":10.9013,"lng":-64.09696,"population":0},{"id":3629604,"name":"Punta de Piedra","timezone":{"dstOffset":-4.5,"gmtOffset":-4.5,"timeZoneId":"America/Caracas"},"lat":7.61759,"lng":-71.49164,"population":0},{"id":3629606,"name":"Punta de Mata","timezone":{"dstOffset":-4.5,"gmtOffset":-4.5,"timeZoneId":"America/Caracas"},"lat":9.69131,"lng":-63.60921,"population":0},{"id":3629653,"name":"Puerto Píritu","timezone":{"dstOffset":-4.5,"gmtOffset":-4.5,"timeZoneId":"America/Caracas"},"lat":10.0613,"lng":-65.04207,"population":0},{"id":3629693,"name":"Puerto de Nutrias","timezone":{"dstOffset":-4.5,"gmtOffset":-4.5,"timeZoneId":"America/Caracas"},"lat":8.0728,"lng":-69.30246,"population":0},{"id":3629696,"name":"Puerto Cumarebo","timezone":{"dstOffset":-4.5,"gmtOffset":-4.5,"timeZoneId":"America/Caracas"},"lat":11.48783,"lng":-69.35222,"population":0},{"id":3629790,"name":"Pueblo Nuevo","timezone":{"dstOffset":-4.5,"gmtOffset":-4.5,"timeZoneId":"America/Caracas"},"lat":8.96454,"lng":-71.60888,"population":0},{"id":3629800,"name":"Pueblo Llano","timezone":{"dstOffset":-4.5,"gmtOffset":-4.5,"timeZoneId":"America/Caracas"},"lat":8.91485,"lng":-70.65919,"population":0},{"id":3629844,"name":"Pregonero","timezone":{"dstOffset":-4.5,"gmtOffset":-4.5,"timeZoneId":"America/Caracas"},"lat":8.01909,"lng":-71.76595,"population":0},{"id":3630086,"name":"Píritu","timezone":{"dstOffset":-4.5,"gmtOffset":-4.5,"timeZoneId":"America/Caracas"},"lat":11.37389,"lng":-69.13722,"population":0},{"id":3630087,"name":"Píritu","timezone":{"dstOffset":-4.5,"gmtOffset":-4.5,"timeZoneId":"America/Caracas"},"lat":10.03891,"lng":-65.02975,"population":0},{"id":3630089,"name":"Píritu","timezone":{"dstOffset":-4.5,"gmtOffset":-4.5,"timeZoneId":"America/Caracas"},"lat":9.37083,"lng":-69.21028,"population":0},{"id":3630473,"name":"Pedregal","timezone":{"dstOffset":-4.5,"gmtOffset":-4.5,"timeZoneId":"America/Caracas"},"lat":11.02037,"lng":-70.12058,"population":0},{"id":3630480,"name":"Pedraza La Vieja","timezone":{"dstOffset":-4.5,"gmtOffset":-4.5,"timeZoneId":"America/Caracas"},"lat":7.9168,"lng":-71.05934,"population":0},{"id":3630490,"name":"Pedernales","timezone":{"dstOffset":-4.5,"gmtOffset":-4.5,"timeZoneId":"America/Caracas"},"lat":9.97152,"lng":-62.25151,"population":0},{"id":3630687,"name":"Pariaguán","timezone":{"dstOffset":-4.5,"gmtOffset":-4.5,"timeZoneId":"America/Caracas"},"lat":8.84358,"lng":-64.71053,"population":0},{"id":3630761,"name":"Paraíso de Chabasquén","timezone":{"dstOffset":-4.5,"gmtOffset":-4.5,"timeZoneId":"America/Caracas"},"lat":9.43365,"lng":-69.94754,"population":0},{"id":3630778,"name":"La Plaza Paraguachi","timezone":{"dstOffset":-4.5,"gmtOffset":-4.5,"timeZoneId":"America/Caracas"},"lat":11.10783,"lng":-63.85537,"population":0},{"id":3630826,"name":"Papelón","timezone":{"dstOffset":-4.5,"gmtOffset":-4.5,"timeZoneId":"America/Caracas"},"lat":8.94109,"lng":-69.4602,"population":0},{"id":3630893,"name":"Pampatar","timezone":{"dstOffset":-4.5,"gmtOffset":-4.5,"timeZoneId":"America/Caracas"},"lat":11.00125,"lng":-63.79343,"population":0},{"id":3630894,"name":"Pampanito","timezone":{"dstOffset":-4.5,"gmtOffset":-4.5,"timeZoneId":"America/Caracas"},"lat":9.41037,"lng":-70.50116,"population":0},{"id":3630896,"name":"Pampán","timezone":{"dstOffset":-4.5,"gmtOffset":-4.5,"timeZoneId":"America/Caracas"},"lat":9.44475,"lng":-70.47759,"population":0},{"id":3630982,"name":"Palmira","timezone":{"dstOffset":-4.5,"gmtOffset":-4.5,"timeZoneId":"America/Caracas"},"lat":7.83607,"lng":-72.22758,"population":0},{"id":3630999,"name":"Palmasola","timezone":{"dstOffset":-4.5,"gmtOffset":-4.5,"timeZoneId":"America/Caracas"},"lat":9.23333,"lng":-66.71667,"population":0},{"id":3631208,"name":"Ospino","timezone":{"dstOffset":-4.5,"gmtOffset":-4.5,"timeZoneId":"America/Caracas"},"lat":9.29672,"lng":-69.45546,"population":0},{"id":3631247,"name":"Ortiz","timezone":{"dstOffset":-4.5,"gmtOffset":-4.5,"timeZoneId":"America/Caracas"},"lat":9.62168,"lng":-67.29047,"population":0},{"id":3631333,"name":"Onoto","timezone":{"dstOffset":-4.5,"gmtOffset":-4.5,"timeZoneId":"America/Caracas"},"lat":9.59714,"lng":-65.1935,"population":0},{"id":3485791,"name":"El Chaparro","timezone":{"dstOffset":-4.5,"gmtOffset":-4.5,"timeZoneId":"America/Caracas"},"lat":9.15177,"lng":-65.01688,"population":0},{"id":3486577,"name":"Santa Cruz de Guacas","timezone":{"dstOffset":-4.5,"gmtOffset":-4.5,"timeZoneId":"America/Caracas"},"lat":7.44329,"lng":-71.3014,"population":0},{"id":3486692,"name":"El Real","timezone":{"dstOffset":-4.5,"gmtOffset":-4.5,"timeZoneId":"America/Caracas"},"lat":8.43525,"lng":-69.99633,"population":0},{"id":3486718,"name":"Puerto Vivas","timezone":{"dstOffset":-4.5,"gmtOffset":-4.5,"timeZoneId":"America/Caracas"},"lat":7.50005,"lng":-71.84446,"population":0},{"id":3486930,"name":"La Mula","timezone":{"dstOffset":-4.5,"gmtOffset":-4.5,"timeZoneId":"America/Caracas"},"lat":8.57084,"lng":-70.37524,"population":0},{"id":3487261,"name":"Los Guasimitos","timezone":{"dstOffset":-4.5,"gmtOffset":-4.5,"timeZoneId":"America/Caracas"},"lat":8.66435,"lng":-70.23216,"population":0},{"id":3481364,"name":"Caricuao","timezone":{"dstOffset":-4.5,"gmtOffset":-4.5,"timeZoneId":"America/Caracas"},"lat":10.43337,"lng":-66.98313,"population":0},{"id":3481456,"name":"Tocuyito","timezone":{"dstOffset":-4.5,"gmtOffset":-4.5,"timeZoneId":"America/Caracas"},"lat":10.10861,"lng":-68.0793,"population":0},{"id":3648506,"name":"Barrancas","timezone":{"dstOffset":-4.5,"gmtOffset":-4.5,"timeZoneId":"America/Caracas"},"lat":8.76868,"lng":-70.1122,"population":0},{"id":3648580,"name":"Barbacoas","timezone":{"dstOffset":-4.5,"gmtOffset":-4.5,"timeZoneId":"America/Caracas"},"lat":9.47855,"lng":-66.97458,"population":0},{"id":3648685,"name":"Bailadores","timezone":{"dstOffset":-4.5,"gmtOffset":-4.5,"timeZoneId":"America/Caracas"},"lat":8.25264,"lng":-71.82805,"population":0},{"id":3648698,"name":"Bachaquero","timezone":{"dstOffset":-4.5,"gmtOffset":-4.5,"timeZoneId":"America/Caracas"},"lat":9.96209,"lng":-71.12377,"population":0},{"id":3648873,"name":"Aroa","timezone":{"dstOffset":-4.5,"gmtOffset":-4.5,"timeZoneId":"America/Caracas"},"lat":10.43861,"lng":-68.89417,"population":0},{"id":3648885,"name":"Arismendi","timezone":{"dstOffset":-4.5,"gmtOffset":-4.5,"timeZoneId":"America/Caracas"},"lat":8.47974,"lng":-68.36996,"population":0},{"id":3648916,"name":"Aricagua","timezone":{"dstOffset":-4.5,"gmtOffset":-4.5,"timeZoneId":"America/Caracas"},"lat":8.22343,"lng":-71.13705,"population":0},{"id":3649005,"name":"Araya","timezone":{"dstOffset":-4.5,"gmtOffset":-4.5,"timeZoneId":"America/Caracas"},"lat":10.57973,"lng":-64.25826,"population":0},{"id":3649018,"name":"Arauquita","timezone":{"dstOffset":-4.5,"gmtOffset":-4.5,"timeZoneId":"America/Caracas"},"lat":8.70833,"lng":-69.65722,"population":0},{"id":3649100,"name":"Aragua de Barcelona","timezone":{"dstOffset":-4.5,"gmtOffset":-4.5,"timeZoneId":"America/Caracas"},"lat":9.45588,"lng":-64.82928,"population":0},{"id":3649403,"name":"Altamira","timezone":{"dstOffset":-4.5,"gmtOffset":-4.5,"timeZoneId":"America/Caracas"},"lat":8.82359,"lng":-70.50244,"population":0},{"id":3649576,"name":"Aguasay","timezone":{"dstOffset":-4.5,"gmtOffset":-4.5,"timeZoneId":"America/Caracas"},"lat":9.42489,"lng":-63.73077,"population":0},{"id":3649859,"name":"Abejales","timezone":{"dstOffset":-4.5,"gmtOffset":-4.5,"timeZoneId":"America/Caracas"},"lat":7.62241,"lng":-71.51017,"population":0},{"id":3778348,"name":"Temblador","timezone":{"dstOffset":-4.5,"gmtOffset":-4.5,"timeZoneId":"America/Caracas"},"lat":9.00716,"lng":-62.64216,"population":0},{"id":3784154,"name":"Palmasola","timezone":{"dstOffset":-4.5,"gmtOffset":-4.5,"timeZoneId":"America/Caracas"},"lat":10.59363,"lng":-68.54422,"population":0},{"id":3805700,"name":"San Juan de Payara","timezone":{"dstOffset":-4.5,"gmtOffset":-4.5,"timeZoneId":"America/Caracas"},"lat":7.6456,"lng":-67.60674,"population":0},{"id":3806799,"name":"San Sebastián","timezone":{"dstOffset":-4.5,"gmtOffset":-4.5,"timeZoneId":"America/Caracas"},"lat":9.94543,"lng":-67.17681,"population":0},{"id":3799319,"name":"Macapo","timezone":{"dstOffset":-4.5,"gmtOffset":-4.5,"timeZoneId":"America/Caracas"},"lat":9.82602,"lng":-68.43899,"population":0},{"id":3774127,"name":"San José de Guaribe","timezone":{"dstOffset":-4.5,"gmtOffset":-4.5,"timeZoneId":"America/Caracas"},"lat":9.86025,"lng":-65.81306,"population":0},{"id":3762895,"name":"Sierra Imataca","timezone":{"dstOffset":-4.5,"gmtOffset":-4.5,"timeZoneId":"America/Caracas"},"lat":8.4555,"lng":-62.42891,"population":0},{"id":3795119,"name":"Delicias","timezone":{"dstOffset":-4.5,"gmtOffset":-4.5,"timeZoneId":"America/Caracas"},"lat":7.56505,"lng":-72.44754,"population":0},{"id":3795170,"name":"La Grita","timezone":{"dstOffset":-4.5,"gmtOffset":-4.5,"timeZoneId":"America/Caracas"},"lat":8.13219,"lng":-71.98337,"population":0},{"id":3795218,"name":"Capacho Nuevo","timezone":{"dstOffset":-4.5,"gmtOffset":-4.5,"timeZoneId":"America/Caracas"},"lat":7.82409,"lng":-72.309,"population":0},{"id":3795620,"name":"La Tendida","timezone":{"dstOffset":-4.5,"gmtOffset":-4.5,"timeZoneId":"America/Caracas"},"lat":8.50757,"lng":-71.83166,"population":0},{"id":3797773,"name":"Agua Blanca","timezone":{"dstOffset":-4.5,"gmtOffset":-4.5,"timeZoneId":"America/Caracas"},"lat":9.66146,"lng":-69.10752,"population":0},{"id":3798450,"name":"El Playón","timezone":{"dstOffset":-4.5,"gmtOffset":-4.5,"timeZoneId":"America/Caracas"},"lat":9.09857,"lng":-69.04914,"population":0},{"id":3798818,"name":"Arapuey","timezone":{"dstOffset":-4.5,"gmtOffset":-4.5,"timeZoneId":"America/Caracas"},"lat":9.25934,"lng":-70.95248,"population":0},{"id":3738787,"name":"Las Mesas","timezone":{"dstOffset":-4.5,"gmtOffset":-4.5,"timeZoneId":"America/Caracas"},"lat":8.16454,"lng":-72.16556,"population":0},{"id":3739076,"name":"San José de Bolívar","timezone":{"dstOffset":-4.5,"gmtOffset":-4.5,"timeZoneId":"America/Caracas"},"lat":7.91139,"lng":-71.97194,"population":0},{"id":3758764,"name":"San Josecito","timezone":{"dstOffset":-4.5,"gmtOffset":-4.5,"timeZoneId":"America/Caracas"},"lat":7.65997,"lng":-72.21958,"population":0},{"id":3759212,"name":"Cordero","timezone":{"dstOffset":-4.5,"gmtOffset":-4.5,"timeZoneId":"America/Caracas"},"lat":7.85591,"lng":-72.18075,"population":0},{"id":3753107,"name":"Santa Rita","timezone":{"dstOffset":-4.5,"gmtOffset":-4.5,"timeZoneId":"America/Caracas"},"lat":10.20696,"lng":-67.53884,"population":0},{"id":7289569,"name":"Lecherías","timezone":{"dstOffset":-4.5,"gmtOffset":-4.5,"timeZoneId":"America/Caracas"},"lat":10.19769,"lng":-64.69407,"population":0},{"id":8131509,"name":"Independencia","timezone":{"dstOffset":-4.5,"gmtOffset":-4.5,"timeZoneId":"America/Caracas"},"lat":10.33432,"lng":-68.75512,"population":0},{"id":7909705,"name":"Santa Cruz de los Taques","timezone":{"dstOffset":-4.5,"gmtOffset":-4.5,"timeZoneId":"America/Caracas"},"lat":11.8235,"lng":-70.25637,"population":0}]