[{"id":71137,"name":"Sanaa","timezone":{"dstOffset":3,"gmtOffset":3,"timeZoneId":"Asia/Aden"},"lat":15.35472,"lng":44.20667,"population":1937451},{"id":79415,"name":"Al Hudaydah","timezone":{"dstOffset":3,"gmtOffset":3,"timeZoneId":"Asia/Aden"},"lat":14.79781,"lng":42.95452,"population":617871},{"id":70225,"name":"Ta‘izz","timezone":{"dstOffset":3,"gmtOffset":3,"timeZoneId":"Asia/Aden"},"lat":13.57952,"lng":44.02091,"population":615222},{"id":415189,"name":"Aden","timezone":{"dstOffset":3,"gmtOffset":3,"timeZoneId":"Asia/Aden"},"lat":12.77944,"lng":45.03667,"population":550602},{"id":78754,"name":"Al Mukallā","timezone":{"dstOffset":3,"gmtOffset":3,"timeZoneId":"Asia/Aden"},"lat":14.54248,"lng":49.12424,"population":258132},{"id":74477,"name":"Ibb","timezone":{"dstOffset":3,"gmtOffset":3,"timeZoneId":"Asia/Aden"},"lat":13.96667,"lng":44.18333,"population":234837},{"id":76184,"name":"Dhamār","timezone":{"dstOffset":3,"gmtOffset":3,"timeZoneId":"Asia/Aden"},"lat":14.54274,"lng":44.40514,"population":160114},{"id":78428,"name":"‘Amrān","timezone":{"dstOffset":3,"gmtOffset":3,"timeZoneId":"Asia/Aden"},"lat":15.6594,"lng":43.94385,"population":90792},{"id":70979,"name":"Sayyān","timezone":{"dstOffset":3,"gmtOffset":3,"timeZoneId":"Asia/Aden"},"lat":15.17177,"lng":44.32442,"population":69404},{"id":69500,"name":"Zabīd","timezone":{"dstOffset":3,"gmtOffset":3,"timeZoneId":"Asia/Aden"},"lat":14.1951,"lng":43.31518,"population":52590},{"id":71334,"name":"Sa'dah","timezone":{"dstOffset":3,"gmtOffset":3,"timeZoneId":"Asia/Aden"},"lat":16.94021,"lng":43.76394,"population":51870},{"id":77408,"name":"Bājil","timezone":{"dstOffset":3,"gmtOffset":3,"timeZoneId":"Asia/Aden"},"lat":15.05835,"lng":43.28506,"population":48218},{"id":75337,"name":"Ḩajjah","timezone":{"dstOffset":3,"gmtOffset":3,"timeZoneId":"Asia/Aden"},"lat":15.69425,"lng":43.60582,"population":43549},{"id":76154,"name":"Dhī as Sufāl","timezone":{"dstOffset":3,"gmtOffset":3,"timeZoneId":"Asia/Aden"},"lat":13.83446,"lng":44.11469,"population":37997},{"id":79836,"name":"Al Bayḑā’","timezone":{"dstOffset":3,"gmtOffset":3,"timeZoneId":"Asia/Aden"},"lat":13.98523,"lng":45.57272,"population":37821},{"id":77726,"name":"Ataq","timezone":{"dstOffset":3,"gmtOffset":3,"timeZoneId":"Asia/Aden"},"lat":14.53766,"lng":46.83187,"population":37315},{"id":76991,"name":"Bayt al Faqīh","timezone":{"dstOffset":3,"gmtOffset":3,"timeZoneId":"Asia/Aden"},"lat":14.51635,"lng":43.32446,"population":34204},{"id":69559,"name":"Yarīm","timezone":{"dstOffset":3,"gmtOffset":3,"timeZoneId":"Asia/Aden"},"lat":14.29804,"lng":44.37795,"population":33050},{"id":71273,"name":"Saḩar","timezone":{"dstOffset":3,"gmtOffset":3,"timeZoneId":"Asia/Aden"},"lat":15.31586,"lng":44.30858,"population":31859},{"id":73560,"name":"Laḩij","timezone":{"dstOffset":3,"gmtOffset":3,"timeZoneId":"Asia/Aden"},"lat":13.05667,"lng":44.88194,"population":23375},{"id":69426,"name":"Zinjibār","timezone":{"dstOffset":3,"gmtOffset":3,"timeZoneId":"Asia/Aden"},"lat":13.12871,"lng":45.38073,"population":19879},{"id":79455,"name":"Al Ḩazm","timezone":{"dstOffset":3,"gmtOffset":3,"timeZoneId":"Asia/Aden"},"lat":16.16406,"lng":44.77692,"population":18241},{"id":72968,"name":"Ma'rib","timezone":{"dstOffset":3,"gmtOffset":3,"timeZoneId":"Asia/Aden"},"lat":15.46253,"lng":45.32581,"population":16794},{"id":80384,"name":"Dhalie","timezone":{"dstOffset":3,"gmtOffset":3,"timeZoneId":"Asia/Aden"},"lat":13.69572,"lng":44.73137,"population":14760},{"id":74219,"name":"Jawf al Maqbābah","timezone":{"dstOffset":3,"gmtOffset":3,"timeZoneId":"Asia/Aden"},"lat":13.83783,"lng":45.83488,"population":14175},{"id":79700,"name":"Al Ghayḑah","timezone":{"dstOffset":3,"gmtOffset":3,"timeZoneId":"Asia/Aden"},"lat":16.20787,"lng":52.17605,"population":10948},{"id":78977,"name":"Al Maḩwīt","timezone":{"dstOffset":3,"gmtOffset":3,"timeZoneId":"Asia/Aden"},"lat":15.47007,"lng":43.54481,"population":10593},{"id":75427,"name":"Hadibu","timezone":{"dstOffset":3,"gmtOffset":3,"timeZoneId":"Asia/Aden"},"lat":12.64881,"lng":54.01895,"population":8545},{"id":71799,"name":"Qalansīyah","timezone":{"dstOffset":3,"gmtOffset":3,"timeZoneId":"Asia/Aden"},"lat":12.68958,"lng":53.48708,"population":3500},{"id":73685,"name":"Kilmia","timezone":{"dstOffset":3,"gmtOffset":3,"timeZoneId":"Asia/Aden"},"lat":12.18576,"lng":52.23332,"population":2013},{"id":7792748,"name":"At Taḩālif","timezone":{"dstOffset":3,"gmtOffset":3,"timeZoneId":"Asia/Aden"},"lat":15.93786,"lng":48.7864,"population":1281},{"id":7792745,"name":"Al Ḩamdī","timezone":{"dstOffset":3,"gmtOffset":3,"timeZoneId":"Asia/Aden"},"lat":15.94727,"lng":48.77965,"population":1273},{"id":7792750,"name":"Suḩayl Shibām","timezone":{"dstOffset":3,"gmtOffset":3,"timeZoneId":"Asia/Aden"},"lat":15.91448,"lng":48.63864,"population":645},{"id":70346,"name":"Al ‘Anān","timezone":{"dstOffset":3,"gmtOffset":3,"timeZoneId":"Asia/Aden"},"lat":16.72188,"lng":44.31252,"population":100},{"id":406662,"name":"Sāqayn","timezone":{"dstOffset":3,"gmtOffset":3,"timeZoneId":"Asia/Aden"},"lat":16.877,"lng":43.52499,"population":41},{"id":7344394,"name":"Banī al ‘Awwām","timezone":{"dstOffset":3,"gmtOffset":3,"timeZoneId":"Asia/Aden"},"lat":15.58119,"lng":43.58727,"population":41},{"id":7683765,"name":"Ash Shawātī","timezone":{"dstOffset":3,"gmtOffset":3,"timeZoneId":"Asia/Aden"},"lat":16.78314,"lng":43.81265,"population":25},{"id":72430,"name":"Al Musaymīr","timezone":{"dstOffset":3,"gmtOffset":3,"timeZoneId":"Asia/Aden"},"lat":13.44389,"lng":44.61528,"population":3},{"id":7890531,"name":"Al Khāniq","timezone":{"dstOffset":3,"gmtOffset":3,"timeZoneId":"Asia/Aden"},"lat":15.50253,"lng":44.18158,"population":2},{"id":400734,"name":"Markaz Bilād aţ Ţa‘ām","timezone":{"dstOffset":3,"gmtOffset":3,"timeZoneId":"Asia/Aden"},"lat":14.83361,"lng":43.53639,"population":0},{"id":401000,"name":"Al Jum‘ah","timezone":{"dstOffset":3,"gmtOffset":3,"timeZoneId":"Asia/Aden"},"lat":14.73779,"lng":43.96489,"population":0},{"id":401019,"name":"Al Ḩadīyah","timezone":{"dstOffset":3,"gmtOffset":3,"timeZoneId":"Asia/Aden"},"lat":14.52638,"lng":43.57045,"population":0},{"id":401023,"name":"Kusmah","timezone":{"dstOffset":3,"gmtOffset":3,"timeZoneId":"Asia/Aden"},"lat":14.58175,"lng":43.63676,"population":0},{"id":401043,"name":"Al Jabīn","timezone":{"dstOffset":3,"gmtOffset":3,"timeZoneId":"Asia/Aden"},"lat":14.70389,"lng":43.59917,"population":0},{"id":401653,"name":"Riqāb","timezone":{"dstOffset":3,"gmtOffset":3,"timeZoneId":"Asia/Aden"},"lat":14.88596,"lng":43.46491,"population":0},{"id":401672,"name":"As Sukhnah","timezone":{"dstOffset":3,"gmtOffset":3,"timeZoneId":"Asia/Aden"},"lat":14.79408,"lng":43.4362,"population":0},{"id":402074,"name":"Ar Rujum","timezone":{"dstOffset":3,"gmtOffset":3,"timeZoneId":"Asia/Aden"},"lat":15.45776,"lng":43.63226,"population":0},{"id":413170,"name":"Al Miftāḩ","timezone":{"dstOffset":3,"gmtOffset":3,"timeZoneId":"Asia/Aden"},"lat":15.97431,"lng":43.46381,"population":0},{"id":406737,"name":"Al Maḩjal","timezone":{"dstOffset":3,"gmtOffset":3,"timeZoneId":"Asia/Aden"},"lat":16.71169,"lng":44.84769,"population":0},{"id":406761,"name":"Rajūzah","timezone":{"dstOffset":3,"gmtOffset":3,"timeZoneId":"Asia/Aden"},"lat":16.70056,"lng":44.41454,"population":0},{"id":406845,"name":"Al Khirāb","timezone":{"dstOffset":3,"gmtOffset":3,"timeZoneId":"Asia/Aden"},"lat":16.5544,"lng":44.29048,"population":0},{"id":406884,"name":"Al Ḩumaydāt","timezone":{"dstOffset":3,"gmtOffset":3,"timeZoneId":"Asia/Aden"},"lat":16.4844,"lng":44.42934,"population":0},{"id":407014,"name":"Al Madān","timezone":{"dstOffset":3,"gmtOffset":3,"timeZoneId":"Asia/Aden"},"lat":16.22413,"lng":43.64383,"population":0},{"id":407024,"name":"Al ‘Ashshah","timezone":{"dstOffset":3,"gmtOffset":3,"timeZoneId":"Asia/Aden"},"lat":16.25652,"lng":43.85476,"population":0},{"id":407036,"name":"Ḩişn Banī Sa‘d","timezone":{"dstOffset":3,"gmtOffset":3,"timeZoneId":"Asia/Aden"},"lat":16.27293,"lng":44.47728,"population":0},{"id":407042,"name":"Al Matūn","timezone":{"dstOffset":3,"gmtOffset":3,"timeZoneId":"Asia/Aden"},"lat":16.23063,"lng":44.58476,"population":0},{"id":407048,"name":"Al Maşlūb","timezone":{"dstOffset":3,"gmtOffset":3,"timeZoneId":"Asia/Aden"},"lat":16.18271,"lng":44.62613,"population":0},{"id":407049,"name":"Al Ghayl","timezone":{"dstOffset":3,"gmtOffset":3,"timeZoneId":"Asia/Aden"},"lat":16.10774,"lng":44.68005,"population":0},{"id":407094,"name":"Al Jamīmah","timezone":{"dstOffset":3,"gmtOffset":3,"timeZoneId":"Asia/Aden"},"lat":16.01787,"lng":43.59647,"population":0},{"id":407096,"name":"Ḩabūr","timezone":{"dstOffset":3,"gmtOffset":3,"timeZoneId":"Asia/Aden"},"lat":16.05097,"lng":43.70699,"population":0},{"id":407129,"name":"Ar Rawḑ","timezone":{"dstOffset":3,"gmtOffset":3,"timeZoneId":"Asia/Aden"},"lat":16.06145,"lng":44.81012,"population":0},{"id":407690,"name":"Ar Rubū‘","timezone":{"dstOffset":3,"gmtOffset":3,"timeZoneId":"Asia/Aden"},"lat":13.78024,"lng":43.86901,"population":0},{"id":407716,"name":"Maqbanah","timezone":{"dstOffset":3,"gmtOffset":3,"timeZoneId":"Asia/Aden"},"lat":13.66394,"lng":43.6873,"population":0},{"id":408124,"name":"Ḑubāh","timezone":{"dstOffset":3,"gmtOffset":3,"timeZoneId":"Asia/Aden"},"lat":14.49052,"lng":44.13108,"population":0},{"id":408342,"name":"Ar Raḑā‘ī","timezone":{"dstOffset":3,"gmtOffset":3,"timeZoneId":"Asia/Aden"},"lat":14.01708,"lng":44.39299,"population":0},{"id":408801,"name":"Al Mayfa’ah","timezone":{"dstOffset":3,"gmtOffset":3,"timeZoneId":"Asia/Aden"},"lat":14.46392,"lng":44.54866,"population":0},{"id":408846,"name":"Ar Raḑmah","timezone":{"dstOffset":3,"gmtOffset":3,"timeZoneId":"Asia/Aden"},"lat":14.21973,"lng":44.58657,"population":0},{"id":408866,"name":"Ḩammām Damt","timezone":{"dstOffset":3,"gmtOffset":3,"timeZoneId":"Asia/Aden"},"lat":14.09031,"lng":44.67006,"population":0},{"id":408883,"name":"Zakhim","timezone":{"dstOffset":3,"gmtOffset":3,"timeZoneId":"Asia/Aden"},"lat":14.29496,"lng":44.68504,"population":0},{"id":408970,"name":"Maswarah","timezone":{"dstOffset":3,"gmtOffset":3,"timeZoneId":"Asia/Aden"},"lat":14.34399,"lng":45.72623,"population":0},{"id":409051,"name":"Ţawr al Bāḩah","timezone":{"dstOffset":3,"gmtOffset":3,"timeZoneId":"Asia/Aden"},"lat":13.18179,"lng":44.29966,"population":0},{"id":410914,"name":"Kushar","timezone":{"dstOffset":3,"gmtOffset":3,"timeZoneId":"Asia/Aden"},"lat":16.15523,"lng":43.42102,"population":0},{"id":410915,"name":"Aslam","timezone":{"dstOffset":3,"gmtOffset":3,"timeZoneId":"Asia/Aden"},"lat":16.05961,"lng":43.32745,"population":0},{"id":411056,"name":"Ḩaydān","timezone":{"dstOffset":3,"gmtOffset":3,"timeZoneId":"Asia/Aden"},"lat":16.77899,"lng":43.43372,"population":0},{"id":402470,"name":"Al Khamīs","timezone":{"dstOffset":3,"gmtOffset":3,"timeZoneId":"Asia/Aden"},"lat":15.18533,"lng":43.51122,"population":0},{"id":402753,"name":"Al ‘Urr","timezone":{"dstOffset":3,"gmtOffset":3,"timeZoneId":"Asia/Aden"},"lat":15.24648,"lng":43.88836,"population":0},{"id":403270,"name":"Al Maghrabah","timezone":{"dstOffset":3,"gmtOffset":3,"timeZoneId":"Asia/Aden"},"lat":15.87722,"lng":43.66667,"population":0},{"id":403271,"name":"Aş Şarārah","timezone":{"dstOffset":3,"gmtOffset":3,"timeZoneId":"Asia/Aden"},"lat":15.79449,"lng":43.86997,"population":0},{"id":403272,"name":"An Nāşirah","timezone":{"dstOffset":3,"gmtOffset":3,"timeZoneId":"Asia/Aden"},"lat":15.77277,"lng":43.80902,"population":0},{"id":403316,"name":"Mabyan","timezone":{"dstOffset":3,"gmtOffset":3,"timeZoneId":"Asia/Aden"},"lat":15.73773,"lng":43.55701,"population":0},{"id":403754,"name":"Matnah","timezone":{"dstOffset":3,"gmtOffset":3,"timeZoneId":"Asia/Aden"},"lat":15.25333,"lng":44.02472,"population":0},{"id":404914,"name":"Al Ḩayfah","timezone":{"dstOffset":3,"gmtOffset":3,"timeZoneId":"Asia/Aden"},"lat":15.73494,"lng":44.23788,"population":0},{"id":404915,"name":"Bayt Marrān","timezone":{"dstOffset":3,"gmtOffset":3,"timeZoneId":"Asia/Aden"},"lat":15.69312,"lng":44.2053,"population":0},{"id":406072,"name":"Al Nashmah","timezone":{"dstOffset":3,"gmtOffset":3,"timeZoneId":"Asia/Aden"},"lat":13.39028,"lng":43.96833,"population":0},{"id":406635,"name":"Al Ḩashwah","timezone":{"dstOffset":3,"gmtOffset":3,"timeZoneId":"Asia/Aden"},"lat":16.90641,"lng":44.27622,"population":0},{"id":73786,"name":"Khawr Maksar","timezone":{"dstOffset":3,"gmtOffset":3,"timeZoneId":"Asia/Aden"},"lat":12.81227,"lng":45.03337,"population":0},{"id":73788,"name":"Khawrah","timezone":{"dstOffset":3,"gmtOffset":3,"timeZoneId":"Asia/Aden"},"lat":14.43201,"lng":46.15435,"population":0},{"id":73861,"name":"Khamir","timezone":{"dstOffset":3,"gmtOffset":3,"timeZoneId":"Asia/Aden"},"lat":15.98792,"lng":43.95362,"population":0},{"id":74116,"name":"Juban","timezone":{"dstOffset":3,"gmtOffset":3,"timeZoneId":"Asia/Aden"},"lat":14.01164,"lng":44.8746,"population":0},{"id":74167,"name":"Jiḩānah","timezone":{"dstOffset":3,"gmtOffset":3,"timeZoneId":"Asia/Aden"},"lat":15.22628,"lng":44.48244,"population":0},{"id":74185,"name":"Jiblah","timezone":{"dstOffset":3,"gmtOffset":3,"timeZoneId":"Asia/Aden"},"lat":13.92162,"lng":44.14668,"population":0},{"id":74368,"name":"Ja‘ār","timezone":{"dstOffset":3,"gmtOffset":3,"timeZoneId":"Asia/Aden"},"lat":13.223,"lng":45.30558,"population":0},{"id":74490,"name":"Ḩūth","timezone":{"dstOffset":3,"gmtOffset":3,"timeZoneId":"Asia/Aden"},"lat":16.23114,"lng":43.96854,"population":0},{"id":74499,"name":"As Salāsil","timezone":{"dstOffset":3,"gmtOffset":3,"timeZoneId":"Asia/Aden"},"lat":16.47959,"lng":48.83153,"population":0},{"id":74785,"name":"Al ‘Abr","timezone":{"dstOffset":3,"gmtOffset":3,"timeZoneId":"Asia/Aden"},"lat":16.13333,"lng":47.23333,"population":0},{"id":74906,"name":"Ḩays","timezone":{"dstOffset":3,"gmtOffset":3,"timeZoneId":"Asia/Aden"},"lat":13.9317,"lng":43.4831,"population":0},{"id":74938,"name":"Ḩayfān","timezone":{"dstOffset":3,"gmtOffset":3,"timeZoneId":"Asia/Aden"},"lat":13.31778,"lng":44.28011,"population":0},{"id":75000,"name":"Ḩawf","timezone":{"dstOffset":3,"gmtOffset":3,"timeZoneId":"Asia/Aden"},"lat":16.63333,"lng":53.03333,"population":0},{"id":75034,"name":"Ḩaşwayn","timezone":{"dstOffset":3,"gmtOffset":3,"timeZoneId":"Asia/Aden"},"lat":15.59194,"lng":52.10222,"population":0},{"id":75133,"name":"Ḩarīb","timezone":{"dstOffset":3,"gmtOffset":3,"timeZoneId":"Asia/Aden"},"lat":14.93156,"lng":45.50356,"population":0},{"id":75163,"name":"Ḩaraḑ","timezone":{"dstOffset":3,"gmtOffset":3,"timeZoneId":"Asia/Aden"},"lat":16.40965,"lng":43.05883,"population":0},{"id":75239,"name":"Ḩammām ‘Alī","timezone":{"dstOffset":3,"gmtOffset":3,"timeZoneId":"Asia/Aden"},"lat":14.66371,"lng":44.14763,"population":0},{"id":75357,"name":"Madīnat Lab‘ūs","timezone":{"dstOffset":3,"gmtOffset":3,"timeZoneId":"Asia/Aden"},"lat":13.86667,"lng":45.25,"population":0},{"id":75504,"name":"Ḩabīl al Jabr","timezone":{"dstOffset":3,"gmtOffset":3,"timeZoneId":"Asia/Aden"},"lat":13.60422,"lng":44.98578,"population":0},{"id":75508,"name":"Al Ḩabīlayn","timezone":{"dstOffset":3,"gmtOffset":3,"timeZoneId":"Asia/Aden"},"lat":13.52002,"lng":44.85076,"population":0},{"id":75518,"name":"Ḩabbān","timezone":{"dstOffset":3,"gmtOffset":3,"timeZoneId":"Asia/Aden"},"lat":14.35411,"lng":47.07649,"population":0},{"id":75539,"name":"Ḩabābah","timezone":{"dstOffset":3,"gmtOffset":3,"timeZoneId":"Asia/Aden"},"lat":15.54418,"lng":43.87563,"population":0},{"id":75618,"name":"Ghayl Bā Wazīr","timezone":{"dstOffset":3,"gmtOffset":3,"timeZoneId":"Asia/Aden"},"lat":14.77611,"lng":49.36611,"population":0},{"id":76089,"name":"Dhubāb","timezone":{"dstOffset":3,"gmtOffset":3,"timeZoneId":"Asia/Aden"},"lat":12.94305,"lng":43.41024,"population":0},{"id":76125,"name":"Dhī Nā‘im","timezone":{"dstOffset":3,"gmtOffset":3,"timeZoneId":"Asia/Aden"},"lat":14.10574,"lng":45.44807,"population":0},{"id":76147,"name":"Dhaybīn","timezone":{"dstOffset":3,"gmtOffset":3,"timeZoneId":"Asia/Aden"},"lat":15.97712,"lng":44.12917,"population":0},{"id":76362,"name":"Ḑawrān ad Daydah","timezone":{"dstOffset":3,"gmtOffset":3,"timeZoneId":"Asia/Aden"},"lat":14.73927,"lng":44.20664,"population":0},{"id":76482,"name":"Dār an Naşr","timezone":{"dstOffset":3,"gmtOffset":3,"timeZoneId":"Asia/Aden"},"lat":13.55821,"lng":44.01634,"population":0},{"id":76699,"name":"Burūm","timezone":{"dstOffset":3,"gmtOffset":3,"timeZoneId":"Asia/Aden"},"lat":14.36361,"lng":48.97972,"population":0},{"id":76927,"name":"Bayt ‘Adhāqah","timezone":{"dstOffset":3,"gmtOffset":3,"timeZoneId":"Asia/Aden"},"lat":15.61576,"lng":43.70228,"population":0},{"id":76930,"name":"As Sūq al Jadīd","timezone":{"dstOffset":3,"gmtOffset":3,"timeZoneId":"Asia/Aden"},"lat":15.82496,"lng":44.06204,"population":0},{"id":77017,"name":"Bayḩān","timezone":{"dstOffset":3,"gmtOffset":3,"timeZoneId":"Asia/Aden"},"lat":14.80067,"lng":45.71889,"population":0},{"id":77278,"name":"Banī Ḩujjāj","timezone":{"dstOffset":3,"gmtOffset":3,"timeZoneId":"Asia/Aden"},"lat":15.41667,"lng":43.31667,"population":0},{"id":77307,"name":"Banī Bakr","timezone":{"dstOffset":3,"gmtOffset":3,"timeZoneId":"Asia/Aden"},"lat":13.93333,"lng":45.26667,"population":0},{"id":77504,"name":"Az Zuhrah","timezone":{"dstOffset":3,"gmtOffset":3,"timeZoneId":"Asia/Aden"},"lat":15.72377,"lng":42.99582,"population":0},{"id":77515,"name":"Az Zaydīyah","timezone":{"dstOffset":3,"gmtOffset":3,"timeZoneId":"Asia/Aden"},"lat":15.32851,"lng":43.00812,"population":0},{"id":77529,"name":"Az Zāhir","timezone":{"dstOffset":3,"gmtOffset":3,"timeZoneId":"Asia/Aden"},"lat":16.31732,"lng":44.49505,"population":0},{"id":77594,"name":"Al Ḩajab","timezone":{"dstOffset":3,"gmtOffset":3,"timeZoneId":"Asia/Aden"},"lat":14.85192,"lng":45.52904,"population":0},{"id":77636,"name":"Al ‘Awābil","timezone":{"dstOffset":3,"gmtOffset":3,"timeZoneId":"Asia/Aden"},"lat":13.83754,"lng":44.86431,"population":0},{"id":77646,"name":"At Turbah","timezone":{"dstOffset":3,"gmtOffset":3,"timeZoneId":"Asia/Aden"},"lat":13.2127,"lng":44.12415,"population":0},{"id":77655,"name":"Al Tuḩaytā’","timezone":{"dstOffset":3,"gmtOffset":3,"timeZoneId":"Asia/Aden"},"lat":14.18356,"lng":43.22637,"population":0},{"id":77662,"name":"At Tawāhī","timezone":{"dstOffset":3,"gmtOffset":3,"timeZoneId":"Asia/Aden"},"lat":12.78471,"lng":44.9802,"population":0},{"id":77772,"name":"As Sūdah","timezone":{"dstOffset":3,"gmtOffset":3,"timeZoneId":"Asia/Aden"},"lat":15.95861,"lng":43.78083,"population":0},{"id":77791,"name":"As Sayyānī","timezone":{"dstOffset":3,"gmtOffset":3,"timeZoneId":"Asia/Aden"},"lat":13.84266,"lng":44.17395,"population":0},{"id":77800,"name":"Aş Şawma‘ah","timezone":{"dstOffset":3,"gmtOffset":3,"timeZoneId":"Asia/Aden"},"lat":14.08505,"lng":45.80102,"population":0},{"id":77803,"name":"Al Bilād","timezone":{"dstOffset":3,"gmtOffset":3,"timeZoneId":"Asia/Aden"},"lat":16.13806,"lng":49.29167,"population":0},{"id":77809,"name":"As Sawādīyah","timezone":{"dstOffset":3,"gmtOffset":3,"timeZoneId":"Asia/Aden"},"lat":14.30113,"lng":45.22148,"population":0},{"id":77843,"name":"Aş Şalīf","timezone":{"dstOffset":3,"gmtOffset":3,"timeZoneId":"Asia/Aden"},"lat":15.30558,"lng":42.67067,"population":0},{"id":77862,"name":"Said","timezone":{"dstOffset":3,"gmtOffset":3,"timeZoneId":"Asia/Aden"},"lat":14.33011,"lng":46.87292,"population":0},{"id":77872,"name":"Aş Şafaqayn","timezone":{"dstOffset":3,"gmtOffset":3,"timeZoneId":"Asia/Aden"},"lat":15.37897,"lng":43.42121,"population":0},{"id":77881,"name":"As Saddah","timezone":{"dstOffset":3,"gmtOffset":3,"timeZoneId":"Asia/Aden"},"lat":14.1221,"lng":44.42139,"population":0},{"id":77940,"name":"Ash Shaykh ‘Uthmān","timezone":{"dstOffset":3,"gmtOffset":3,"timeZoneId":"Asia/Aden"},"lat":12.87678,"lng":44.99309,"population":0},{"id":77946,"name":"Ash Shaţţ","timezone":{"dstOffset":3,"gmtOffset":3,"timeZoneId":"Asia/Aden"},"lat":12.89357,"lng":44.03571,"population":0},{"id":77980,"name":"Ash Shāhil","timezone":{"dstOffset":3,"gmtOffset":3,"timeZoneId":"Asia/Aden"},"lat":15.86656,"lng":43.40495,"population":0},{"id":77985,"name":"Ash Shaghādirah","timezone":{"dstOffset":3,"gmtOffset":3,"timeZoneId":"Asia/Aden"},"lat":15.62,"lng":43.52056,"population":0},{"id":78019,"name":"Asdās","timezone":{"dstOffset":3,"gmtOffset":3,"timeZoneId":"Asia/Aden"},"lat":15.76601,"lng":45.08151,"population":0},{"id":78112,"name":"Marbāţ","timezone":{"dstOffset":3,"gmtOffset":3,"timeZoneId":"Asia/Aden"},"lat":14.20567,"lng":46.38811,"population":0},{"id":78137,"name":"Ar Rawḑah","timezone":{"dstOffset":3,"gmtOffset":3,"timeZoneId":"Asia/Aden"},"lat":15.43251,"lng":44.22399,"population":0},{"id":78141,"name":"Ar Rawḑah","timezone":{"dstOffset":3,"gmtOffset":3,"timeZoneId":"Asia/Aden"},"lat":14.46725,"lng":47.27638,"population":0},{"id":78379,"name":"An Nādirah","timezone":{"dstOffset":3,"gmtOffset":3,"timeZoneId":"Asia/Aden"},"lat":14.09628,"lng":44.47559,"population":0},{"id":78448,"name":"‘Amd","timezone":{"dstOffset":3,"gmtOffset":3,"timeZoneId":"Asia/Aden"},"lat":15.3,"lng":47.98333,"population":0},{"id":78471,"name":"Al Wuday‘","timezone":{"dstOffset":3,"gmtOffset":3,"timeZoneId":"Asia/Aden"},"lat":13.7721,"lng":46.01786,"population":0},{"id":78543,"name":"Al ‘Udayn","timezone":{"dstOffset":3,"gmtOffset":3,"timeZoneId":"Asia/Aden"},"lat":13.96918,"lng":43.99673,"population":0},{"id":78566,"name":"Al Qurḩ","timezone":{"dstOffset":3,"gmtOffset":3,"timeZoneId":"Asia/Aden"},"lat":16.73333,"lng":51.48333,"population":0},{"id":78675,"name":"Al Qanāwiş","timezone":{"dstOffset":3,"gmtOffset":3,"timeZoneId":"Asia/Aden"},"lat":15.49277,"lng":43.13433,"population":0},{"id":78699,"name":"Al Qaflah","timezone":{"dstOffset":3,"gmtOffset":3,"timeZoneId":"Asia/Aden"},"lat":16.31897,"lng":43.76792,"population":0},{"id":78708,"name":"Qaryat al Qābil","timezone":{"dstOffset":3,"gmtOffset":3,"timeZoneId":"Asia/Aden"},"lat":15.45033,"lng":44.12768,"population":0},{"id":78713,"name":"Āl Ma‘ūdah","timezone":{"dstOffset":3,"gmtOffset":3,"timeZoneId":"Asia/Aden"},"lat":14.21055,"lng":45.38732,"population":0},{"id":78742,"name":"Al Munīrah","timezone":{"dstOffset":3,"gmtOffset":3,"timeZoneId":"Asia/Aden"},"lat":15.32024,"lng":42.92936,"population":0},{"id":78776,"name":"Al Misrākh","timezone":{"dstOffset":3,"gmtOffset":3,"timeZoneId":"Asia/Aden"},"lat":13.46059,"lng":44.02043,"population":0},{"id":78814,"name":"Al Milāḩ","timezone":{"dstOffset":3,"gmtOffset":3,"timeZoneId":"Asia/Aden"},"lat":13.42611,"lng":44.82556,"population":0},{"id":78823,"name":"Al Mighlāf","timezone":{"dstOffset":3,"gmtOffset":3,"timeZoneId":"Asia/Aden"},"lat":15.2871,"lng":43.18914,"population":0},{"id":78905,"name":"Markaz al Marīr","timezone":{"dstOffset":3,"gmtOffset":3,"timeZoneId":"Asia/Aden"},"lat":13.98178,"lng":43.59547,"population":0},{"id":78909,"name":"Al Marāwi‘ah","timezone":{"dstOffset":3,"gmtOffset":3,"timeZoneId":"Asia/Aden"},"lat":14.83069,"lng":43.15391,"population":0},{"id":78929,"name":"Al Manşūrīyah","timezone":{"dstOffset":3,"gmtOffset":3,"timeZoneId":"Asia/Aden"},"lat":14.6856,"lng":43.29922,"population":0},{"id":78931,"name":"Al Manşūrah","timezone":{"dstOffset":3,"gmtOffset":3,"timeZoneId":"Asia/Aden"},"lat":12.86019,"lng":44.98166,"population":0},{"id":78964,"name":"Al Makhādir","timezone":{"dstOffset":3,"gmtOffset":3,"timeZoneId":"Asia/Aden"},"lat":14.12224,"lng":44.19796,"population":0},{"id":78991,"name":"Al Maḩfid","timezone":{"dstOffset":3,"gmtOffset":3,"timeZoneId":"Asia/Aden"},"lat":14.05847,"lng":46.91328,"population":0},{"id":79006,"name":"Al Maḩābishah","timezone":{"dstOffset":3,"gmtOffset":3,"timeZoneId":"Asia/Aden"},"lat":15.94758,"lng":43.43587,"population":0},{"id":79050,"name":"Al Luḩayyah","timezone":{"dstOffset":3,"gmtOffset":3,"timeZoneId":"Asia/Aden"},"lat":15.70309,"lng":42.69093,"population":0},{"id":79088,"name":"Kirsh","timezone":{"dstOffset":3,"gmtOffset":3,"timeZoneId":"Asia/Aden"},"lat":13.36473,"lng":44.49046,"population":0},{"id":79131,"name":"Al Khawkhah","timezone":{"dstOffset":3,"gmtOffset":3,"timeZoneId":"Asia/Aden"},"lat":13.8071,"lng":43.2493,"population":0},{"id":79219,"name":"Al Jurbah","timezone":{"dstOffset":3,"gmtOffset":3,"timeZoneId":"Asia/Aden"},"lat":13.7915,"lng":45.15894,"population":0},{"id":79284,"name":"Al Jarrāḩī","timezone":{"dstOffset":3,"gmtOffset":3,"timeZoneId":"Asia/Aden"},"lat":14.13254,"lng":43.38845,"population":0},{"id":79384,"name":"Al Ḩusayn","timezone":{"dstOffset":3,"gmtOffset":3,"timeZoneId":"Asia/Aden"},"lat":13.79199,"lng":44.76886,"population":0},{"id":79393,"name":"Ḩurayḑah","timezone":{"dstOffset":3,"gmtOffset":3,"timeZoneId":"Asia/Aden"},"lat":15.59861,"lng":48.18278,"population":0},{"id":79478,"name":"Al Qaţn","timezone":{"dstOffset":3,"gmtOffset":3,"timeZoneId":"Asia/Aden"},"lat":15.84056,"lng":48.45556,"population":0},{"id":79531,"name":"Al Ḩarf","timezone":{"dstOffset":3,"gmtOffset":3,"timeZoneId":"Asia/Aden"},"lat":16.36395,"lng":44.09421,"population":0},{"id":79609,"name":"Ḩajar al Mushā’ikh","timezone":{"dstOffset":3,"gmtOffset":3,"timeZoneId":"Asia/Aden"},"lat":16.13333,"lng":47.83333,"population":0},{"id":79799,"name":"Al Burayqah","timezone":{"dstOffset":3,"gmtOffset":3,"timeZoneId":"Asia/Aden"},"lat":12.73944,"lng":44.88417,"population":0},{"id":79845,"name":"Al Bāţinah","timezone":{"dstOffset":3,"gmtOffset":3,"timeZoneId":"Asia/Aden"},"lat":15.48333,"lng":48.43333,"population":0},{"id":79967,"name":"Al ‘Āqir","timezone":{"dstOffset":3,"gmtOffset":3,"timeZoneId":"Asia/Aden"},"lat":14.56816,"lng":45.91156,"population":0},{"id":80105,"name":"Aḩwar","timezone":{"dstOffset":3,"gmtOffset":3,"timeZoneId":"Asia/Aden"},"lat":13.52019,"lng":46.71367,"population":0},{"id":80309,"name":"Ad Durayhimī","timezone":{"dstOffset":3,"gmtOffset":3,"timeZoneId":"Asia/Aden"},"lat":14.63702,"lng":43.05505,"population":0},{"id":80331,"name":"Ad Dīs ash Sharqīyah","timezone":{"dstOffset":3,"gmtOffset":3,"timeZoneId":"Asia/Aden"},"lat":14.90806,"lng":49.94778,"population":0},{"id":80336,"name":"Ad Dimnah","timezone":{"dstOffset":3,"gmtOffset":3,"timeZoneId":"Asia/Aden"},"lat":13.45398,"lng":44.18168,"population":0},{"id":80379,"name":"Ad Dann","timezone":{"dstOffset":3,"gmtOffset":3,"timeZoneId":"Asia/Aden"},"lat":14.3518,"lng":43.85275,"population":0},{"id":80383,"name":"Az̧ Z̧alī‘ah","timezone":{"dstOffset":3,"gmtOffset":3,"timeZoneId":"Asia/Aden"},"lat":15.01667,"lng":48.01667,"population":0},{"id":80393,"name":"Dhahi","timezone":{"dstOffset":3,"gmtOffset":3,"timeZoneId":"Asia/Aden"},"lat":15.21467,"lng":43.06974,"population":0},{"id":69372,"name":"Aţ Ţawīlah","timezone":{"dstOffset":3,"gmtOffset":3,"timeZoneId":"Asia/Aden"},"lat":15.49389,"lng":43.74778,"population":0},{"id":69457,"name":"Zarājah","timezone":{"dstOffset":3,"gmtOffset":3,"timeZoneId":"Asia/Aden"},"lat":14.86692,"lng":44.37868,"population":0},{"id":69482,"name":"Az Zāhir","timezone":{"dstOffset":3,"gmtOffset":3,"timeZoneId":"Asia/Aden"},"lat":13.96667,"lng":45.48333,"population":0},{"id":69537,"name":"Yufrus","timezone":{"dstOffset":3,"gmtOffset":3,"timeZoneId":"Asia/Aden"},"lat":13.45529,"lng":43.94704,"population":0},{"id":69640,"name":"Washḩah","timezone":{"dstOffset":3,"gmtOffset":3,"timeZoneId":"Asia/Aden"},"lat":16.30774,"lng":43.41066,"population":0},{"id":69684,"name":"Wa‘lān","timezone":{"dstOffset":3,"gmtOffset":3,"timeZoneId":"Asia/Aden"},"lat":15.07021,"lng":44.27641,"population":0},{"id":69686,"name":"Dhī Jalāl","timezone":{"dstOffset":3,"gmtOffset":3,"timeZoneId":"Asia/Aden"},"lat":13.62378,"lng":44.70754,"population":0},{"id":69769,"name":"‘Usaylān","timezone":{"dstOffset":3,"gmtOffset":3,"timeZoneId":"Asia/Aden"},"lat":15.03201,"lng":45.82832,"population":0},{"id":69944,"name":"‘Ubāl","timezone":{"dstOffset":3,"gmtOffset":3,"timeZoneId":"Asia/Aden"},"lat":14.98808,"lng":43.54444,"population":0},{"id":70080,"name":"Thamūd","timezone":{"dstOffset":3,"gmtOffset":3,"timeZoneId":"Asia/Aden"},"lat":17.3,"lng":49.91667,"population":0},{"id":70160,"name":"Tarīm","timezone":{"dstOffset":3,"gmtOffset":3,"timeZoneId":"Asia/Aden"},"lat":16.05694,"lng":48.99889,"population":0},{"id":70272,"name":"As Suwaydā","timezone":{"dstOffset":3,"gmtOffset":3,"timeZoneId":"Asia/Aden"},"lat":13.78694,"lng":45.2304,"population":0},{"id":70357,"name":"‘Abs","timezone":{"dstOffset":3,"gmtOffset":3,"timeZoneId":"Asia/Aden"},"lat":16.00295,"lng":43.19724,"population":0},{"id":70551,"name":"Şīf","timezone":{"dstOffset":3,"gmtOffset":3,"timeZoneId":"Asia/Aden"},"lat":15.31389,"lng":48.33,"population":0},{"id":70656,"name":"Shiḩan as Suflá","timezone":{"dstOffset":3,"gmtOffset":3,"timeZoneId":"Asia/Aden"},"lat":17.76999,"lng":52.48925,"population":0},{"id":70677,"name":"Shibām","timezone":{"dstOffset":3,"gmtOffset":3,"timeZoneId":"Asia/Aden"},"lat":15.50943,"lng":43.90445,"population":0},{"id":70759,"name":"Ash Sharyah","timezone":{"dstOffset":3,"gmtOffset":3,"timeZoneId":"Asia/Aden"},"lat":14.35659,"lng":45.02244,"population":0},{"id":70808,"name":"Sharas","timezone":{"dstOffset":3,"gmtOffset":3,"timeZoneId":"Asia/Aden"},"lat":15.71233,"lng":43.64925,"population":0},{"id":70910,"name":"Shahārat al Ghīs","timezone":{"dstOffset":3,"gmtOffset":3,"timeZoneId":"Asia/Aden"},"lat":16.18411,"lng":43.70228,"population":0},{"id":71005,"name":"Sayḩūt","timezone":{"dstOffset":3,"gmtOffset":3,"timeZoneId":"Asia/Aden"},"lat":15.21056,"lng":51.24556,"population":0},{"id":71136,"name":"Şanā’","timezone":{"dstOffset":3,"gmtOffset":3,"timeZoneId":"Asia/Aden"},"lat":15.4,"lng":47.76667,"population":0},{"id":71282,"name":"Sāh","timezone":{"dstOffset":3,"gmtOffset":3,"timeZoneId":"Asia/Aden"},"lat":15.57722,"lng":48.85056,"population":0},{"id":71481,"name":"Riḩāb","timezone":{"dstOffset":3,"gmtOffset":3,"timeZoneId":"Asia/Aden"},"lat":14.22762,"lng":44.18814,"population":0},{"id":71491,"name":"Radā‘","timezone":{"dstOffset":3,"gmtOffset":3,"timeZoneId":"Asia/Aden"},"lat":14.4151,"lng":44.83709,"population":0},{"id":71549,"name":"Ar Raydah","timezone":{"dstOffset":3,"gmtOffset":3,"timeZoneId":"Asia/Aden"},"lat":15.035,"lng":50.47917,"population":0},{"id":71558,"name":"Raydah","timezone":{"dstOffset":3,"gmtOffset":3,"timeZoneId":"Asia/Aden"},"lat":15.81421,"lng":44.04085,"population":0},{"id":71687,"name":"Ruḑūm","timezone":{"dstOffset":3,"gmtOffset":3,"timeZoneId":"Asia/Aden"},"lat":14.0851,"lng":47.74314,"population":0},{"id":71834,"name":"Qishn","timezone":{"dstOffset":3,"gmtOffset":3,"timeZoneId":"Asia/Aden"},"lat":15.42278,"lng":51.68139,"population":0},{"id":71904,"name":"Qa‘ţabah","timezone":{"dstOffset":3,"gmtOffset":3,"timeZoneId":"Asia/Aden"},"lat":13.85493,"lng":44.7058,"population":0},{"id":72181,"name":"Nişāb","timezone":{"dstOffset":3,"gmtOffset":3,"timeZoneId":"Asia/Aden"},"lat":14.51667,"lng":46.5,"population":0},{"id":72519,"name":"Mukayrās","timezone":{"dstOffset":3,"gmtOffset":3,"timeZoneId":"Asia/Aden"},"lat":13.94428,"lng":45.67074,"population":0},{"id":72557,"name":"Mūdīyah","timezone":{"dstOffset":3,"gmtOffset":3,"timeZoneId":"Asia/Aden"},"lat":13.9284,"lng":46.08254,"population":0},{"id":72561,"name":"Markaz Mudhaykirah","timezone":{"dstOffset":3,"gmtOffset":3,"timeZoneId":"Asia/Aden"},"lat":13.88953,"lng":43.9688,"population":0},{"id":72647,"name":"Manwakh","timezone":{"dstOffset":3,"gmtOffset":3,"timeZoneId":"Asia/Aden"},"lat":16.80778,"lng":48.10917,"population":0},{"id":72746,"name":"Mayfa‘ah","timezone":{"dstOffset":3,"gmtOffset":3,"timeZoneId":"Asia/Aden"},"lat":14.27042,"lng":47.5612,"population":0},{"id":72752,"name":"Maidi","timezone":{"dstOffset":3,"gmtOffset":3,"timeZoneId":"Asia/Aden"},"lat":16.32101,"lng":42.81299,"population":0},{"id":72760,"name":"Mawza‘","timezone":{"dstOffset":3,"gmtOffset":3,"timeZoneId":"Asia/Aden"},"lat":13.26831,"lng":43.50993,"population":0},{"id":72781,"name":"Māwiyah","timezone":{"dstOffset":3,"gmtOffset":3,"timeZoneId":"Asia/Aden"},"lat":13.58294,"lng":44.34768,"population":0},{"id":72855,"name":"Al Jawl","timezone":{"dstOffset":3,"gmtOffset":3,"timeZoneId":"Asia/Aden"},"lat":14.45625,"lng":48.28066,"population":0},{"id":73091,"name":"Manākhah","timezone":{"dstOffset":3,"gmtOffset":3,"timeZoneId":"Asia/Aden"},"lat":15.07422,"lng":43.74156,"population":0},{"id":73100,"name":"Milāḩ","timezone":{"dstOffset":3,"gmtOffset":3,"timeZoneId":"Asia/Aden"},"lat":14.41617,"lng":44.78622,"population":0},{"id":73125,"name":"Al Malāḩīţ","timezone":{"dstOffset":3,"gmtOffset":3,"timeZoneId":"Asia/Aden"},"lat":16.76848,"lng":43.27582,"population":0},{"id":73325,"name":"Al Māfūd","timezone":{"dstOffset":3,"gmtOffset":3,"timeZoneId":"Asia/Aden"},"lat":15.34264,"lng":47.25217,"population":0},{"id":73331,"name":"Mafḩaq","timezone":{"dstOffset":3,"gmtOffset":3,"timeZoneId":"Asia/Aden"},"lat":15.10162,"lng":43.90304,"population":0},{"id":73365,"name":"Al Madīd","timezone":{"dstOffset":3,"gmtOffset":3,"timeZoneId":"Asia/Aden"},"lat":15.64453,"lng":44.47337,"population":0},{"id":73409,"name":"Ma‘bar","timezone":{"dstOffset":3,"gmtOffset":3,"timeZoneId":"Asia/Aden"},"lat":14.79395,"lng":44.29354,"population":0},{"id":73422,"name":"Al Ma‘allā’","timezone":{"dstOffset":3,"gmtOffset":3,"timeZoneId":"Asia/Aden"},"lat":12.78987,"lng":45.00244,"population":0},{"id":73504,"name":"Lawdar","timezone":{"dstOffset":3,"gmtOffset":3,"timeZoneId":"Asia/Aden"},"lat":13.88282,"lng":45.86859,"population":0},{"id":73638,"name":"Kuḩlān ‘Affār","timezone":{"dstOffset":3,"gmtOffset":3,"timeZoneId":"Asia/Aden"},"lat":15.73309,"lng":43.71902,"population":0},{"id":73650,"name":"Ku‘aydinah","timezone":{"dstOffset":3,"gmtOffset":3,"timeZoneId":"Asia/Aden"},"lat":15.82104,"lng":43.3372,"population":0},{"id":73656,"name":"Crater","timezone":{"dstOffset":3,"gmtOffset":3,"timeZoneId":"Asia/Aden"},"lat":12.77522,"lng":45.03862,"population":0},{"id":73668,"name":"Kitāf","timezone":{"dstOffset":3,"gmtOffset":3,"timeZoneId":"Asia/Aden"},"lat":17.03165,"lng":44.10905,"population":0},{"id":30485,"name":"Daḩasuways","timezone":{"dstOffset":3,"gmtOffset":3,"timeZoneId":"Asia/Aden"},"lat":15.72389,"lng":50.72944,"population":0},{"id":30490,"name":"Ash Shiḩr","timezone":{"dstOffset":3,"gmtOffset":3,"timeZoneId":"Asia/Aden"},"lat":14.75863,"lng":49.60639,"population":0},{"id":30543,"name":"Al Ghaylah","timezone":{"dstOffset":3,"gmtOffset":3,"timeZoneId":"Asia/Aden"},"lat":14.59583,"lng":45.58333,"population":0},{"id":30616,"name":"Judaydah","timezone":{"dstOffset":3,"gmtOffset":3,"timeZoneId":"Asia/Aden"},"lat":15.07512,"lng":45.29962,"population":0},{"id":30689,"name":"Ḑawrān","timezone":{"dstOffset":3,"gmtOffset":3,"timeZoneId":"Asia/Aden"},"lat":13.77436,"lng":44.44196,"population":0},{"id":30696,"name":"Najd al Jumā‘ī","timezone":{"dstOffset":3,"gmtOffset":3,"timeZoneId":"Asia/Aden"},"lat":13.91581,"lng":44.32414,"population":0},{"id":30714,"name":"Z̧almat al ‘Alyā","timezone":{"dstOffset":3,"gmtOffset":3,"timeZoneId":"Asia/Aden"},"lat":14.1023,"lng":44.09404,"population":0},{"id":30729,"name":"Sūq ar Rabū‘","timezone":{"dstOffset":3,"gmtOffset":3,"timeZoneId":"Asia/Aden"},"lat":14.51155,"lng":44.01511,"population":0},{"id":30735,"name":"Ash Shuqayrah","timezone":{"dstOffset":3,"gmtOffset":3,"timeZoneId":"Asia/Aden"},"lat":13.13452,"lng":43.78636,"population":0},{"id":30740,"name":"Mashra‘ah","timezone":{"dstOffset":3,"gmtOffset":3,"timeZoneId":"Asia/Aden"},"lat":13.53235,"lng":43.99588,"population":0},{"id":30748,"name":"Ar Rawnah","timezone":{"dstOffset":3,"gmtOffset":3,"timeZoneId":"Asia/Aden"},"lat":13.75638,"lng":43.80286,"population":0},{"id":30762,"name":"Ar Ramādī","timezone":{"dstOffset":3,"gmtOffset":3,"timeZoneId":"Asia/Aden"},"lat":13.95641,"lng":43.78457,"population":0},{"id":30777,"name":"Al Aḩad","timezone":{"dstOffset":3,"gmtOffset":3,"timeZoneId":"Asia/Aden"},"lat":14.25833,"lng":43.64167,"population":0},{"id":30788,"name":"Aḑ Ḑil‘","timezone":{"dstOffset":3,"gmtOffset":3,"timeZoneId":"Asia/Aden"},"lat":14.67199,"lng":43.81828,"population":0},{"id":34703,"name":"Sūq Şirwāḩ","timezone":{"dstOffset":3,"gmtOffset":3,"timeZoneId":"Asia/Aden"},"lat":15.44933,"lng":45.01892,"population":0},{"id":34717,"name":"Majzar","timezone":{"dstOffset":3,"gmtOffset":3,"timeZoneId":"Asia/Aden"},"lat":15.85,"lng":44.775,"population":0},{"id":34724,"name":"Bidbadah","timezone":{"dstOffset":3,"gmtOffset":3,"timeZoneId":"Asia/Aden"},"lat":15.425,"lng":44.7,"population":0},{"id":34821,"name":"Matwaḩ","timezone":{"dstOffset":3,"gmtOffset":3,"timeZoneId":"Asia/Aden"},"lat":15.0676,"lng":43.64213,"population":0},{"id":34827,"name":"Şuwayr","timezone":{"dstOffset":3,"gmtOffset":3,"timeZoneId":"Asia/Aden"},"lat":16.1818,"lng":43.60986,"population":0},{"id":34846,"name":"Waḑarah","timezone":{"dstOffset":3,"gmtOffset":3,"timeZoneId":"Asia/Aden"},"lat":15.71073,"lng":43.48321,"population":0},{"id":34862,"name":"Sūq Shamar","timezone":{"dstOffset":3,"gmtOffset":3,"timeZoneId":"Asia/Aden"},"lat":15.885,"lng":43.36806,"population":0},{"id":34886,"name":"Mustabā’","timezone":{"dstOffset":3,"gmtOffset":3,"timeZoneId":"Asia/Aden"},"lat":16.22816,"lng":43.24895,"population":0},{"id":34888,"name":"An Naz̧īr","timezone":{"dstOffset":3,"gmtOffset":3,"timeZoneId":"Asia/Aden"},"lat":16.90916,"lng":43.26226,"population":0},{"id":7356864,"name":"Qaryat ad Da‘īs","timezone":{"dstOffset":3,"gmtOffset":3,"timeZoneId":"Asia/Aden"},"lat":13.9877,"lng":44.2749,"population":0},{"id":7360069,"name":"Ḩazm al ‘Udayn","timezone":{"dstOffset":3,"gmtOffset":3,"timeZoneId":"Asia/Aden"},"lat":14.02743,"lng":44.00526,"population":0},{"id":7363900,"name":"An Najd","timezone":{"dstOffset":3,"gmtOffset":3,"timeZoneId":"Asia/Aden"},"lat":14.42152,"lng":45.29596,"population":0},{"id":7364022,"name":"Raḩabah al Kawlah","timezone":{"dstOffset":3,"gmtOffset":3,"timeZoneId":"Asia/Aden"},"lat":14.89574,"lng":44.98918,"population":0},{"id":7364546,"name":"Al ‘Amūd","timezone":{"dstOffset":3,"gmtOffset":3,"timeZoneId":"Asia/Aden"},"lat":14.72103,"lng":45.20676,"population":0},{"id":7364784,"name":"Al ‘Aqabah","timezone":{"dstOffset":3,"gmtOffset":3,"timeZoneId":"Asia/Aden"},"lat":14.27179,"lng":44.78699,"population":0},{"id":7364913,"name":"Al Qurayshīyah","timezone":{"dstOffset":3,"gmtOffset":3,"timeZoneId":"Asia/Aden"},"lat":14.5122,"lng":44.85358,"population":0},{"id":7367232,"name":"Ḩawrah","timezone":{"dstOffset":3,"gmtOffset":3,"timeZoneId":"Asia/Aden"},"lat":13.35751,"lng":44.1458,"population":0},{"id":7354697,"name":"Al ‘Ayn","timezone":{"dstOffset":3,"gmtOffset":3,"timeZoneId":"Asia/Aden"},"lat":13.33005,"lng":44.09208,"population":0},{"id":7341410,"name":"Madghil","timezone":{"dstOffset":3,"gmtOffset":3,"timeZoneId":"Asia/Aden"},"lat":15.59858,"lng":45.04013,"population":0},{"id":7341563,"name":"Al Ḩarajah","timezone":{"dstOffset":3,"gmtOffset":3,"timeZoneId":"Asia/Aden"},"lat":15.48818,"lng":44.66535,"population":0},{"id":7344569,"name":"Banī an Nahārī","timezone":{"dstOffset":3,"gmtOffset":3,"timeZoneId":"Asia/Aden"},"lat":15.63981,"lng":43.55633,"population":0},{"id":7345723,"name":"Al Hijrah","timezone":{"dstOffset":3,"gmtOffset":3,"timeZoneId":"Asia/Aden"},"lat":17.29788,"lng":43.38718,"population":0},{"id":7345827,"name":"Sūq al Khamīs","timezone":{"dstOffset":3,"gmtOffset":3,"timeZoneId":"Asia/Aden"},"lat":17.18126,"lng":43.28811,"population":0},{"id":7346082,"name":"Al Mashāf","timezone":{"dstOffset":3,"gmtOffset":3,"timeZoneId":"Asia/Aden"},"lat":16.85836,"lng":43.19781,"population":0},{"id":7346660,"name":"Al Kharāb","timezone":{"dstOffset":3,"gmtOffset":3,"timeZoneId":"Asia/Aden"},"lat":16.99129,"lng":43.33888,"population":0},{"id":8015577,"name":"Bāqim as Sūq","timezone":{"dstOffset":3,"gmtOffset":3,"timeZoneId":"Asia/Aden"},"lat":17.39713,"lng":43.47743,"population":0},{"id":7928383,"name":"Bi’r Ḩāt","timezone":{"dstOffset":3,"gmtOffset":3,"timeZoneId":"Asia/Aden"},"lat":17.32197,"lng":52.09566,"population":0},{"id":7928384,"name":"Ḩadādah","timezone":{"dstOffset":3,"gmtOffset":3,"timeZoneId":"Asia/Aden"},"lat":13.17535,"lng":44.27461,"population":0},{"id":7930439,"name":"Rimāt","timezone":{"dstOffset":3,"gmtOffset":3,"timeZoneId":"Asia/Aden"},"lat":17.45532,"lng":50.57789,"population":0},{"id":7930440,"name":"Rumāh","timezone":{"dstOffset":3,"gmtOffset":3,"timeZoneId":"Asia/Aden"},"lat":17.45548,"lng":50.5777,"population":0},{"id":7931038,"name":"Al Shirūj","timezone":{"dstOffset":3,"gmtOffset":3,"timeZoneId":"Asia/Aden"},"lat":14.68526,"lng":47.76926,"population":0},{"id":7931039,"name":"Jawl al Majma‘","timezone":{"dstOffset":3,"gmtOffset":3,"timeZoneId":"Asia/Aden"},"lat":14.93278,"lng":47.02763,"population":0},{"id":7931040,"name":"Sūq Sibāḩ","timezone":{"dstOffset":3,"gmtOffset":3,"timeZoneId":"Asia/Aden"},"lat":13.81436,"lng":45.3923,"population":0},{"id":7931041,"name":"Al Ḩazm","timezone":{"dstOffset":3,"gmtOffset":3,"timeZoneId":"Asia/Aden"},"lat":14.68919,"lng":45.60962,"population":0},{"id":7931042,"name":"Al Aqţa‘","timezone":{"dstOffset":3,"gmtOffset":3,"timeZoneId":"Asia/Aden"},"lat":14.66217,"lng":45.35123,"population":0},{"id":8356282,"name":"Khayrān","timezone":{"dstOffset":3,"gmtOffset":3,"timeZoneId":"Asia/Aden"},"lat":16.0219,"lng":43.37859,"population":0},{"id":8356686,"name":"Al Ḩuşūn","timezone":{"dstOffset":3,"gmtOffset":3,"timeZoneId":"Asia/Aden"},"lat":15.4739,"lng":45.36691,"population":0},{"id":8357700,"name":"Jayshān","timezone":{"dstOffset":3,"gmtOffset":3,"timeZoneId":"Asia/Aden"},"lat":14.25204,"lng":46.17906,"population":0},{"id":8357701,"name":"Aş Şalw","timezone":{"dstOffset":3,"gmtOffset":3,"timeZoneId":"Asia/Aden"},"lat":13.32887,"lng":44.21708,"population":0},{"id":8357714,"name":"Raşad","timezone":{"dstOffset":3,"gmtOffset":3,"timeZoneId":"Asia/Aden"},"lat":13.71216,"lng":45.30318,"population":0},{"id":8357764,"name":"Saḩḩab","timezone":{"dstOffset":3,"gmtOffset":3,"timeZoneId":"Asia/Aden"},"lat":15.60223,"lng":44.0242,"population":0},{"id":8308191,"name":"Maţarah","timezone":{"dstOffset":3,"gmtOffset":3,"timeZoneId":"Asia/Aden"},"lat":15.52591,"lng":47.63339,"population":0},{"id":8308699,"name":"Ḩabīl ar Raydah","timezone":{"dstOffset":3,"gmtOffset":3,"timeZoneId":"Asia/Aden"},"lat":13.6444,"lng":44.85097,"population":0},{"id":8308729,"name":"Al ‘Ulayb","timezone":{"dstOffset":3,"gmtOffset":3,"timeZoneId":"Asia/Aden"},"lat":15.14747,"lng":49.07325,"population":0},{"id":8308730,"name":"Aţ Ţalḩ","timezone":{"dstOffset":3,"gmtOffset":3,"timeZoneId":"Asia/Aden"},"lat":15.156,"lng":47.39903,"population":0},{"id":8308731,"name":"Sirār","timezone":{"dstOffset":3,"gmtOffset":3,"timeZoneId":"Asia/Aden"},"lat":13.63778,"lng":45.31371,"population":0},{"id":8534038,"name":"Majz","timezone":{"dstOffset":3,"gmtOffset":3,"timeZoneId":"Asia/Aden"},"lat":17.06939,"lng":43.57507,"population":0},{"id":8534079,"name":"Al Mirwāḩ","timezone":{"dstOffset":3,"gmtOffset":3,"timeZoneId":"Asia/Aden"},"lat":15.47171,"lng":43.42947,"population":0}]