[{"id":2240449,"name":"Luanda","timezone":{"dstOffset":1,"gmtOffset":1,"timeZoneId":"Africa/Luanda"},"lat":-8.83682,"lng":13.23432,"population":2776168},{"id":2239076,"name":"N'dalatando","timezone":{"dstOffset":1,"gmtOffset":1,"timeZoneId":"Africa/Luanda"},"lat":-9.29782,"lng":14.91162,"population":383100},{"id":3348313,"name":"Huambo","timezone":{"dstOffset":1,"gmtOffset":1,"timeZoneId":"Africa/Luanda"},"lat":-12.77611,"lng":15.73917,"population":226145},{"id":3347939,"name":"Lobito","timezone":{"dstOffset":1,"gmtOffset":1,"timeZoneId":"Africa/Luanda"},"lat":-12.3644,"lng":13.53601,"population":207932},{"id":3351663,"name":"Benguela","timezone":{"dstOffset":1,"gmtOffset":1,"timeZoneId":"Africa/Luanda"},"lat":-12.57626,"lng":13.40547,"population":151226},{"id":3348078,"name":"Kuito","timezone":{"dstOffset":1,"gmtOffset":1,"timeZoneId":"Africa/Luanda"},"lat":-12.38333,"lng":16.93333,"population":113624},{"id":3347762,"name":"Lubango","timezone":{"dstOffset":1,"gmtOffset":1,"timeZoneId":"Africa/Luanda"},"lat":-14.91717,"lng":13.4925,"population":102541},{"id":2239862,"name":"Malanje","timezone":{"dstOffset":1,"gmtOffset":1,"timeZoneId":"Africa/Luanda"},"lat":-9.54015,"lng":16.34096,"population":87046},{"id":3347019,"name":"Namibe","timezone":{"dstOffset":1,"gmtOffset":1,"timeZoneId":"Africa/Luanda"},"lat":-15.19611,"lng":12.15222,"population":80149},{"id":2236967,"name":"Soyo","timezone":{"dstOffset":1,"gmtOffset":1,"timeZoneId":"Africa/Luanda"},"lat":-6.1349,"lng":12.36894,"population":67491},{"id":2243271,"name":"Cabinda","timezone":{"dstOffset":1,"gmtOffset":1,"timeZoneId":"Africa/Luanda"},"lat":-5.55,"lng":12.2,"population":66020},{"id":2236568,"name":"Uíge","timezone":{"dstOffset":1,"gmtOffset":1,"timeZoneId":"Africa/Luanda"},"lat":-7.60874,"lng":15.06131,"population":60008},{"id":145531,"name":"Saurimo","timezone":{"dstOffset":1,"gmtOffset":1,"timeZoneId":"Africa/Luanda"},"lat":-9.66078,"lng":20.39155,"population":40498},{"id":3346015,"name":"Sumbe","timezone":{"dstOffset":1,"gmtOffset":1,"timeZoneId":"Africa/Luanda"},"lat":-11.20605,"lng":13.84371,"population":33277},{"id":3347353,"name":"Menongue","timezone":{"dstOffset":1,"gmtOffset":1,"timeZoneId":"Africa/Luanda"},"lat":-14.6585,"lng":17.69099,"population":32203},{"id":3351024,"name":"Caluquembe","timezone":{"dstOffset":1,"gmtOffset":1,"timeZoneId":"Africa/Luanda"},"lat":-13.78333,"lng":14.68333,"population":30300},{"id":2242001,"name":"Caxito","timezone":{"dstOffset":1,"gmtOffset":1,"timeZoneId":"Africa/Luanda"},"lat":-8.57848,"lng":13.66425,"population":28224},{"id":3347853,"name":"Longonjo","timezone":{"dstOffset":1,"gmtOffset":1,"timeZoneId":"Africa/Luanda"},"lat":-12.90667,"lng":15.25333,"population":24346},{"id":2239520,"name":"Mbanza Congo","timezone":{"dstOffset":1,"gmtOffset":1,"timeZoneId":"Africa/Luanda"},"lat":-6.26703,"lng":14.2401,"population":24220},{"id":3351500,"name":"Caála","timezone":{"dstOffset":1,"gmtOffset":1,"timeZoneId":"Africa/Luanda"},"lat":-12.8525,"lng":15.56056,"population":21205},{"id":3347719,"name":"Luena","timezone":{"dstOffset":1,"gmtOffset":1,"timeZoneId":"Africa/Luanda"},"lat":-11.78333,"lng":19.91667,"population":21115},{"id":145724,"name":"Lucapa","timezone":{"dstOffset":1,"gmtOffset":1,"timeZoneId":"Africa/Luanda"},"lat":-8.41915,"lng":20.74466,"population":20115},{"id":3351014,"name":"Camacupa","timezone":{"dstOffset":1,"gmtOffset":1,"timeZoneId":"Africa/Luanda"},"lat":-12.01667,"lng":17.48333,"population":19150},{"id":3350372,"name":"Catabola","timezone":{"dstOffset":1,"gmtOffset":1,"timeZoneId":"Africa/Luanda"},"lat":-12.15,"lng":17.28333,"population":18855},{"id":876177,"name":"Luau","timezone":{"dstOffset":1,"gmtOffset":1,"timeZoneId":"Africa/Luanda"},"lat":-10.70727,"lng":22.22466,"population":18465},{"id":2239001,"name":"Nzeto","timezone":{"dstOffset":1,"gmtOffset":1,"timeZoneId":"Africa/Luanda"},"lat":-7.23116,"lng":12.8666,"population":18352},{"id":3350246,"name":"Catumbela","timezone":{"dstOffset":1,"gmtOffset":1,"timeZoneId":"Africa/Luanda"},"lat":-12.43002,"lng":13.54677,"population":16977},{"id":2242885,"name":"Camabatela","timezone":{"dstOffset":1,"gmtOffset":1,"timeZoneId":"Africa/Luanda"},"lat":-8.18812,"lng":15.37495,"population":12837},{"id":3345497,"name":"Uacu Cungo","timezone":{"dstOffset":1,"gmtOffset":1,"timeZoneId":"Africa/Luanda"},"lat":-11.35669,"lng":15.11719,"population":10970},{"id":3351380,"name":"Caconda","timezone":{"dstOffset":1,"gmtOffset":1,"timeZoneId":"Africa/Luanda"},"lat":-13.73333,"lng":15.06667,"population":10549},{"id":3346821,"name":"Ondjiva","timezone":{"dstOffset":1,"gmtOffset":1,"timeZoneId":"Africa/Luanda"},"lat":-17.06667,"lng":15.73333,"population":10169},{"id":3346598,"name":"Quibala","timezone":{"dstOffset":1,"gmtOffset":1,"timeZoneId":"Africa/Luanda"},"lat":-10.73366,"lng":14.97995,"population":8915},{"id":3349580,"name":"Chissamba","timezone":{"dstOffset":1,"gmtOffset":1,"timeZoneId":"Africa/Luanda"},"lat":-12.16667,"lng":17.33333,"population":7677},{"id":9376229,"name":"Chela","timezone":{"dstOffset":1,"gmtOffset":1,"timeZoneId":"Africa/Luanda"},"lat":-12.30261,"lng":15.43358,"population":5811},{"id":876233,"name":"Léua","timezone":{"dstOffset":1,"gmtOffset":1,"timeZoneId":"Africa/Luanda"},"lat":-11.65,"lng":20.45,"population":5168},{"id":876123,"name":"Lumeje","timezone":{"dstOffset":1,"gmtOffset":1,"timeZoneId":"Africa/Luanda"},"lat":-11.55,"lng":20.78333,"population":4972},{"id":876485,"name":"Cazaji","timezone":{"dstOffset":1,"gmtOffset":1,"timeZoneId":"Africa/Luanda"},"lat":-11.06715,"lng":20.70148,"population":4764},{"id":9383266,"name":"Chinjenje","timezone":{"dstOffset":1,"gmtOffset":1,"timeZoneId":"Africa/Luanda"},"lat":-12.93244,"lng":14.99238,"population":0}]