[{"id":3041732,"name":"Mariehamn","timezone":{"dstOffset":3,"gmtOffset":2,"timeZoneId":"Europe/Mariehamn"},"lat":60.09726,"lng":19.93481,"population":10682},{"id":3041760,"name":"Jomala","timezone":{"dstOffset":3,"gmtOffset":2,"timeZoneId":"Europe/Mariehamn"},"lat":60.14902,"lng":19.951,"population":3662},{"id":3041798,"name":"Finström","timezone":{"dstOffset":3,"gmtOffset":2,"timeZoneId":"Europe/Mariehamn"},"lat":60.26667,"lng":19.93333,"population":2412},{"id":648382,"name":"Lemland","timezone":{"dstOffset":3,"gmtOffset":2,"timeZoneId":"Europe/Mariehamn"},"lat":60.07178,"lng":20.08472,"population":1829},{"id":637878,"name":"Saltvik","timezone":{"dstOffset":3,"gmtOffset":2,"timeZoneId":"Europe/Mariehamn"},"lat":60.28333,"lng":20.05,"population":1691},{"id":3041776,"name":"Hammarland","timezone":{"dstOffset":3,"gmtOffset":2,"timeZoneId":"Europe/Mariehamn"},"lat":60.21667,"lng":19.75,"population":1395},{"id":635815,"name":"Sund","timezone":{"dstOffset":3,"gmtOffset":2,"timeZoneId":"Europe/Mariehamn"},"lat":60.25,"lng":20.11667,"population":1080},{"id":3041807,"name":"Eckerö","timezone":{"dstOffset":3,"gmtOffset":2,"timeZoneId":"Europe/Mariehamn"},"lat":60.21249,"lng":19.61442,"population":1028},{"id":659949,"name":"Föglö","timezone":{"dstOffset":3,"gmtOffset":2,"timeZoneId":"Europe/Mariehamn"},"lat":60.01667,"lng":20.41667,"population":632},{"id":660521,"name":"Brändö","timezone":{"dstOffset":3,"gmtOffset":2,"timeZoneId":"Europe/Mariehamn"},"lat":60.41165,"lng":21.04534,"population":515},{"id":3041792,"name":"Geta","timezone":{"dstOffset":3,"gmtOffset":2,"timeZoneId":"Europe/Mariehamn"},"lat":60.37453,"lng":19.84455,"population":452},{"id":632421,"name":"Vårdö","timezone":{"dstOffset":3,"gmtOffset":2,"timeZoneId":"Europe/Mariehamn"},"lat":60.25,"lng":20.38333,"population":411},{"id":650395,"name":"Kumlinge","timezone":{"dstOffset":3,"gmtOffset":2,"timeZoneId":"Europe/Mariehamn"},"lat":60.26013,"lng":20.77892,"population":384},{"id":651986,"name":"Kökar","timezone":{"dstOffset":3,"gmtOffset":2,"timeZoneId":"Europe/Mariehamn"},"lat":59.92051,"lng":20.90883,"population":355},{"id":647455,"name":"Lumparland","timezone":{"dstOffset":3,"gmtOffset":2,"timeZoneId":"Europe/Mariehamn"},"lat":60.11695,"lng":20.25819,"population":335},{"id":636158,"name":"Sottunga","timezone":{"dstOffset":3,"gmtOffset":2,"timeZoneId":"Europe/Mariehamn"},"lat":60.13023,"lng":20.66683,"population":144}]