[{"id":425378,"name":"Bujumbura","timezone":{"dstOffset":2,"gmtOffset":2,"timeZoneId":"Africa/Bujumbura"},"lat":-3.3822,"lng":29.3644,"population":331700},{"id":431748,"name":"Muyinga","timezone":{"dstOffset":2,"gmtOffset":2,"timeZoneId":"Africa/Bujumbura"},"lat":-2.8451,"lng":30.3414,"population":71076},{"id":426700,"name":"Ruyigi","timezone":{"dstOffset":2,"gmtOffset":2,"timeZoneId":"Africa/Bujumbura"},"lat":-3.47639,"lng":30.24861,"population":38458},{"id":426272,"name":"Gitega","timezone":{"dstOffset":2,"gmtOffset":2,"timeZoneId":"Africa/Bujumbura"},"lat":-3.4264,"lng":29.9308,"population":23167},{"id":430569,"name":"Ngozi","timezone":{"dstOffset":2,"gmtOffset":2,"timeZoneId":"Africa/Bujumbura"},"lat":-2.9075,"lng":29.8306,"population":21506},{"id":433635,"name":"Rutana","timezone":{"dstOffset":2,"gmtOffset":2,"timeZoneId":"Africa/Bujumbura"},"lat":-3.9279,"lng":29.992,"population":20893},{"id":423328,"name":"Bururi","timezone":{"dstOffset":2,"gmtOffset":2,"timeZoneId":"Africa/Bujumbura"},"lat":-3.94877,"lng":29.62438,"population":19740},{"id":422232,"name":"Makamba","timezone":{"dstOffset":2,"gmtOffset":2,"timeZoneId":"Africa/Bujumbura"},"lat":-4.1348,"lng":29.804,"population":19642},{"id":430952,"name":"Kayanza","timezone":{"dstOffset":2,"gmtOffset":2,"timeZoneId":"Africa/Bujumbura"},"lat":-2.9221,"lng":29.6293,"population":19443},{"id":425551,"name":"Muramvya","timezone":{"dstOffset":2,"gmtOffset":2,"timeZoneId":"Africa/Bujumbura"},"lat":-3.2682,"lng":29.6079,"population":18041},{"id":430021,"name":"Cibitoke","timezone":{"dstOffset":2,"gmtOffset":2,"timeZoneId":"Africa/Bujumbura"},"lat":-2.8869,"lng":29.1248,"population":14220},{"id":428515,"name":"Bubanza","timezone":{"dstOffset":2,"gmtOffset":2,"timeZoneId":"Africa/Bujumbura"},"lat":-3.0804,"lng":29.391,"population":12728},{"id":428219,"name":"Karuzi","timezone":{"dstOffset":2,"gmtOffset":2,"timeZoneId":"Africa/Bujumbura"},"lat":-3.10608,"lng":30.17351,"population":10705},{"id":427701,"name":"Cankuzo","timezone":{"dstOffset":2,"gmtOffset":2,"timeZoneId":"Africa/Bujumbura"},"lat":-3.2186,"lng":30.5528,"population":6585},{"id":432456,"name":"Kirundo","timezone":{"dstOffset":2,"gmtOffset":2,"timeZoneId":"Africa/Bujumbura"},"lat":-2.5845,"lng":30.0959,"population":6083},{"id":423549,"name":"Rumonge","timezone":{"dstOffset":2,"gmtOffset":2,"timeZoneId":"Africa/Bujumbura"},"lat":-3.9736,"lng":29.4386,"population":6074},{"id":423794,"name":"Mwaro","timezone":{"dstOffset":2,"gmtOffset":2,"timeZoneId":"Africa/Bujumbura"},"lat":-3.5272,"lng":29.7034,"population":4924},{"id":430086,"name":"Buganda","timezone":{"dstOffset":2,"gmtOffset":2,"timeZoneId":"Africa/Bujumbura"},"lat":-2.9663,"lng":29.1944,"population":0}]