[{"id":3904906,"name":"Santa Cruz","timezone":{"dstOffset":-4,"gmtOffset":-4,"timeZoneId":"America/La_Paz"},"lat":-17.78629,"lng":-63.18117,"population":1364389},{"id":3919968,"name":"Cochabamba","timezone":{"dstOffset":-4,"gmtOffset":-4,"timeZoneId":"America/La_Paz"},"lat":-17.3895,"lng":-66.1568,"population":900414},{"id":3911925,"name":"La Paz","timezone":{"dstOffset":-4,"gmtOffset":-4,"timeZoneId":"America/La_Paz"},"lat":-16.5,"lng":-68.15,"population":812799},{"id":3903987,"name":"Sucre","timezone":{"dstOffset":-4,"gmtOffset":-4,"timeZoneId":"America/La_Paz"},"lat":-19.03332,"lng":-65.26274,"population":224838},{"id":3909234,"name":"Oruro","timezone":{"dstOffset":-4,"gmtOffset":-4,"timeZoneId":"America/La_Paz"},"lat":-17.98333,"lng":-67.15,"population":208684},{"id":3903320,"name":"Tarija","timezone":{"dstOffset":-4,"gmtOffset":-4,"timeZoneId":"America/La_Paz"},"lat":-21.53549,"lng":-64.72956,"population":159269},{"id":3907584,"name":"Potosí","timezone":{"dstOffset":-4,"gmtOffset":-4,"timeZoneId":"America/La_Paz"},"lat":-19.58361,"lng":-65.75306,"population":141251},{"id":3910027,"name":"Montero","timezone":{"dstOffset":-4,"gmtOffset":-4,"timeZoneId":"America/La_Paz"},"lat":-17.33866,"lng":-63.2505,"population":88616},{"id":3902377,"name":"Trinidad","timezone":{"dstOffset":-4,"gmtOffset":-4,"timeZoneId":"America/La_Paz"},"lat":-14.83333,"lng":-64.9,"population":84259},{"id":3901178,"name":"Yacuiba","timezone":{"dstOffset":-4,"gmtOffset":-4,"timeZoneId":"America/La_Paz"},"lat":-22.01643,"lng":-63.67753,"population":82803},{"id":3906466,"name":"Riberalta","timezone":{"dstOffset":-4,"gmtOffset":-4,"timeZoneId":"America/La_Paz"},"lat":-11.00654,"lng":-66.06312,"population":74014},{"id":3915350,"name":"Guayaramerín","timezone":{"dstOffset":-4,"gmtOffset":-4,"timeZoneId":"America/La_Paz"},"lat":-10.83676,"lng":-65.36136,"population":36008},{"id":3910291,"name":"Mizque","timezone":{"dstOffset":-4,"gmtOffset":-4,"timeZoneId":"America/La_Paz"},"lat":-17.94101,"lng":-65.34016,"population":30481},{"id":3901501,"name":"Villazón","timezone":{"dstOffset":-4,"gmtOffset":-4,"timeZoneId":"America/La_Paz"},"lat":-22.08659,"lng":-65.59422,"population":30253},{"id":3911409,"name":"Llallagua","timezone":{"dstOffset":-4,"gmtOffset":-4,"timeZoneId":"America/La_Paz"},"lat":-18.42426,"lng":-66.58388,"population":28069},{"id":3922414,"name":"Camiri","timezone":{"dstOffset":-4,"gmtOffset":-4,"timeZoneId":"America/La_Paz"},"lat":-20.03849,"lng":-63.51833,"population":27961},{"id":3919998,"name":"Cobija","timezone":{"dstOffset":-4,"gmtOffset":-4,"timeZoneId":"America/La_Paz"},"lat":-11.02671,"lng":-68.76918,"population":26585},{"id":3905658,"name":"San Ignacio de Velasco","timezone":{"dstOffset":-4,"gmtOffset":-4,"timeZoneId":"America/La_Paz"},"lat":-16.36667,"lng":-60.95,"population":23569},{"id":3902202,"name":"Tupiza","timezone":{"dstOffset":-4,"gmtOffset":-4,"timeZoneId":"America/La_Paz"},"lat":-21.44344,"lng":-65.71875,"population":22233},{"id":3901301,"name":"Warnes","timezone":{"dstOffset":-4,"gmtOffset":-4,"timeZoneId":"America/La_Paz"},"lat":-17.5,"lng":-63.16667,"population":22036},{"id":3905792,"name":"San Borja","timezone":{"dstOffset":-4,"gmtOffset":-4,"timeZoneId":"America/La_Paz"},"lat":-14.81667,"lng":-66.85,"population":19640},{"id":3901547,"name":"Villamontes","timezone":{"dstOffset":-4,"gmtOffset":-4,"timeZoneId":"America/La_Paz"},"lat":-21.26236,"lng":-63.46903,"population":18761},{"id":3918937,"name":"Cotoca","timezone":{"dstOffset":-4,"gmtOffset":-4,"timeZoneId":"America/La_Paz"},"lat":-17.81667,"lng":-63.05,"population":18347},{"id":3901504,"name":"Villa Yapacaní","timezone":{"dstOffset":-4,"gmtOffset":-4,"timeZoneId":"America/La_Paz"},"lat":-17.4,"lng":-63.83333,"population":18187},{"id":3904666,"name":"Santiago del Torno","timezone":{"dstOffset":-4,"gmtOffset":-4,"timeZoneId":"America/La_Paz"},"lat":-17.98674,"lng":-63.38118,"population":15543},{"id":3914839,"name":"Huanuni","timezone":{"dstOffset":-4,"gmtOffset":-4,"timeZoneId":"America/La_Paz"},"lat":-18.289,"lng":-66.83583,"population":15492},{"id":3907080,"name":"Punata","timezone":{"dstOffset":-4,"gmtOffset":-4,"timeZoneId":"America/La_Paz"},"lat":-17.54234,"lng":-65.83472,"population":15194},{"id":3923644,"name":"Ascensión","timezone":{"dstOffset":-4,"gmtOffset":-4,"timeZoneId":"America/La_Paz"},"lat":-15.7,"lng":-63.08333,"population":14429},{"id":3910343,"name":"Mineros","timezone":{"dstOffset":-4,"gmtOffset":-4,"timeZoneId":"America/La_Paz"},"lat":-17.11876,"lng":-63.231,"population":14385},{"id":3908339,"name":"Patacamaya","timezone":{"dstOffset":-4,"gmtOffset":-4,"timeZoneId":"America/La_Paz"},"lat":-17.2358,"lng":-67.92169,"population":12260},{"id":3919884,"name":"Colchani","timezone":{"dstOffset":-4,"gmtOffset":-4,"timeZoneId":"America/La_Paz"},"lat":-20.3,"lng":-66.93333,"population":11988},{"id":3906209,"name":"Rurrenabaque","timezone":{"dstOffset":-4,"gmtOffset":-4,"timeZoneId":"America/La_Paz"},"lat":-14.44125,"lng":-67.52781,"population":11749},{"id":3907646,"name":"Portachuelo","timezone":{"dstOffset":-4,"gmtOffset":-4,"timeZoneId":"America/La_Paz"},"lat":-17.35168,"lng":-63.39282,"population":11485},{"id":3444201,"name":"Puerto Quijarro","timezone":{"dstOffset":-4,"gmtOffset":-4,"timeZoneId":"America/La_Paz"},"lat":-17.78333,"lng":-57.76667,"population":10392},{"id":3901903,"name":"Uyuni","timezone":{"dstOffset":-4,"gmtOffset":-4,"timeZoneId":"America/La_Paz"},"lat":-20.45967,"lng":-66.82503,"population":10293},{"id":3444176,"name":"Roboré","timezone":{"dstOffset":-4,"gmtOffset":-4,"timeZoneId":"America/La_Paz"},"lat":-18.33333,"lng":-59.75,"population":9882},{"id":3909010,"name":"Pailón","timezone":{"dstOffset":-4,"gmtOffset":-4,"timeZoneId":"America/La_Paz"},"lat":-17.65,"lng":-62.75,"population":9304},{"id":3920016,"name":"Cliza","timezone":{"dstOffset":-4,"gmtOffset":-4,"timeZoneId":"America/La_Paz"},"lat":-17.58777,"lng":-65.93253,"population":8654},{"id":3924610,"name":"Achacachi","timezone":{"dstOffset":-4,"gmtOffset":-4,"timeZoneId":"America/La_Paz"},"lat":-16.05,"lng":-68.68333,"population":8447},{"id":3901874,"name":"Vallegrande","timezone":{"dstOffset":-4,"gmtOffset":-4,"timeZoneId":"America/La_Paz"},"lat":-18.48923,"lng":-64.10609,"population":8422},{"id":3910094,"name":"Monteagudo","timezone":{"dstOffset":-4,"gmtOffset":-4,"timeZoneId":"America/La_Paz"},"lat":-19.79989,"lng":-63.95462,"population":8289},{"id":3924341,"name":"Aiquile","timezone":{"dstOffset":-4,"gmtOffset":-4,"timeZoneId":"America/La_Paz"},"lat":-18.20408,"lng":-65.18068,"population":8224},{"id":3903342,"name":"Tarata","timezone":{"dstOffset":-4,"gmtOffset":-4,"timeZoneId":"America/La_Paz"},"lat":-17.60898,"lng":-66.02135,"population":8043},{"id":3921355,"name":"Challapata","timezone":{"dstOffset":-4,"gmtOffset":-4,"timeZoneId":"America/La_Paz"},"lat":-18.90208,"lng":-66.77048,"population":8016},{"id":3905453,"name":"San Julian","timezone":{"dstOffset":-4,"gmtOffset":-4,"timeZoneId":"America/La_Paz"},"lat":-17.78333,"lng":-62.86667,"population":7706},{"id":3906478,"name":"Reyes","timezone":{"dstOffset":-4,"gmtOffset":-4,"timeZoneId":"America/La_Paz"},"lat":-14.31667,"lng":-67.38333,"population":7376},{"id":3919352,"name":"Concepción","timezone":{"dstOffset":-4,"gmtOffset":-4,"timeZoneId":"America/La_Paz"},"lat":-16.43333,"lng":-60.9,"population":6900},{"id":3444105,"name":"San Matías","timezone":{"dstOffset":-4,"gmtOffset":-4,"timeZoneId":"America/La_Paz"},"lat":-16.36667,"lng":-58.4,"population":6352},{"id":3912418,"name":"La Bélgica","timezone":{"dstOffset":-4,"gmtOffset":-4,"timeZoneId":"America/La_Paz"},"lat":-17.55,"lng":-63.21667,"population":5501},{"id":3904729,"name":"Santa Rosa del Sara","timezone":{"dstOffset":-4,"gmtOffset":-4,"timeZoneId":"America/La_Paz"},"lat":-17.10916,"lng":-63.59514,"population":5251},{"id":3922125,"name":"Capinota","timezone":{"dstOffset":-4,"gmtOffset":-4,"timeZoneId":"America/La_Paz"},"lat":-17.71113,"lng":-66.26082,"population":5157},{"id":3920736,"name":"Chimoré","timezone":{"dstOffset":-4,"gmtOffset":-4,"timeZoneId":"America/La_Paz"},"lat":-16.94807,"lng":-65.14002,"population":5147},{"id":3905159,"name":"San Pedro","timezone":{"dstOffset":-4,"gmtOffset":-4,"timeZoneId":"America/La_Paz"},"lat":-16.23717,"lng":-68.85063,"population":5002},{"id":3909360,"name":"Okinawa Número Uno","timezone":{"dstOffset":-4,"gmtOffset":-4,"timeZoneId":"America/La_Paz"},"lat":-17.23333,"lng":-62.81667,"population":4944},{"id":3923145,"name":"Betanzos","timezone":{"dstOffset":-4,"gmtOffset":-4,"timeZoneId":"America/La_Paz"},"lat":-19.55293,"lng":-65.45395,"population":4847},{"id":3922451,"name":"Camargo","timezone":{"dstOffset":-4,"gmtOffset":-4,"timeZoneId":"America/La_Paz"},"lat":-20.64064,"lng":-65.20893,"population":4715},{"id":3904793,"name":"Santa Rosa","timezone":{"dstOffset":-4,"gmtOffset":-4,"timeZoneId":"America/La_Paz"},"lat":-14.16667,"lng":-66.88333,"population":4459},{"id":3919703,"name":"Comarapa","timezone":{"dstOffset":-4,"gmtOffset":-4,"timeZoneId":"America/La_Paz"},"lat":-17.9,"lng":-64.48333,"population":4445},{"id":3905088,"name":"San Ramón","timezone":{"dstOffset":-4,"gmtOffset":-4,"timeZoneId":"America/La_Paz"},"lat":-13.28333,"lng":-64.71667,"population":4389},{"id":3910901,"name":"Mairana","timezone":{"dstOffset":-4,"gmtOffset":-4,"timeZoneId":"America/La_Paz"},"lat":-18.11919,"lng":-63.95965,"population":4298},{"id":3922965,"name":"Buena Vista","timezone":{"dstOffset":-4,"gmtOffset":-4,"timeZoneId":"America/La_Paz"},"lat":-17.45659,"lng":-63.65876,"population":4282},{"id":3905775,"name":"San Carlos","timezone":{"dstOffset":-4,"gmtOffset":-4,"timeZoneId":"America/La_Paz"},"lat":-17.4,"lng":-63.75,"population":4180},{"id":3913271,"name":"Jorochito","timezone":{"dstOffset":-4,"gmtOffset":-4,"timeZoneId":"America/La_Paz"},"lat":-18.05514,"lng":-63.42821,"population":4013},{"id":3919715,"name":"Colquiri","timezone":{"dstOffset":-4,"gmtOffset":-4,"timeZoneId":"America/La_Paz"},"lat":-17.38918,"lng":-67.12671,"population":3933},{"id":3919813,"name":"Colomi","timezone":{"dstOffset":-4,"gmtOffset":-4,"timeZoneId":"America/La_Paz"},"lat":-17.35,"lng":-65.86667,"population":3921},{"id":3923770,"name":"Arani","timezone":{"dstOffset":-4,"gmtOffset":-4,"timeZoneId":"America/La_Paz"},"lat":-17.56854,"lng":-65.76883,"population":3906},{"id":3904221,"name":"Sipe Sipe","timezone":{"dstOffset":-4,"gmtOffset":-4,"timeZoneId":"America/La_Paz"},"lat":-17.45,"lng":-66.38333,"population":3776},{"id":3905462,"name":"San Juan del Surutú","timezone":{"dstOffset":-4,"gmtOffset":-4,"timeZoneId":"America/La_Paz"},"lat":-17.48333,"lng":-63.7,"population":3707},{"id":3914715,"name":"Huatajata","timezone":{"dstOffset":-4,"gmtOffset":-4,"timeZoneId":"America/La_Paz"},"lat":-16.2,"lng":-68.68333,"population":3700},{"id":3911512,"name":"Limoncito","timezone":{"dstOffset":-4,"gmtOffset":-4,"timeZoneId":"America/La_Paz"},"lat":-18.03104,"lng":-63.40523,"population":3622},{"id":3905951,"name":"Samaipata","timezone":{"dstOffset":-4,"gmtOffset":-4,"timeZoneId":"America/La_Paz"},"lat":-18.18006,"lng":-63.87552,"population":3500},{"id":3901969,"name":"Urubichá","timezone":{"dstOffset":-4,"gmtOffset":-4,"timeZoneId":"America/La_Paz"},"lat":-15.39286,"lng":-62.94661,"population":3267},{"id":3905206,"name":"San Pablo","timezone":{"dstOffset":-4,"gmtOffset":-4,"timeZoneId":"America/La_Paz"},"lat":-16.21667,"lng":-68.83333,"population":3245},{"id":3912119,"name":"Lahuachaca","timezone":{"dstOffset":-4,"gmtOffset":-4,"timeZoneId":"America/La_Paz"},"lat":-17.37054,"lng":-67.67501,"population":3235},{"id":3923015,"name":"Boyuibe","timezone":{"dstOffset":-4,"gmtOffset":-4,"timeZoneId":"America/La_Paz"},"lat":-20.43227,"lng":-63.28147,"population":3075},{"id":3911120,"name":"Los Negros","timezone":{"dstOffset":-4,"gmtOffset":-4,"timeZoneId":"America/La_Paz"},"lat":-17.73333,"lng":-63.43333,"population":3046},{"id":3903046,"name":"Tiwanaku","timezone":{"dstOffset":-4,"gmtOffset":-4,"timeZoneId":"America/La_Paz"},"lat":-16.55228,"lng":-68.67953,"population":3037},{"id":3921141,"name":"Charagua","timezone":{"dstOffset":-4,"gmtOffset":-4,"timeZoneId":"America/La_Paz"},"lat":-19.79151,"lng":-63.19864,"population":3025},{"id":3444091,"name":"San Pedro","timezone":{"dstOffset":-4,"gmtOffset":-4,"timeZoneId":"America/La_Paz"},"lat":-18.28333,"lng":-59.81667,"population":2990},{"id":3914084,"name":"Irpa Irpa","timezone":{"dstOffset":-4,"gmtOffset":-4,"timeZoneId":"America/La_Paz"},"lat":-17.71667,"lng":-66.26667,"population":2968},{"id":3920244,"name":"Chulumani","timezone":{"dstOffset":-4,"gmtOffset":-4,"timeZoneId":"America/La_Paz"},"lat":-16.40855,"lng":-67.5294,"population":2952},{"id":3909038,"name":"Padilla","timezone":{"dstOffset":-4,"gmtOffset":-4,"timeZoneId":"America/La_Paz"},"lat":-19.30878,"lng":-64.30273,"population":2920},{"id":3917939,"name":"Entre Ríos","timezone":{"dstOffset":-4,"gmtOffset":-4,"timeZoneId":"America/La_Paz"},"lat":-21.52661,"lng":-64.17299,"population":2685},{"id":3907159,"name":"Puesto de Pailas","timezone":{"dstOffset":-4,"gmtOffset":-4,"timeZoneId":"America/La_Paz"},"lat":-17.65,"lng":-62.8,"population":2675},{"id":3910758,"name":"Mapiri","timezone":{"dstOffset":-4,"gmtOffset":-4,"timeZoneId":"America/La_Paz"},"lat":-15.25,"lng":-68.16667,"population":2597},{"id":3923284,"name":"Batallas","timezone":{"dstOffset":-4,"gmtOffset":-4,"timeZoneId":"America/La_Paz"},"lat":-16.3,"lng":-68.53333,"population":2597},{"id":3913985,"name":"Yumani","timezone":{"dstOffset":-4,"gmtOffset":-4,"timeZoneId":"America/La_Paz"},"lat":-16.03574,"lng":-69.14843,"population":2500},{"id":3904809,"name":"Santa Rita","timezone":{"dstOffset":-4,"gmtOffset":-4,"timeZoneId":"America/La_Paz"},"lat":-17.96667,"lng":-63.35,"population":2444},{"id":3904956,"name":"Santa Bárbara","timezone":{"dstOffset":-4,"gmtOffset":-4,"timeZoneId":"America/La_Paz"},"lat":-20.91667,"lng":-66.05,"population":2434},{"id":3903391,"name":"Tarabuco","timezone":{"dstOffset":-4,"gmtOffset":-4,"timeZoneId":"America/La_Paz"},"lat":-19.18168,"lng":-64.91517,"population":2428},{"id":3924668,"name":"Abapó","timezone":{"dstOffset":-4,"gmtOffset":-4,"timeZoneId":"America/La_Paz"},"lat":-18.88279,"lng":-63.38026,"population":2419},{"id":3906765,"name":"Quime","timezone":{"dstOffset":-4,"gmtOffset":-4,"timeZoneId":"America/La_Paz"},"lat":-16.98333,"lng":-67.21667,"population":2404},{"id":3902685,"name":"Eucaliptus","timezone":{"dstOffset":-4,"gmtOffset":-4,"timeZoneId":"America/La_Paz"},"lat":-17.58333,"lng":-67.51667,"population":2373},{"id":3919085,"name":"Coroico","timezone":{"dstOffset":-4,"gmtOffset":-4,"timeZoneId":"America/La_Paz"},"lat":-16.19386,"lng":-67.72998,"population":2361},{"id":3924105,"name":"Amarete","timezone":{"dstOffset":-4,"gmtOffset":-4,"timeZoneId":"America/La_Paz"},"lat":-15.23333,"lng":-68.96667,"population":2203},{"id":3908263,"name":"Paurito","timezone":{"dstOffset":-4,"gmtOffset":-4,"timeZoneId":"America/La_Paz"},"lat":-17.88333,"lng":-62.96667,"population":2191},{"id":3904043,"name":"Sorata","timezone":{"dstOffset":-4,"gmtOffset":-4,"timeZoneId":"America/La_Paz"},"lat":-15.76667,"lng":-68.63333,"population":2190},{"id":3919097,"name":"Coripata","timezone":{"dstOffset":-4,"gmtOffset":-4,"timeZoneId":"America/La_Paz"},"lat":-16.3,"lng":-67.6,"population":2107},{"id":3910971,"name":"Machacamarca","timezone":{"dstOffset":-4,"gmtOffset":-4,"timeZoneId":"America/La_Paz"},"lat":-18.17251,"lng":-67.02099,"population":2044},{"id":3901485,"name":"Viloco","timezone":{"dstOffset":-4,"gmtOffset":-4,"timeZoneId":"America/La_Paz"},"lat":-16.95,"lng":-67.55,"population":1900},{"id":3923570,"name":"Atocha","timezone":{"dstOffset":-4,"gmtOffset":-4,"timeZoneId":"America/La_Paz"},"lat":-20.93515,"lng":-66.22139,"population":1833},{"id":3907685,"name":"Poopó","timezone":{"dstOffset":-4,"gmtOffset":-4,"timeZoneId":"America/La_Paz"},"lat":-18.38026,"lng":-66.96695,"population":1720},{"id":3919720,"name":"Colquechaca","timezone":{"dstOffset":-4,"gmtOffset":-4,"timeZoneId":"America/La_Paz"},"lat":-18.70031,"lng":-66.00397,"population":1706},{"id":3902504,"name":"Totoral","timezone":{"dstOffset":-4,"gmtOffset":-4,"timeZoneId":"America/La_Paz"},"lat":-18.49587,"lng":-66.8738,"population":1645},{"id":3914763,"name":"Huarina","timezone":{"dstOffset":-4,"gmtOffset":-4,"timeZoneId":"America/La_Paz"},"lat":-16.2,"lng":-68.63333,"population":1616},{"id":3918611,"name":"Curahuara de Carangas","timezone":{"dstOffset":-4,"gmtOffset":-4,"timeZoneId":"America/La_Paz"},"lat":-17.86667,"lng":-68.43333,"population":1613},{"id":3902523,"name":"Totora","timezone":{"dstOffset":-4,"gmtOffset":-4,"timeZoneId":"America/La_Paz"},"lat":-17.72662,"lng":-65.1932,"population":1597},{"id":3919886,"name":"Colchani","timezone":{"dstOffset":-4,"gmtOffset":-4,"timeZoneId":"America/La_Paz"},"lat":-17.31667,"lng":-66.71667,"population":1074},{"id":3901147,"name":"Yamparáez","timezone":{"dstOffset":-4,"gmtOffset":-4,"timeZoneId":"America/La_Paz"},"lat":-19.18929,"lng":-65.12329,"population":0},{"id":3901519,"name":"Villa Serrano","timezone":{"dstOffset":-4,"gmtOffset":-4,"timeZoneId":"America/La_Paz"},"lat":-19.12489,"lng":-64.32343,"population":0},{"id":3901539,"name":"Yotala","timezone":{"dstOffset":-4,"gmtOffset":-4,"timeZoneId":"America/La_Paz"},"lat":-19.15861,"lng":-65.26417,"population":0},{"id":3902668,"name":"Tomina","timezone":{"dstOffset":-4,"gmtOffset":-4,"timeZoneId":"America/La_Paz"},"lat":-19.18333,"lng":-64.53333,"population":0},{"id":3904020,"name":"Sotomayor","timezone":{"dstOffset":-4,"gmtOffset":-4,"timeZoneId":"America/La_Paz"},"lat":-19.34,"lng":-64.99917,"population":0},{"id":3904599,"name":"Sapirangui","timezone":{"dstOffset":-4,"gmtOffset":-4,"timeZoneId":"America/La_Paz"},"lat":-19.93333,"lng":-63.78333,"population":0},{"id":3904890,"name":"Santa Elena","timezone":{"dstOffset":-4,"gmtOffset":-4,"timeZoneId":"America/La_Paz"},"lat":-20.55,"lng":-64.78333,"population":0},{"id":3905151,"name":"San Pedro","timezone":{"dstOffset":-4,"gmtOffset":-4,"timeZoneId":"America/La_Paz"},"lat":-19.61667,"lng":-64.5,"population":0},{"id":3905498,"name":"San Juan","timezone":{"dstOffset":-4,"gmtOffset":-4,"timeZoneId":"America/La_Paz"},"lat":-21.26667,"lng":-65.3,"population":0},{"id":3905705,"name":"San Francisco","timezone":{"dstOffset":-4,"gmtOffset":-4,"timeZoneId":"America/La_Paz"},"lat":-20.71667,"lng":-64.7,"population":0},{"id":3906025,"name":"Salitre","timezone":{"dstOffset":-4,"gmtOffset":-4,"timeZoneId":"America/La_Paz"},"lat":-20.88333,"lng":-64.91667,"population":0},{"id":3906265,"name":"Rosario del Ingre","timezone":{"dstOffset":-4,"gmtOffset":-4,"timeZoneId":"America/La_Paz"},"lat":-20.58333,"lng":-63.9,"population":0},{"id":3907106,"name":"Pulqui","timezone":{"dstOffset":-4,"gmtOffset":-4,"timeZoneId":"America/La_Paz"},"lat":-19.23333,"lng":-65.21667,"population":0},{"id":3907484,"name":"Presto","timezone":{"dstOffset":-4,"gmtOffset":-4,"timeZoneId":"America/La_Paz"},"lat":-18.92944,"lng":-64.93917,"population":0},{"id":3907589,"name":"Potolo","timezone":{"dstOffset":-4,"gmtOffset":-4,"timeZoneId":"America/La_Paz"},"lat":-19.00556,"lng":-65.52861,"population":0},{"id":3907753,"name":"Pocpo","timezone":{"dstOffset":-4,"gmtOffset":-4,"timeZoneId":"America/La_Paz"},"lat":-18.83333,"lng":-65.36667,"population":0},{"id":3907892,"name":"Piocera","timezone":{"dstOffset":-4,"gmtOffset":-4,"timeZoneId":"America/La_Paz"},"lat":-18.75,"lng":-65.4,"population":0},{"id":3907954,"name":"Pilaya","timezone":{"dstOffset":-4,"gmtOffset":-4,"timeZoneId":"America/La_Paz"},"lat":-20.95,"lng":-64.75,"population":0},{"id":3910203,"name":"Mojotoro","timezone":{"dstOffset":-4,"gmtOffset":-4,"timeZoneId":"America/La_Paz"},"lat":-18.91667,"lng":-65.06667,"population":0},{"id":3910244,"name":"Mojocoya","timezone":{"dstOffset":-4,"gmtOffset":-4,"timeZoneId":"America/La_Paz"},"lat":-18.7641,"lng":-64.61978,"population":0},{"id":3910743,"name":"Maragua","timezone":{"dstOffset":-4,"gmtOffset":-4,"timeZoneId":"America/La_Paz"},"lat":-19.04611,"lng":-65.42861,"population":0},{"id":3911484,"name":"Lintaca","timezone":{"dstOffset":-4,"gmtOffset":-4,"timeZoneId":"America/La_Paz"},"lat":-20.76667,"lng":-65.33333,"population":0},{"id":3911814,"name":"Las Carreras","timezone":{"dstOffset":-4,"gmtOffset":-4,"timeZoneId":"America/La_Paz"},"lat":-21.25,"lng":-65.28333,"population":0},{"id":3911815,"name":"Las Carreras","timezone":{"dstOffset":-4,"gmtOffset":-4,"timeZoneId":"America/La_Paz"},"lat":-21.2084,"lng":-65.20988,"population":0},{"id":3912300,"name":"La Cueva","timezone":{"dstOffset":-4,"gmtOffset":-4,"timeZoneId":"America/La_Paz"},"lat":-20.93333,"lng":-64.9,"population":0},{"id":3914641,"name":"Huayllas","timezone":{"dstOffset":-4,"gmtOffset":-4,"timeZoneId":"America/La_Paz"},"lat":-19.16972,"lng":-65.32611,"population":0},{"id":3914720,"name":"Huata","timezone":{"dstOffset":-4,"gmtOffset":-4,"timeZoneId":"America/La_Paz"},"lat":-19.01667,"lng":-65.25,"population":0},{"id":3914988,"name":"Huajlaya","timezone":{"dstOffset":-4,"gmtOffset":-4,"timeZoneId":"America/La_Paz"},"lat":-20.6,"lng":-64.55,"population":0},{"id":3915436,"name":"Guanay","timezone":{"dstOffset":-4,"gmtOffset":-4,"timeZoneId":"America/La_Paz"},"lat":-15.49756,"lng":-67.88332,"population":0},{"id":3918678,"name":"Culpina","timezone":{"dstOffset":-4,"gmtOffset":-4,"timeZoneId":"America/La_Paz"},"lat":-20.82358,"lng":-64.94492,"population":0},{"id":3661530,"name":"Nueva Manoa","timezone":{"dstOffset":-4,"gmtOffset":-4,"timeZoneId":"America/La_Paz"},"lat":-9.71828,"lng":-65.39544,"population":0},{"id":3920185,"name":"Chuqui Chuqui","timezone":{"dstOffset":-4,"gmtOffset":-4,"timeZoneId":"America/La_Paz"},"lat":-18.81667,"lng":-65.06667,"population":0},{"id":3921062,"name":"Chaunaca","timezone":{"dstOffset":-4,"gmtOffset":-4,"timeZoneId":"America/La_Paz"},"lat":-19.01667,"lng":-65.46667,"population":0},{"id":3922032,"name":"Carandayti","timezone":{"dstOffset":-4,"gmtOffset":-4,"timeZoneId":"America/La_Paz"},"lat":-20.75,"lng":-63.06667,"population":0},{"id":3922441,"name":"Camatindi","timezone":{"dstOffset":-4,"gmtOffset":-4,"timeZoneId":"America/La_Paz"},"lat":-20.98333,"lng":-63.43333,"population":0},{"id":3923438,"name":"Azurduy","timezone":{"dstOffset":-4,"gmtOffset":-4,"timeZoneId":"America/La_Paz"},"lat":-20.10613,"lng":-64.41398,"population":0},{"id":8354631,"name":"Cruz de Machacamarca","timezone":{"dstOffset":-4,"gmtOffset":-4,"timeZoneId":"America/La_Paz"},"lat":-18.88395,"lng":-68.41989,"population":0},{"id":9165781,"name":"Yacuíba","timezone":{"dstOffset":-4,"gmtOffset":-4,"timeZoneId":"America/La_Paz"},"lat":-22.01528,"lng":-65,"population":0}]