[{"id":1252416,"name":"Thimphu","timezone":{"dstOffset":6,"gmtOffset":6,"timeZoneId":"Asia/Thimphu"},"lat":27.46609,"lng":89.64191,"population":98676},{"id":1252479,"name":"Punakha","timezone":{"dstOffset":6,"gmtOffset":6,"timeZoneId":"Asia/Thimphu"},"lat":27.59137,"lng":89.87743,"population":21500},{"id":1252608,"name":"Tsirang","timezone":{"dstOffset":6,"gmtOffset":6,"timeZoneId":"Asia/Thimphu"},"lat":27.0219,"lng":90.12291,"population":18667},{"id":1252484,"name":"Phuntsholing","timezone":{"dstOffset":6,"gmtOffset":6,"timeZoneId":"Asia/Thimphu"},"lat":26.85164,"lng":89.38837,"population":17043},{"id":1337379,"name":"Pemagatshel","timezone":{"dstOffset":6,"gmtOffset":6,"timeZoneId":"Asia/Thimphu"},"lat":27.03795,"lng":91.40305,"population":13864},{"id":1252460,"name":"Sarpang","timezone":{"dstOffset":6,"gmtOffset":6,"timeZoneId":"Asia/Thimphu"},"lat":26.86395,"lng":90.26745,"population":10416},{"id":1252395,"name":"Wangdue Phodrang","timezone":{"dstOffset":6,"gmtOffset":6,"timeZoneId":"Asia/Thimphu"},"lat":27.48615,"lng":89.89915,"population":7507},{"id":1337388,"name":"Samdrup Jongkhar","timezone":{"dstOffset":6,"gmtOffset":6,"timeZoneId":"Asia/Thimphu"},"lat":26.80069,"lng":91.50519,"population":7507},{"id":1337360,"name":"Samtse","timezone":{"dstOffset":6,"gmtOffset":6,"timeZoneId":"Asia/Thimphu"},"lat":26.89903,"lng":89.09951,"population":5479},{"id":1337301,"name":"Jakar","timezone":{"dstOffset":6,"gmtOffset":6,"timeZoneId":"Asia/Thimphu"},"lat":27.54918,"lng":90.7525,"population":4829},{"id":1252495,"name":"Pajo","timezone":{"dstOffset":6,"gmtOffset":6,"timeZoneId":"Asia/Thimphu"},"lat":27.53333,"lng":89.88333,"population":3032},{"id":1252422,"name":"Trashi Yangtse","timezone":{"dstOffset":6,"gmtOffset":6,"timeZoneId":"Asia/Thimphu"},"lat":27.6116,"lng":91.498,"population":3025},{"id":1252514,"name":"Mongar","timezone":{"dstOffset":6,"gmtOffset":6,"timeZoneId":"Asia/Thimphu"},"lat":27.27471,"lng":91.23963,"population":2969},{"id":1252610,"name":"Tsimasham","timezone":{"dstOffset":6,"gmtOffset":6,"timeZoneId":"Asia/Thimphu"},"lat":27.0989,"lng":89.53604,"population":2855},{"id":1252408,"name":"Trongsa","timezone":{"dstOffset":6,"gmtOffset":6,"timeZoneId":"Asia/Thimphu"},"lat":27.5026,"lng":90.50716,"population":2805},{"id":1252433,"name":"Daga","timezone":{"dstOffset":6,"gmtOffset":6,"timeZoneId":"Asia/Thimphu"},"lat":27.07529,"lng":89.87688,"population":2243},{"id":1252490,"name":"Paro","timezone":{"dstOffset":6,"gmtOffset":6,"timeZoneId":"Asia/Thimphu"},"lat":27.4305,"lng":89.41334,"population":2169},{"id":1252601,"name":"Daphu","timezone":{"dstOffset":6,"gmtOffset":6,"timeZoneId":"Asia/Thimphu"},"lat":26.96667,"lng":89.38333,"population":1666},{"id":1252563,"name":"Ha","timezone":{"dstOffset":6,"gmtOffset":6,"timeZoneId":"Asia/Thimphu"},"lat":27.38747,"lng":89.28074,"population":1449},{"id":1337356,"name":"Panbang","timezone":{"dstOffset":6,"gmtOffset":6,"timeZoneId":"Asia/Thimphu"},"lat":26.86667,"lng":90.98333,"population":1360},{"id":1252423,"name":"Trashigang","timezone":{"dstOffset":6,"gmtOffset":6,"timeZoneId":"Asia/Thimphu"},"lat":27.3331,"lng":91.55424,"population":872},{"id":1252451,"name":"Shemgang","timezone":{"dstOffset":6,"gmtOffset":6,"timeZoneId":"Asia/Thimphu"},"lat":27.21689,"lng":90.65794,"population":852},{"id":1252578,"name":"Gasa","timezone":{"dstOffset":6,"gmtOffset":6,"timeZoneId":"Asia/Thimphu"},"lat":27.90372,"lng":89.72689,"population":548},{"id":1252526,"name":"Lhuentse","timezone":{"dstOffset":6,"gmtOffset":6,"timeZoneId":"Asia/Thimphu"},"lat":27.66787,"lng":91.18393,"population":100},{"id":10172752,"name":"Lungtenzampa","timezone":{"dstOffset":6,"gmtOffset":6,"timeZoneId":"Asia/Thimphu"},"lat":27.46821,"lng":89.64441,"population":0}]