[{"id":3688689,"name":"Bogotá","timezone":{"dstOffset":-5,"gmtOffset":-5,"timeZoneId":"America/Bogota"},"lat":4.60971,"lng":-74.08175,"population":7674366},{"id":3687925,"name":"Santiago de Cali","timezone":{"dstOffset":-5,"gmtOffset":-5,"timeZoneId":"America/Bogota"},"lat":3.43722,"lng":-76.5225,"population":2392877},{"id":3674962,"name":"Medellín","timezone":{"dstOffset":-5,"gmtOffset":-5,"timeZoneId":"America/Bogota"},"lat":6.25184,"lng":-75.56359,"population":1999979},{"id":3689147,"name":"Barranquilla","timezone":{"dstOffset":-5,"gmtOffset":-5,"timeZoneId":"America/Bogota"},"lat":10.96854,"lng":-74.78132,"population":1380425},{"id":3687238,"name":"Cartagena","timezone":{"dstOffset":-5,"gmtOffset":-5,"timeZoneId":"America/Bogota"},"lat":10.39972,"lng":-75.51444,"population":952024},{"id":3685533,"name":"Cúcuta","timezone":{"dstOffset":-5,"gmtOffset":-5,"timeZoneId":"America/Bogota"},"lat":7.89391,"lng":-72.50782,"population":721398},{"id":3688465,"name":"Bucaramanga","timezone":{"dstOffset":-5,"gmtOffset":-5,"timeZoneId":"America/Bogota"},"lat":7.12539,"lng":-73.1198,"population":571820},{"id":3672486,"name":"Pereira","timezone":{"dstOffset":-5,"gmtOffset":-5,"timeZoneId":"America/Bogota"},"lat":4.81333,"lng":-75.69611,"population":440118},{"id":3668605,"name":"Santa Marta","timezone":{"dstOffset":-5,"gmtOffset":-5,"timeZoneId":"America/Bogota"},"lat":11.24079,"lng":-74.19904,"population":431781},{"id":3680656,"name":"Ibagué","timezone":{"dstOffset":-5,"gmtOffset":-5,"timeZoneId":"America/Bogota"},"lat":4.43889,"lng":-75.23222,"population":421685},{"id":3688928,"name":"Bello","timezone":{"dstOffset":-5,"gmtOffset":-5,"timeZoneId":"America/Bogota"},"lat":6.33732,"lng":-75.55795,"population":392939},{"id":3672778,"name":"Pasto","timezone":{"dstOffset":-5,"gmtOffset":-5,"timeZoneId":"America/Bogota"},"lat":1.21361,"lng":-77.28111,"population":382236},{"id":3675443,"name":"Manizales","timezone":{"dstOffset":-5,"gmtOffset":-5,"timeZoneId":"America/Bogota"},"lat":5.06889,"lng":-75.51738,"population":357814},{"id":3673899,"name":"Neiva","timezone":{"dstOffset":-5,"gmtOffset":-5,"timeZoneId":"America/Bogota"},"lat":2.9273,"lng":-75.28188,"population":352855},{"id":3667849,"name":"Soledad","timezone":{"dstOffset":-5,"gmtOffset":-5,"timeZoneId":"America/Bogota"},"lat":10.91843,"lng":-74.76459,"population":342556},{"id":3665900,"name":"Villavicencio","timezone":{"dstOffset":-5,"gmtOffset":-5,"timeZoneId":"America/Bogota"},"lat":4.142,"lng":-73.62664,"population":321717},{"id":3689560,"name":"Armenia","timezone":{"dstOffset":-5,"gmtOffset":-5,"timeZoneId":"America/Bogota"},"lat":4.53389,"lng":-75.68111,"population":315328},{"id":3667905,"name":"Soacha","timezone":{"dstOffset":-5,"gmtOffset":-5,"timeZoneId":"America/Bogota"},"lat":4.57937,"lng":-74.21682,"population":313945},{"id":3666304,"name":"Valledupar","timezone":{"dstOffset":-5,"gmtOffset":-5,"timeZoneId":"America/Bogota"},"lat":10.46314,"lng":-73.25322,"population":308237},{"id":3680450,"name":"Itagüí","timezone":{"dstOffset":-5,"gmtOffset":-5,"timeZoneId":"America/Bogota"},"lat":6.18461,"lng":-75.59913,"population":281853},{"id":3674453,"name":"Montería","timezone":{"dstOffset":-5,"gmtOffset":-5,"timeZoneId":"America/Bogota"},"lat":8.74798,"lng":-75.88143,"population":272420},{"id":3667983,"name":"Sincelejo","timezone":{"dstOffset":-5,"gmtOffset":-5,"timeZoneId":"America/Bogota"},"lat":9.30472,"lng":-75.39778,"population":261187},{"id":3671916,"name":"Popayán","timezone":{"dstOffset":-5,"gmtOffset":-5,"timeZoneId":"America/Bogota"},"lat":2.43823,"lng":-76.61316,"population":258653},{"id":3682385,"name":"Floridablanca","timezone":{"dstOffset":-5,"gmtOffset":-5,"timeZoneId":"America/Bogota"},"lat":7.06222,"lng":-73.08644,"population":252267},{"id":3673164,"name":"Palmira","timezone":{"dstOffset":-5,"gmtOffset":-5,"timeZoneId":"America/Bogota"},"lat":3.53944,"lng":-76.30361,"population":247986},{"id":3688451,"name":"Buenaventura","timezone":{"dstOffset":-5,"gmtOffset":-5,"timeZoneId":"America/Bogota"},"lat":3.8801,"lng":-77.03116,"population":240387},{"id":3689169,"name":"Barrancabermeja","timezone":{"dstOffset":-5,"gmtOffset":-5,"timeZoneId":"America/Bogota"},"lat":7.06528,"lng":-73.85472,"population":191403},{"id":3685095,"name":"Dos Quebradas","timezone":{"dstOffset":-5,"gmtOffset":-5,"timeZoneId":"America/Bogota"},"lat":4.83916,"lng":-75.66726,"population":179583},{"id":3666645,"name":"Tuluá","timezone":{"dstOffset":-5,"gmtOffset":-5,"timeZoneId":"America/Bogota"},"lat":4.08466,"lng":-76.19536,"population":165501},{"id":3682631,"name":"Envigado","timezone":{"dstOffset":-5,"gmtOffset":-5,"timeZoneId":"America/Bogota"},"lat":6.17591,"lng":-75.59174,"population":163007},{"id":3687230,"name":"Cartago","timezone":{"dstOffset":-5,"gmtOffset":-5,"timeZoneId":"America/Bogota"},"lat":4.74639,"lng":-75.91167,"population":134827},{"id":3675657,"name":"Maicao","timezone":{"dstOffset":-5,"gmtOffset":-5,"timeZoneId":"America/Bogota"},"lat":11.38321,"lng":-72.24321,"population":130348},{"id":3682426,"name":"Florencia","timezone":{"dstOffset":-5,"gmtOffset":-5,"timeZoneId":"America/Bogota"},"lat":1.61438,"lng":-75.60623,"population":130337},{"id":3682028,"name":"Girardot City","timezone":{"dstOffset":-5,"gmtOffset":-5,"timeZoneId":"America/Bogota"},"lat":4.30079,"lng":-74.80754,"population":130289},{"id":3667873,"name":"Sogamoso","timezone":{"dstOffset":-5,"gmtOffset":-5,"timeZoneId":"America/Bogota"},"lat":5.71434,"lng":-72.93391,"population":126551},{"id":3688256,"name":"Buga","timezone":{"dstOffset":-5,"gmtOffset":-5,"timeZoneId":"America/Bogota"},"lat":3.90089,"lng":-76.29783,"population":118004},{"id":3666608,"name":"Tunja","timezone":{"dstOffset":-5,"gmtOffset":-5,"timeZoneId":"America/Bogota"},"lat":5.53528,"lng":-73.36778,"population":117479},{"id":3682018,"name":"Girón","timezone":{"dstOffset":-5,"gmtOffset":-5,"timeZoneId":"America/Bogota"},"lat":7.0682,"lng":-73.16981,"population":108466},{"id":3675595,"name":"Malambo","timezone":{"dstOffset":-5,"gmtOffset":-5,"timeZoneId":"America/Bogota"},"lat":10.85953,"lng":-74.77386,"population":101534},{"id":3675692,"name":"Magangué","timezone":{"dstOffset":-5,"gmtOffset":-5,"timeZoneId":"America/Bogota"},"lat":9.24202,"lng":-74.75467,"population":100313},{"id":3682516,"name":"Facatativá","timezone":{"dstOffset":-5,"gmtOffset":-5,"timeZoneId":"America/Bogota"},"lat":4.81367,"lng":-74.35453,"population":94611},{"id":3670745,"name":"Riohacha","timezone":{"dstOffset":-5,"gmtOffset":-5,"timeZoneId":"America/Bogota"},"lat":11.54444,"lng":-72.90722,"population":92431},{"id":3685084,"name":"Duitama","timezone":{"dstOffset":-5,"gmtOffset":-5,"timeZoneId":"America/Bogota"},"lat":5.8245,"lng":-73.03408,"population":92040},{"id":3665542,"name":"Zipaquirá","timezone":{"dstOffset":-5,"gmtOffset":-5,"timeZoneId":"America/Bogota"},"lat":5.02208,"lng":-74.00481,"population":91235},{"id":3682274,"name":"Fusagasuga","timezone":{"dstOffset":-5,"gmtOffset":-5,"timeZoneId":"America/Bogota"},"lat":4.33646,"lng":-74.36378,"population":88820},{"id":3686279,"name":"Ciénaga","timezone":{"dstOffset":-5,"gmtOffset":-5,"timeZoneId":"America/Bogota"},"lat":11.00703,"lng":-74.24765,"population":88311},{"id":3666640,"name":"Tumaco","timezone":{"dstOffset":-5,"gmtOffset":-5,"timeZoneId":"America/Bogota"},"lat":1.79861,"lng":-78.81556,"population":86713},{"id":3689798,"name":"Apartadó","timezone":{"dstOffset":-5,"gmtOffset":-5,"timeZoneId":"America/Bogota"},"lat":7.88299,"lng":-76.62587,"population":86438},{"id":3672328,"name":"Piedecuesta","timezone":{"dstOffset":-5,"gmtOffset":-5,"timeZoneId":"America/Bogota"},"lat":6.98789,"lng":-73.04953,"population":86387},{"id":3674470,"name":"Montelíbano","timezone":{"dstOffset":-5,"gmtOffset":-5,"timeZoneId":"America/Bogota"},"lat":7.97917,"lng":-75.4202,"population":85000},{"id":3673662,"name":"Ocaña","timezone":{"dstOffset":-5,"gmtOffset":-5,"timeZoneId":"America/Bogota"},"lat":8.23773,"lng":-73.35604,"population":83511},{"id":3679277,"name":"La Dorada","timezone":{"dstOffset":-5,"gmtOffset":-5,"timeZoneId":"America/Bogota"},"lat":5.44783,"lng":-74.66311,"population":81950},{"id":3680539,"name":"Ipiales","timezone":{"dstOffset":-5,"gmtOffset":-5,"timeZoneId":"America/Bogota"},"lat":0.83018,"lng":-77.64959,"population":77729},{"id":3671116,"name":"Quibdó","timezone":{"dstOffset":-5,"gmtOffset":-5,"timeZoneId":"America/Bogota"},"lat":5.69472,"lng":-76.66111,"population":75104},{"id":3690465,"name":"Aguachica","timezone":{"dstOffset":-5,"gmtOffset":-5,"timeZoneId":"America/Bogota"},"lat":8.30844,"lng":-73.6166,"population":73360},{"id":3665657,"name":"Yumbo","timezone":{"dstOffset":-5,"gmtOffset":-5,"timeZoneId":"America/Bogota"},"lat":3.58234,"lng":-76.49146,"population":71436},{"id":3689718,"name":"Arauca","timezone":{"dstOffset":-5,"gmtOffset":-5,"timeZoneId":"America/Bogota"},"lat":7.08471,"lng":-70.75908,"population":69264},{"id":3670502,"name":"Sabanalarga","timezone":{"dstOffset":-5,"gmtOffset":-5,"timeZoneId":"America/Bogota"},"lat":10.62962,"lng":-74.92063,"population":68535},{"id":3686561,"name":"Chinchiná","timezone":{"dstOffset":-5,"gmtOffset":-5,"timeZoneId":"America/Bogota"},"lat":4.9825,"lng":-75.60361,"population":68512},{"id":3687952,"name":"Caldas","timezone":{"dstOffset":-5,"gmtOffset":-5,"timeZoneId":"America/Bogota"},"lat":6.09106,"lng":-75.63569,"population":65565},{"id":3665913,"name":"Villa del Rosario","timezone":{"dstOffset":-5,"gmtOffset":-5,"timeZoneId":"America/Bogota"},"lat":7.83389,"lng":-72.47417,"population":64951},{"id":3686675,"name":"Chía","timezone":{"dstOffset":-5,"gmtOffset":-5,"timeZoneId":"America/Bogota"},"lat":4.85876,"lng":-74.05866,"population":64569},{"id":3670730,"name":"Rionegro","timezone":{"dstOffset":-5,"gmtOffset":-5,"timeZoneId":"America/Bogota"},"lat":6.15515,"lng":-75.37371,"population":62291},{"id":3687964,"name":"Calarcá","timezone":{"dstOffset":-5,"gmtOffset":-5,"timeZoneId":"America/Bogota"},"lat":4.52949,"lng":-75.64091,"population":62170},{"id":3665688,"name":"Yopal","timezone":{"dstOffset":-5,"gmtOffset":-5,"timeZoneId":"America/Bogota"},"lat":5.33775,"lng":-72.39586,"population":61029},{"id":3670419,"name":"Sahagún","timezone":{"dstOffset":-5,"gmtOffset":-5,"timeZoneId":"America/Bogota"},"lat":8.94616,"lng":-75.44275,"population":59188},{"id":3682292,"name":"Fundación","timezone":{"dstOffset":-5,"gmtOffset":-5,"timeZoneId":"America/Bogota"},"lat":10.52066,"lng":-74.18504,"population":59175},{"id":3675975,"name":"Los Patios","timezone":{"dstOffset":-5,"gmtOffset":-5,"timeZoneId":"America/Bogota"},"lat":7.83793,"lng":-72.5037,"population":58661},{"id":3670218,"name":"San Andrés","timezone":{"dstOffset":-5,"gmtOffset":-5,"timeZoneId":"America/Bogota"},"lat":12.58472,"lng":-81.70056,"population":58257},{"id":3687025,"name":"Caucasia","timezone":{"dstOffset":-5,"gmtOffset":-5,"timeZoneId":"America/Bogota"},"lat":7.98654,"lng":-75.19349,"population":58034},{"id":3668454,"name":"Santa Rosa de Cabal","timezone":{"dstOffset":-5,"gmtOffset":-5,"timeZoneId":"America/Bogota"},"lat":4.86806,"lng":-75.62139,"population":57928},{"id":3682573,"name":"Espinal","timezone":{"dstOffset":-5,"gmtOffset":-5,"timeZoneId":"America/Bogota"},"lat":4.14924,"lng":-74.88429,"population":56213},{"id":3666577,"name":"Turbaco","timezone":{"dstOffset":-5,"gmtOffset":-5,"timeZoneId":"America/Bogota"},"lat":10.32944,"lng":-75.41137,"population":56171},{"id":3686922,"name":"Cereté","timezone":{"dstOffset":-5,"gmtOffset":-5,"timeZoneId":"America/Bogota"},"lat":8.88479,"lng":-75.79052,"population":55513},{"id":3684917,"name":"El Banco","timezone":{"dstOffset":-5,"gmtOffset":-5,"timeZoneId":"America/Bogota"},"lat":9.00114,"lng":-73.97581,"population":54522},{"id":3682281,"name":"Funza","timezone":{"dstOffset":-5,"gmtOffset":-5,"timeZoneId":"America/Bogota"},"lat":4.71638,"lng":-74.21195,"population":54421},{"id":3672110,"name":"Pitalito","timezone":{"dstOffset":-5,"gmtOffset":-5,"timeZoneId":"America/Bogota"},"lat":1.84966,"lng":-76.04785,"population":53685},{"id":3671315,"name":"Puerto Tejada","timezone":{"dstOffset":-5,"gmtOffset":-5,"timeZoneId":"America/Bogota"},"lat":3.23114,"lng":-76.41668,"population":53674},{"id":3673045,"name":"Pamplona","timezone":{"dstOffset":-5,"gmtOffset":-5,"timeZoneId":"America/Bogota"},"lat":7.37565,"lng":-72.64795,"population":53587},{"id":3792383,"name":"Agustín Codazzi","timezone":{"dstOffset":-5,"gmtOffset":-5,"timeZoneId":"America/Bogota"},"lat":10.03672,"lng":-73.23558,"population":51478},{"id":3666570,"name":"Turbo","timezone":{"dstOffset":-5,"gmtOffset":-5,"timeZoneId":"America/Bogota"},"lat":8.09263,"lng":-76.72822,"population":50508},{"id":3675707,"name":"Madrid","timezone":{"dstOffset":-5,"gmtOffset":-5,"timeZoneId":"America/Bogota"},"lat":4.73244,"lng":-74.26419,"population":50437},{"id":3689570,"name":"Arjona","timezone":{"dstOffset":-5,"gmtOffset":-5,"timeZoneId":"America/Bogota"},"lat":10.25444,"lng":-75.34389,"population":50405},{"id":3679065,"name":"La Estrella","timezone":{"dstOffset":-5,"gmtOffset":-5,"timeZoneId":"America/Bogota"},"lat":6.15769,"lng":-75.64317,"population":49386},{"id":3685949,"name":"Municipio de Copacabana","timezone":{"dstOffset":-5,"gmtOffset":-5,"timeZoneId":"America/Bogota"},"lat":6.34633,"lng":-75.50888,"population":49169},{"id":3792392,"name":"Plato","timezone":{"dstOffset":-5,"gmtOffset":-5,"timeZoneId":"America/Bogota"},"lat":9.79029,"lng":-74.78244,"population":48606},{"id":3686636,"name":"Chigorodó","timezone":{"dstOffset":-5,"gmtOffset":-5,"timeZoneId":"America/Bogota"},"lat":7.66638,"lng":-76.68106,"population":48443},{"id":3684666,"name":"El Carmen de Bolívar","timezone":{"dstOffset":-5,"gmtOffset":-5,"timeZoneId":"America/Bogota"},"lat":9.7174,"lng":-75.12023,"population":47957},{"id":3682393,"name":"Florida","timezone":{"dstOffset":-5,"gmtOffset":-5,"timeZoneId":"America/Bogota"},"lat":3.3223,"lng":-76.2348,"population":47173},{"id":3686513,"name":"Chiquinquirá","timezone":{"dstOffset":-5,"gmtOffset":-5,"timeZoneId":"America/Bogota"},"lat":5.61637,"lng":-73.81748,"population":45294},{"id":3680387,"name":"Jamundí","timezone":{"dstOffset":-5,"gmtOffset":-5,"timeZoneId":"America/Bogota"},"lat":3.26074,"lng":-76.53499,"population":44833},{"id":3671772,"name":"Pradera","timezone":{"dstOffset":-5,"gmtOffset":-5,"timeZoneId":"America/Bogota"},"lat":3.42111,"lng":-76.24472,"population":44630},{"id":3689235,"name":"Baranoa","timezone":{"dstOffset":-5,"gmtOffset":-5,"timeZoneId":"America/Bogota"},"lat":10.79408,"lng":-74.9164,"population":44078},{"id":3668132,"name":"Sevilla","timezone":{"dstOffset":-5,"gmtOffset":-5,"timeZoneId":"America/Bogota"},"lat":4.26425,"lng":-75.93085,"population":41612},{"id":3668572,"name":"Santander de Quilichao","timezone":{"dstOffset":-5,"gmtOffset":-5,"timeZoneId":"America/Bogota"},"lat":3.00945,"lng":-76.48494,"population":40798},{"id":3684945,"name":"El Bagre","timezone":{"dstOffset":-5,"gmtOffset":-5,"timeZoneId":"America/Bogota"},"lat":7.60347,"lng":-74.80951,"population":40798},{"id":3690577,"name":"Acacías","timezone":{"dstOffset":-5,"gmtOffset":-5,"timeZoneId":"America/Bogota"},"lat":3.98695,"lng":-73.75797,"population":40627},{"id":3676397,"name":"Lorica","timezone":{"dstOffset":-5,"gmtOffset":-5,"timeZoneId":"America/Bogota"},"lat":9.23648,"lng":-75.8135,"population":40605},{"id":3668175,"name":"Segovia","timezone":{"dstOffset":-5,"gmtOffset":-5,"timeZoneId":"America/Bogota"},"lat":7.07993,"lng":-74.6989,"population":39938},{"id":3685823,"name":"Corozal","timezone":{"dstOffset":-5,"gmtOffset":-5,"timeZoneId":"America/Bogota"},"lat":9.31505,"lng":-75.29283,"population":39800},{"id":3684615,"name":"El Cerrito","timezone":{"dstOffset":-5,"gmtOffset":-5,"timeZoneId":"America/Bogota"},"lat":3.68549,"lng":-76.31372,"population":38390},{"id":3672068,"name":"Planeta Rica","timezone":{"dstOffset":-5,"gmtOffset":-5,"timeZoneId":"America/Bogota"},"lat":8.4115,"lng":-75.58508,"population":37297},{"id":3679554,"name":"La Ceja","timezone":{"dstOffset":-5,"gmtOffset":-5,"timeZoneId":"America/Bogota"},"lat":6.03131,"lng":-75.43333,"population":36584},{"id":3669346,"name":"San Marcos","timezone":{"dstOffset":-5,"gmtOffset":-5,"timeZoneId":"America/Bogota"},"lat":8.65972,"lng":-75.12809,"population":36549},{"id":3674463,"name":"Montenegro","timezone":{"dstOffset":-5,"gmtOffset":-5,"timeZoneId":"America/Bogota"},"lat":4.56639,"lng":-75.75111,"population":36499},{"id":3665973,"name":"Villamaría","timezone":{"dstOffset":-5,"gmtOffset":-5,"timeZoneId":"America/Bogota"},"lat":5.04492,"lng":-75.5146,"population":35302},{"id":3670475,"name":"Sabaneta","timezone":{"dstOffset":-5,"gmtOffset":-5,"timeZoneId":"America/Bogota"},"lat":6.15154,"lng":-75.61658,"population":34172},{"id":3671540,"name":"Puerto Berrío","timezone":{"dstOffset":-5,"gmtOffset":-5,"timeZoneId":"America/Bogota"},"lat":6.49156,"lng":-74.40326,"population":33983},{"id":3676720,"name":"La Virginia","timezone":{"dstOffset":-5,"gmtOffset":-5,"timeZoneId":"America/Bogota"},"lat":4.89972,"lng":-75.8825,"population":33835},{"id":3669808,"name":"San Gil","timezone":{"dstOffset":-5,"gmtOffset":-5,"timeZoneId":"America/Bogota"},"lat":6.55952,"lng":-73.13637,"population":33592},{"id":3672093,"name":"Pivijay","timezone":{"dstOffset":-5,"gmtOffset":-5,"timeZoneId":"America/Bogota"},"lat":10.46168,"lng":-74.61621,"population":33492},{"id":3669218,"name":"San Onofre","timezone":{"dstOffset":-5,"gmtOffset":-5,"timeZoneId":"America/Bogota"},"lat":9.73586,"lng":-75.52626,"population":32957},{"id":3688071,"name":"Caicedonia","timezone":{"dstOffset":-5,"gmtOffset":-5,"timeZoneId":"America/Bogota"},"lat":4.3324,"lng":-75.82665,"population":32417},{"id":3681957,"name":"Granada","timezone":{"dstOffset":-5,"gmtOffset":-5,"timeZoneId":"America/Bogota"},"lat":3.54625,"lng":-73.70687,"population":32365},{"id":3673398,"name":"Belalcazar","timezone":{"dstOffset":-5,"gmtOffset":-5,"timeZoneId":"America/Bogota"},"lat":2.65472,"lng":-75.99278,"population":31800},{"id":3671098,"name":"Quimbaya","timezone":{"dstOffset":-5,"gmtOffset":-5,"timeZoneId":"America/Bogota"},"lat":4.62306,"lng":-75.76278,"population":31391},{"id":3674597,"name":"Mompós","timezone":{"dstOffset":-5,"gmtOffset":-5,"timeZoneId":"America/Bogota"},"lat":9.24194,"lng":-74.42667,"population":30861},{"id":3667991,"name":"Sincé","timezone":{"dstOffset":-5,"gmtOffset":-5,"timeZoneId":"America/Bogota"},"lat":9.24391,"lng":-75.14675,"population":30768},{"id":3671549,"name":"Puerto Asís","timezone":{"dstOffset":-5,"gmtOffset":-5,"timeZoneId":"America/Bogota"},"lat":0.51328,"lng":-76.50075,"population":29782},{"id":3676623,"name":"Leticia","timezone":{"dstOffset":-5,"gmtOffset":-5,"timeZoneId":"America/Bogota"},"lat":-4.21528,"lng":-69.94056,"population":29666},{"id":3669454,"name":"San Juan Nepomuceno","timezone":{"dstOffset":-5,"gmtOffset":-5,"timeZoneId":"America/Bogota"},"lat":9.95156,"lng":-75.08198,"population":29619},{"id":3770718,"name":"Morales","timezone":{"dstOffset":-5,"gmtOffset":-5,"timeZoneId":"America/Bogota"},"lat":2.75701,"lng":-76.61723,"population":29617},{"id":3682108,"name":"Garzón","timezone":{"dstOffset":-5,"gmtOffset":-5,"timeZoneId":"America/Bogota"},"lat":2.19593,"lng":-75.62777,"population":29451},{"id":3667478,"name":"Tame","timezone":{"dstOffset":-5,"gmtOffset":-5,"timeZoneId":"America/Bogota"},"lat":6.46065,"lng":-71.73618,"population":29099},{"id":3665559,"name":"Zarzal","timezone":{"dstOffset":-5,"gmtOffset":-5,"timeZoneId":"America/Bogota"},"lat":4.39462,"lng":-76.0715,"population":28761},{"id":3684579,"name":"El Charco","timezone":{"dstOffset":-5,"gmtOffset":-5,"timeZoneId":"America/Bogota"},"lat":2.47691,"lng":-78.11049,"population":28673},{"id":3676604,"name":"Líbano","timezone":{"dstOffset":-5,"gmtOffset":-5,"timeZoneId":"America/Bogota"},"lat":4.9218,"lng":-75.06232,"population":28211},{"id":3680840,"name":"Honda","timezone":{"dstOffset":-5,"gmtOffset":-5,"timeZoneId":"America/Bogota"},"lat":5.20856,"lng":-74.73584,"population":28158},{"id":3673220,"name":"Palmar de Varela","timezone":{"dstOffset":-5,"gmtOffset":-5,"timeZoneId":"America/Bogota"},"lat":10.74055,"lng":-74.75443,"population":28084},{"id":3689759,"name":"Aracataca","timezone":{"dstOffset":-5,"gmtOffset":-5,"timeZoneId":"America/Bogota"},"lat":10.59181,"lng":-74.18983,"population":27704},{"id":3670644,"name":"Roldanillo","timezone":{"dstOffset":-5,"gmtOffset":-5,"timeZoneId":"America/Bogota"},"lat":4.41256,"lng":-76.15457,"population":27561},{"id":3666939,"name":"Tolú","timezone":{"dstOffset":-5,"gmtOffset":-5,"timeZoneId":"America/Bogota"},"lat":9.52392,"lng":-75.58139,"population":27390},{"id":3671531,"name":"Puerto Boyacá","timezone":{"dstOffset":-5,"gmtOffset":-5,"timeZoneId":"America/Bogota"},"lat":5.97584,"lng":-74.58846,"population":27310},{"id":3677010,"name":"La Tebaida","timezone":{"dstOffset":-5,"gmtOffset":-5,"timeZoneId":"America/Bogota"},"lat":4.45265,"lng":-75.78746,"population":27098},{"id":3674292,"name":"Mosquera","timezone":{"dstOffset":-5,"gmtOffset":-5,"timeZoneId":"America/Bogota"},"lat":4.70592,"lng":-74.23021,"population":27005},{"id":3669469,"name":"San Juan del Cesar","timezone":{"dstOffset":-5,"gmtOffset":-5,"timeZoneId":"America/Bogota"},"lat":10.77108,"lng":-73.00314,"population":26848},{"id":3678405,"name":"La Mesa","timezone":{"dstOffset":-5,"gmtOffset":-5,"timeZoneId":"America/Bogota"},"lat":5.26667,"lng":-73.91667,"population":26699},{"id":3689589,"name":"Ariguaní","timezone":{"dstOffset":-5,"gmtOffset":-5,"timeZoneId":"America/Bogota"},"lat":10.25,"lng":-74,"population":26246},{"id":3667158,"name":"Tierralta","timezone":{"dstOffset":-5,"gmtOffset":-5,"timeZoneId":"America/Bogota"},"lat":8.17361,"lng":-76.05917,"population":26242},{"id":3671497,"name":"Puerto Colombia","timezone":{"dstOffset":-5,"gmtOffset":-5,"timeZoneId":"America/Bogota"},"lat":10.98778,"lng":-74.95472,"population":26227},{"id":3674885,"name":"Melgar","timezone":{"dstOffset":-5,"gmtOffset":-5,"timeZoneId":"America/Bogota"},"lat":4.20475,"lng":-74.64075,"population":25980},{"id":3668332,"name":"Santo Tomás","timezone":{"dstOffset":-5,"gmtOffset":-5,"timeZoneId":"America/Bogota"},"lat":10.75773,"lng":-74.75451,"population":25847},{"id":3689833,"name":"Anserma","timezone":{"dstOffset":-5,"gmtOffset":-5,"timeZoneId":"America/Bogota"},"lat":5.33278,"lng":-75.79111,"population":25242},{"id":3688006,"name":"Cajicá","timezone":{"dstOffset":-5,"gmtOffset":-5,"timeZoneId":"America/Bogota"},"lat":4.91857,"lng":-74.02799,"population":24999},{"id":3670513,"name":"Sabanagrande","timezone":{"dstOffset":-5,"gmtOffset":-5,"timeZoneId":"America/Bogota"},"lat":10.79115,"lng":-74.76059,"population":24880},{"id":3688452,"name":"Buenaventura","timezone":{"dstOffset":-5,"gmtOffset":-5,"timeZoneId":"America/Bogota"},"lat":3.58333,"lng":-77,"population":24842},{"id":3669997,"name":"San Carlos","timezone":{"dstOffset":-5,"gmtOffset":-5,"timeZoneId":"America/Bogota"},"lat":8.79577,"lng":-75.69947,"population":24615},{"id":3675263,"name":"Marinilla","timezone":{"dstOffset":-5,"gmtOffset":-5,"timeZoneId":"America/Bogota"},"lat":6.17358,"lng":-75.33621,"population":24171},{"id":3687644,"name":"Candelaria","timezone":{"dstOffset":-5,"gmtOffset":-5,"timeZoneId":"America/Bogota"},"lat":3.40671,"lng":-76.34819,"population":23989},{"id":3682374,"name":"Fonseca","timezone":{"dstOffset":-5,"gmtOffset":-5,"timeZoneId":"America/Bogota"},"lat":10.88606,"lng":-72.8487,"population":23509},{"id":3676928,"name":"La Unión","timezone":{"dstOffset":-5,"gmtOffset":-5,"timeZoneId":"America/Bogota"},"lat":4.53282,"lng":-76.10318,"population":23459},{"id":3675287,"name":"María la Baja","timezone":{"dstOffset":-5,"gmtOffset":-5,"timeZoneId":"America/Bogota"},"lat":9.9832,"lng":-75.30155,"population":23401},{"id":3667728,"name":"Sucre","timezone":{"dstOffset":-5,"gmtOffset":-5,"timeZoneId":"America/Bogota"},"lat":8.81136,"lng":-74.72084,"population":23210},{"id":3668087,"name":"Sibaté","timezone":{"dstOffset":-5,"gmtOffset":-5,"timeZoneId":"America/Bogota"},"lat":4.48425,"lng":-74.24499,"population":23208},{"id":3675252,"name":"Mariquita","timezone":{"dstOffset":-5,"gmtOffset":-5,"timeZoneId":"America/Bogota"},"lat":5.19889,"lng":-74.89295,"population":23104},{"id":3687758,"name":"Campo de la Cruz","timezone":{"dstOffset":-5,"gmtOffset":-5,"timeZoneId":"America/Bogota"},"lat":10.37808,"lng":-74.88356,"population":22803},{"id":3669998,"name":"San Carlos","timezone":{"dstOffset":-5,"gmtOffset":-5,"timeZoneId":"America/Bogota"},"lat":7.79177,"lng":-74.77316,"population":22678},{"id":3689381,"name":"Ayapel","timezone":{"dstOffset":-5,"gmtOffset":-5,"timeZoneId":"America/Bogota"},"lat":8.31372,"lng":-75.13982,"population":22602},{"id":3687806,"name":"Campoalegre","timezone":{"dstOffset":-5,"gmtOffset":-5,"timeZoneId":"America/Bogota"},"lat":2.68489,"lng":-75.32311,"population":22568},{"id":3665741,"name":"Yarumal","timezone":{"dstOffset":-5,"gmtOffset":-5,"timeZoneId":"America/Bogota"},"lat":6.96321,"lng":-75.41738,"population":22368},{"id":3828545,"name":"San José del Guaviare","timezone":{"dstOffset":-5,"gmtOffset":-5,"timeZoneId":"America/Bogota"},"lat":2.57286,"lng":-72.64591,"population":22136},{"id":3685335,"name":"Curumaní","timezone":{"dstOffset":-5,"gmtOffset":-5,"timeZoneId":"America/Bogota"},"lat":9.19992,"lng":-73.54274,"population":22084},{"id":3674654,"name":"Mocoa","timezone":{"dstOffset":-5,"gmtOffset":-5,"timeZoneId":"America/Bogota"},"lat":1.14933,"lng":-76.64661,"population":22035},{"id":3670280,"name":"Sampués","timezone":{"dstOffset":-5,"gmtOffset":-5,"timeZoneId":"America/Bogota"},"lat":9.18361,"lng":-75.38167,"population":21204},{"id":3687318,"name":"Carmen de Viboral","timezone":{"dstOffset":-5,"gmtOffset":-5,"timeZoneId":"America/Bogota"},"lat":6.08236,"lng":-75.33509,"population":21152},{"id":3682458,"name":"Flandes","timezone":{"dstOffset":-5,"gmtOffset":-5,"timeZoneId":"America/Bogota"},"lat":4.29005,"lng":-74.81612,"population":20919},{"id":3672761,"name":"Patía","timezone":{"dstOffset":-5,"gmtOffset":-5,"timeZoneId":"America/Bogota"},"lat":2.06895,"lng":-77.05273,"population":20807},{"id":3665895,"name":"Villeta","timezone":{"dstOffset":-5,"gmtOffset":-5,"timeZoneId":"America/Bogota"},"lat":5.00886,"lng":-74.47226,"population":20689},{"id":3792375,"name":"Carepa","timezone":{"dstOffset":-5,"gmtOffset":-5,"timeZoneId":"America/Bogota"},"lat":7.75849,"lng":-76.65254,"population":20627},{"id":3666519,"name":"Ubaté","timezone":{"dstOffset":-5,"gmtOffset":-5,"timeZoneId":"America/Bogota"},"lat":5.30933,"lng":-73.81574,"population":20485},{"id":3674412,"name":"Morales","timezone":{"dstOffset":-5,"gmtOffset":-5,"timeZoneId":"America/Bogota"},"lat":8.2752,"lng":-73.86884,"population":20375},{"id":3689206,"name":"Barbosa","timezone":{"dstOffset":-5,"gmtOffset":-5,"timeZoneId":"America/Bogota"},"lat":5.93168,"lng":-73.61506,"population":20372},{"id":3669736,"name":"San Jacinto","timezone":{"dstOffset":-5,"gmtOffset":-5,"timeZoneId":"America/Bogota"},"lat":9.82767,"lng":-75.1217,"population":20265},{"id":3666582,"name":"Túquerres","timezone":{"dstOffset":-5,"gmtOffset":-5,"timeZoneId":"America/Bogota"},"lat":1.08878,"lng":-77.6183,"population":20184},{"id":3686233,"name":"Circasia","timezone":{"dstOffset":-5,"gmtOffset":-5,"timeZoneId":"America/Bogota"},"lat":4.61889,"lng":-75.63583,"population":20113},{"id":3676626,"name":"Lérida","timezone":{"dstOffset":-5,"gmtOffset":-5,"timeZoneId":"America/Bogota"},"lat":4.86242,"lng":-74.90977,"population":20069},{"id":3665951,"name":"Villanueva","timezone":{"dstOffset":-5,"gmtOffset":-5,"timeZoneId":"America/Bogota"},"lat":5.28333,"lng":-71.96667,"population":20032},{"id":3686793,"name":"Chaparral","timezone":{"dstOffset":-5,"gmtOffset":-5,"timeZoneId":"America/Bogota"},"lat":3.72315,"lng":-75.48316,"population":19982},{"id":3682238,"name":"Galapa","timezone":{"dstOffset":-5,"gmtOffset":-5,"timeZoneId":"America/Bogota"},"lat":10.89686,"lng":-74.886,"population":19732},{"id":3690431,"name":"Aguadas","timezone":{"dstOffset":-5,"gmtOffset":-5,"timeZoneId":"America/Bogota"},"lat":5.61161,"lng":-75.45624,"population":19727},{"id":3681797,"name":"Guacarí","timezone":{"dstOffset":-5,"gmtOffset":-5,"timeZoneId":"America/Bogota"},"lat":3.76383,"lng":-76.33292,"population":19637},{"id":3686540,"name":"Chinú","timezone":{"dstOffset":-5,"gmtOffset":-5,"timeZoneId":"America/Bogota"},"lat":9.10569,"lng":-75.39812,"population":19596},{"id":3678097,"name":"La Plata","timezone":{"dstOffset":-5,"gmtOffset":-5,"timeZoneId":"America/Bogota"},"lat":2.39341,"lng":-75.89232,"population":19275},{"id":3670719,"name":"Riosucio","timezone":{"dstOffset":-5,"gmtOffset":-5,"timeZoneId":"America/Bogota"},"lat":5.42164,"lng":-75.70318,"population":18950},{"id":3666395,"name":"Urrao","timezone":{"dstOffset":-5,"gmtOffset":-5,"timeZoneId":"America/Bogota"},"lat":6.31696,"lng":-76.1342,"population":18846},{"id":3665566,"name":"Zaragoza","timezone":{"dstOffset":-5,"gmtOffset":-5,"timeZoneId":"America/Bogota"},"lat":7.48971,"lng":-74.86919,"population":18795},{"id":3675605,"name":"Málaga","timezone":{"dstOffset":-5,"gmtOffset":-5,"timeZoneId":"America/Bogota"},"lat":6.69903,"lng":-72.73233,"population":18739},{"id":3665934,"name":"Villanueva","timezone":{"dstOffset":-5,"gmtOffset":-5,"timeZoneId":"America/Bogota"},"lat":10.60528,"lng":-72.98,"population":18699},{"id":3670874,"name":"Repelón","timezone":{"dstOffset":-5,"gmtOffset":-5,"timeZoneId":"America/Bogota"},"lat":10.49194,"lng":-75.12917,"population":18685},{"id":3678674,"name":"La Jagua de Ibirico","timezone":{"dstOffset":-5,"gmtOffset":-5,"timeZoneId":"America/Bogota"},"lat":9.56228,"lng":-73.33405,"population":18555},{"id":3670038,"name":"San Benito Abad","timezone":{"dstOffset":-5,"gmtOffset":-5,"timeZoneId":"America/Bogota"},"lat":8.92901,"lng":-75.02709,"population":18181},{"id":3684452,"name":"El Copey","timezone":{"dstOffset":-5,"gmtOffset":-5,"timeZoneId":"America/Bogota"},"lat":10.15031,"lng":-73.9614,"population":18136},{"id":3670370,"name":"Salamina","timezone":{"dstOffset":-5,"gmtOffset":-5,"timeZoneId":"America/Bogota"},"lat":5.40733,"lng":-75.48749,"population":18076},{"id":3667887,"name":"Socorro","timezone":{"dstOffset":-5,"gmtOffset":-5,"timeZoneId":"America/Bogota"},"lat":6.46838,"lng":-73.26022,"population":17752},{"id":3668323,"name":"Santuario","timezone":{"dstOffset":-5,"gmtOffset":-5,"timeZoneId":"America/Bogota"},"lat":6.13833,"lng":-75.26417,"population":17722},{"id":3682330,"name":"Fresno","timezone":{"dstOffset":-5,"gmtOffset":-5,"timeZoneId":"America/Bogota"},"lat":5.15264,"lng":-75.03624,"population":17668},{"id":3686272,"name":"Ciénaga de Oro","timezone":{"dstOffset":-5,"gmtOffset":-5,"timeZoneId":"America/Bogota"},"lat":8.87443,"lng":-75.62028,"population":17623},{"id":3689905,"name":"Andalucía","timezone":{"dstOffset":-5,"gmtOffset":-5,"timeZoneId":"America/Bogota"},"lat":4.17061,"lng":-76.16641,"population":17432},{"id":3689162,"name":"Barrancas","timezone":{"dstOffset":-5,"gmtOffset":-5,"timeZoneId":"America/Bogota"},"lat":10.95756,"lng":-72.78769,"population":17350},{"id":3667820,"name":"Sonsón","timezone":{"dstOffset":-5,"gmtOffset":-5,"timeZoneId":"America/Bogota"},"lat":5.71062,"lng":-75.31068,"population":17232},{"id":3686585,"name":"Chimichagua","timezone":{"dstOffset":-5,"gmtOffset":-5,"timeZoneId":"America/Bogota"},"lat":9.25778,"lng":-73.81228,"population":16746},{"id":3689205,"name":"Barbosa","timezone":{"dstOffset":-5,"gmtOffset":-5,"timeZoneId":"America/Bogota"},"lat":6.43809,"lng":-75.33136,"population":16707},{"id":3673424,"name":"Pacho","timezone":{"dstOffset":-5,"gmtOffset":-5,"timeZoneId":"America/Bogota"},"lat":5.13278,"lng":-74.15977,"population":16698},{"id":3671418,"name":"Puerto López","timezone":{"dstOffset":-5,"gmtOffset":-5,"timeZoneId":"America/Bogota"},"lat":4.09912,"lng":-72.95647,"population":16678},{"id":3685871,"name":"Corinto","timezone":{"dstOffset":-5,"gmtOffset":-5,"timeZoneId":"America/Bogota"},"lat":3.17301,"lng":-76.26275,"population":16579},{"id":3689899,"name":"Los Andes","timezone":{"dstOffset":-5,"gmtOffset":-5,"timeZoneId":"America/Bogota"},"lat":5.6561,"lng":-75.87877,"population":16419},{"id":3675409,"name":"Manzanares","timezone":{"dstOffset":-5,"gmtOffset":-5,"timeZoneId":"America/Bogota"},"lat":5.32472,"lng":-75.15694,"population":16278},{"id":3671325,"name":"Puerto Santander","timezone":{"dstOffset":-5,"gmtOffset":-5,"timeZoneId":"America/Bogota"},"lat":8.36361,"lng":-72.4063,"population":16275},{"id":3669332,"name":"San Martín","timezone":{"dstOffset":-5,"gmtOffset":-5,"timeZoneId":"America/Bogota"},"lat":3.69637,"lng":-73.69958,"population":16273},{"id":3792376,"name":"Ciudad Bolívar","timezone":{"dstOffset":-5,"gmtOffset":-5,"timeZoneId":"America/Bogota"},"lat":5.85389,"lng":-76.02528,"population":16225},{"id":3683233,"name":"El Retén","timezone":{"dstOffset":-5,"gmtOffset":-5,"timeZoneId":"America/Bogota"},"lat":10.61135,"lng":-74.26824,"population":15901},{"id":3668655,"name":"Santa Lucía","timezone":{"dstOffset":-5,"gmtOffset":-5,"timeZoneId":"America/Bogota"},"lat":10.3242,"lng":-74.96017,"population":15760},{"id":3688989,"name":"Belén de Umbría","timezone":{"dstOffset":-5,"gmtOffset":-5,"timeZoneId":"America/Bogota"},"lat":5.20088,"lng":-75.86865,"population":15698},{"id":3690316,"name":"Aguazul","timezone":{"dstOffset":-5,"gmtOffset":-5,"timeZoneId":"America/Bogota"},"lat":5.17282,"lng":-72.54706,"population":15669},{"id":3665851,"name":"Viterbo","timezone":{"dstOffset":-5,"gmtOffset":-5,"timeZoneId":"America/Bogota"},"lat":5.06242,"lng":-75.87159,"population":15216},{"id":3686479,"name":"Chiriguaná","timezone":{"dstOffset":-5,"gmtOffset":-5,"timeZoneId":"America/Bogota"},"lat":9.36238,"lng":-73.60314,"population":15181},{"id":3676934,"name":"La Unión","timezone":{"dstOffset":-5,"gmtOffset":-5,"timeZoneId":"America/Bogota"},"lat":1.6045,"lng":-77.13152,"population":15061},{"id":3681563,"name":"Guamo","timezone":{"dstOffset":-5,"gmtOffset":-5,"timeZoneId":"America/Bogota"},"lat":4.03078,"lng":-74.9701,"population":14881},{"id":3681702,"name":"Guaduas","timezone":{"dstOffset":-5,"gmtOffset":-5,"timeZoneId":"America/Bogota"},"lat":5.06692,"lng":-74.59499,"population":14392},{"id":3675987,"name":"Los Palmitos","timezone":{"dstOffset":-5,"gmtOffset":-5,"timeZoneId":"America/Bogota"},"lat":9.37899,"lng":-75.26769,"population":14385},{"id":3681429,"name":"Guarne","timezone":{"dstOffset":-5,"gmtOffset":-5,"timeZoneId":"America/Bogota"},"lat":6.28046,"lng":-75.44354,"population":14270},{"id":3675512,"name":"Manatí","timezone":{"dstOffset":-5,"gmtOffset":-5,"timeZoneId":"America/Bogota"},"lat":10.44589,"lng":-74.95869,"population":14140},{"id":3669188,"name":"San Pablo","timezone":{"dstOffset":-5,"gmtOffset":-5,"timeZoneId":"America/Bogota"},"lat":10.05154,"lng":-75.26775,"population":13983},{"id":3668937,"name":"Santa Ana","timezone":{"dstOffset":-5,"gmtOffset":-5,"timeZoneId":"America/Bogota"},"lat":9.32125,"lng":-74.56848,"population":13950},{"id":3681505,"name":"Guapi","timezone":{"dstOffset":-5,"gmtOffset":-5,"timeZoneId":"America/Bogota"},"lat":2.57082,"lng":-77.88542,"population":13853},{"id":3680453,"name":"Istmina","timezone":{"dstOffset":-5,"gmtOffset":-5,"timeZoneId":"America/Bogota"},"lat":5.16054,"lng":-76.68397,"population":13788},{"id":3666881,"name":"Toro","timezone":{"dstOffset":-5,"gmtOffset":-5,"timeZoneId":"America/Bogota"},"lat":4.61167,"lng":-76.08139,"population":13764},{"id":3829343,"name":"Orito","timezone":{"dstOffset":-5,"gmtOffset":-5,"timeZoneId":"America/Bogota"},"lat":0.67656,"lng":-76.87712,"population":13708},{"id":3671287,"name":"Puerto Wilches","timezone":{"dstOffset":-5,"gmtOffset":-5,"timeZoneId":"America/Bogota"},"lat":7.34828,"lng":-73.89601,"population":13705},{"id":3667202,"name":"Tibú","timezone":{"dstOffset":-5,"gmtOffset":-5,"timeZoneId":"America/Bogota"},"lat":8.63896,"lng":-72.73583,"population":13565},{"id":3673369,"name":"Paipa","timezone":{"dstOffset":-5,"gmtOffset":-5,"timeZoneId":"America/Bogota"},"lat":5.78013,"lng":-73.11708,"population":13554},{"id":3671615,"name":"Puebloviejo","timezone":{"dstOffset":-5,"gmtOffset":-5,"timeZoneId":"America/Bogota"},"lat":10.99376,"lng":-74.28438,"population":13523},{"id":3682682,"name":"El Zulia","timezone":{"dstOffset":-5,"gmtOffset":-5,"timeZoneId":"America/Bogota"},"lat":7.93248,"lng":-72.60125,"population":13521},{"id":3670293,"name":"Samaniego","timezone":{"dstOffset":-5,"gmtOffset":-5,"timeZoneId":"America/Bogota"},"lat":1.3385,"lng":-77.5957,"population":13515},{"id":3673455,"name":"Ovejas","timezone":{"dstOffset":-5,"gmtOffset":-5,"timeZoneId":"America/Bogota"},"lat":9.53248,"lng":-75.22382,"population":13284},{"id":3678186,"name":"La Paz","timezone":{"dstOffset":-5,"gmtOffset":-5,"timeZoneId":"America/Bogota"},"lat":10.38439,"lng":-73.17332,"population":13249},{"id":3675826,"name":"Luruaco","timezone":{"dstOffset":-5,"gmtOffset":-5,"timeZoneId":"America/Bogota"},"lat":10.61712,"lng":-75.15146,"population":13236},{"id":3674702,"name":"Miranda","timezone":{"dstOffset":-5,"gmtOffset":-5,"timeZoneId":"America/Bogota"},"lat":3.24991,"lng":-76.22814,"population":13223},{"id":3684276,"name":"El Doncello","timezone":{"dstOffset":-5,"gmtOffset":-5,"timeZoneId":"America/Bogota"},"lat":1.67817,"lng":-75.28466,"population":13082},{"id":3665935,"name":"Villanueva","timezone":{"dstOffset":-5,"gmtOffset":-5,"timeZoneId":"America/Bogota"},"lat":10.44361,"lng":-75.27306,"population":12791},{"id":3667697,"name":"Supía","timezone":{"dstOffset":-5,"gmtOffset":-5,"timeZoneId":"America/Bogota"},"lat":5.45303,"lng":-75.65072,"population":12784},{"id":3668895,"name":"Santa Bárbara","timezone":{"dstOffset":-5,"gmtOffset":-5,"timeZoneId":"America/Bogota"},"lat":5.87458,"lng":-75.56706,"population":12743},{"id":3669929,"name":"San Estanislao","timezone":{"dstOffset":-5,"gmtOffset":-5,"timeZoneId":"America/Bogota"},"lat":10.39833,"lng":-75.15111,"population":12596},{"id":3688254,"name":"Bugalagrande","timezone":{"dstOffset":-5,"gmtOffset":-5,"timeZoneId":"America/Bogota"},"lat":4.21207,"lng":-76.15564,"population":12418},{"id":3689831,"name":"Ansermanuevo","timezone":{"dstOffset":-5,"gmtOffset":-5,"timeZoneId":"America/Bogota"},"lat":4.79722,"lng":-75.995,"population":12332},{"id":3685292,"name":"Dagua","timezone":{"dstOffset":-5,"gmtOffset":-5,"timeZoneId":"America/Bogota"},"lat":3.65685,"lng":-76.68859,"population":12320},{"id":3671348,"name":"Puerto Rico","timezone":{"dstOffset":-5,"gmtOffset":-5,"timeZoneId":"America/Bogota"},"lat":1.91417,"lng":-75.145,"population":12306},{"id":3690019,"name":"Amagá","timezone":{"dstOffset":-5,"gmtOffset":-5,"timeZoneId":"America/Bogota"},"lat":6.04001,"lng":-75.70315,"population":12170},{"id":3684860,"name":"El Bordo","timezone":{"dstOffset":-5,"gmtOffset":-5,"timeZoneId":"America/Bogota"},"lat":2.11696,"lng":-76.98214,"population":12072},{"id":3689816,"name":"Antioquia","timezone":{"dstOffset":-5,"gmtOffset":-5,"timeZoneId":"America/Bogota"},"lat":6.55687,"lng":-75.82806,"population":11829},{"id":3667918,"name":"Sitionuevo","timezone":{"dstOffset":-5,"gmtOffset":-5,"timeZoneId":"America/Bogota"},"lat":10.77737,"lng":-74.72049,"population":11817},{"id":3673902,"name":"Neira","timezone":{"dstOffset":-5,"gmtOffset":-5,"timeZoneId":"America/Bogota"},"lat":5.1665,"lng":-75.52001,"population":11755},{"id":3671950,"name":"Polonuevo","timezone":{"dstOffset":-5,"gmtOffset":-5,"timeZoneId":"America/Bogota"},"lat":10.77697,"lng":-74.85344,"population":11727},{"id":3670199,"name":"San Antero","timezone":{"dstOffset":-5,"gmtOffset":-5,"timeZoneId":"America/Bogota"},"lat":9.3741,"lng":-75.75891,"population":11610},{"id":3685295,"name":"Dabeiba","timezone":{"dstOffset":-5,"gmtOffset":-5,"timeZoneId":"America/Bogota"},"lat":7.00017,"lng":-76.26915,"population":11548},{"id":3669128,"name":"San Pedro","timezone":{"dstOffset":-5,"gmtOffset":-5,"timeZoneId":"America/Bogota"},"lat":9.3956,"lng":-75.06476,"population":11489},{"id":3686445,"name":"Chivolo","timezone":{"dstOffset":-5,"gmtOffset":-5,"timeZoneId":"America/Bogota"},"lat":10.02502,"lng":-74.62279,"population":11457},{"id":3687634,"name":"Candelaria","timezone":{"dstOffset":-5,"gmtOffset":-5,"timeZoneId":"America/Bogota"},"lat":10.45912,"lng":-74.8797,"population":11427},{"id":3666226,"name":"Venadillo","timezone":{"dstOffset":-5,"gmtOffset":-5,"timeZoneId":"America/Bogota"},"lat":4.7193,"lng":-74.92918,"population":11310},{"id":3672599,"name":"Pelaya","timezone":{"dstOffset":-5,"gmtOffset":-5,"timeZoneId":"America/Bogota"},"lat":8.68819,"lng":-73.66452,"population":11306},{"id":3670520,"name":"Sabana de Torres","timezone":{"dstOffset":-5,"gmtOffset":-5,"timeZoneId":"America/Bogota"},"lat":7.3915,"lng":-73.49574,"population":11291},{"id":3686255,"name":"Cimitarra","timezone":{"dstOffset":-5,"gmtOffset":-5,"timeZoneId":"America/Bogota"},"lat":6.31419,"lng":-73.94968,"population":11267},{"id":3668292,"name":"San Vicente de Chucurí","timezone":{"dstOffset":-5,"gmtOffset":-5,"timeZoneId":"America/Bogota"},"lat":6.881,"lng":-73.40977,"population":11265},{"id":3685442,"name":"Cumaral","timezone":{"dstOffset":-5,"gmtOffset":-5,"timeZoneId":"America/Bogota"},"lat":4.2708,"lng":-73.48669,"population":11263},{"id":3671936,"name":"Ponedera","timezone":{"dstOffset":-5,"gmtOffset":-5,"timeZoneId":"America/Bogota"},"lat":10.64104,"lng":-74.75026,"population":11221},{"id":3674010,"name":"Natagaima","timezone":{"dstOffset":-5,"gmtOffset":-5,"timeZoneId":"America/Bogota"},"lat":3.62057,"lng":-75.09415,"population":11217},{"id":3675212,"name":"Marsella","timezone":{"dstOffset":-5,"gmtOffset":-5,"timeZoneId":"America/Bogota"},"lat":4.93722,"lng":-75.73778,"population":11158},{"id":3675637,"name":"Majagual","timezone":{"dstOffset":-5,"gmtOffset":-5,"timeZoneId":"America/Bogota"},"lat":8.53886,"lng":-74.62038,"population":11139},{"id":3682160,"name":"Garagoa","timezone":{"dstOffset":-5,"gmtOffset":-5,"timeZoneId":"America/Bogota"},"lat":5.08236,"lng":-73.36334,"population":11102},{"id":3669087,"name":"San Pedro de Urabá","timezone":{"dstOffset":-5,"gmtOffset":-5,"timeZoneId":"America/Bogota"},"lat":8.27515,"lng":-76.37641,"population":11095},{"id":3676791,"name":"La Victoria","timezone":{"dstOffset":-5,"gmtOffset":-5,"timeZoneId":"America/Bogota"},"lat":4.52271,"lng":-76.03738,"population":11064},{"id":3667901,"name":"Soatá","timezone":{"dstOffset":-5,"gmtOffset":-5,"timeZoneId":"America/Bogota"},"lat":6.33369,"lng":-72.68283,"population":10945},{"id":3666232,"name":"Vélez","timezone":{"dstOffset":-5,"gmtOffset":-5,"timeZoneId":"America/Bogota"},"lat":6.01335,"lng":-73.67352,"population":10905},{"id":3671091,"name":"Quinchía","timezone":{"dstOffset":-5,"gmtOffset":-5,"timeZoneId":"America/Bogota"},"lat":5.33957,"lng":-75.73018,"population":10895},{"id":3690429,"name":"Agua de Dios","timezone":{"dstOffset":-5,"gmtOffset":-5,"timeZoneId":"America/Bogota"},"lat":4.37648,"lng":-74.66995,"population":10875},{"id":3671208,"name":"Purificación","timezone":{"dstOffset":-5,"gmtOffset":-5,"timeZoneId":"America/Bogota"},"lat":3.8587,"lng":-74.93129,"population":10846},{"id":3673974,"name":"Necoclí","timezone":{"dstOffset":-5,"gmtOffset":-5,"timeZoneId":"America/Bogota"},"lat":8.42342,"lng":-76.78597,"population":10835},{"id":3669461,"name":"San Juan de Urabá","timezone":{"dstOffset":-5,"gmtOffset":-5,"timeZoneId":"America/Bogota"},"lat":8.75924,"lng":-76.52969,"population":10825},{"id":3690584,"name":"Ábrego","timezone":{"dstOffset":-5,"gmtOffset":-5,"timeZoneId":"America/Bogota"},"lat":8.08065,"lng":-73.22054,"population":10822},{"id":3690160,"name":"Algeciras","timezone":{"dstOffset":-5,"gmtOffset":-5,"timeZoneId":"America/Bogota"},"lat":2.52295,"lng":-75.31492,"population":10792},{"id":3680434,"name":"Ituango","timezone":{"dstOffset":-5,"gmtOffset":-5,"timeZoneId":"America/Bogota"},"lat":7.17117,"lng":-75.76404,"population":10769},{"id":3666326,"name":"Valencia","timezone":{"dstOffset":-5,"gmtOffset":-5,"timeZoneId":"America/Bogota"},"lat":8.25801,"lng":-76.14928,"population":10652},{"id":3670242,"name":"San Alberto","timezone":{"dstOffset":-5,"gmtOffset":-5,"timeZoneId":"America/Bogota"},"lat":7.76107,"lng":-73.3922,"population":10627},{"id":3668472,"name":"Santa Rosa","timezone":{"dstOffset":-5,"gmtOffset":-5,"timeZoneId":"America/Bogota"},"lat":10.44472,"lng":-75.36972,"population":10604},{"id":3673379,"name":"Pailitas","timezone":{"dstOffset":-5,"gmtOffset":-5,"timeZoneId":"America/Bogota"},"lat":8.95652,"lng":-73.62548,"population":10480},{"id":3669938,"name":"Sandoná","timezone":{"dstOffset":-5,"gmtOffset":-5,"timeZoneId":"America/Bogota"},"lat":1.28626,"lng":-77.46921,"population":10401},{"id":3667780,"name":"Suan","timezone":{"dstOffset":-5,"gmtOffset":-5,"timeZoneId":"America/Bogota"},"lat":10.33347,"lng":-74.88016,"population":10381},{"id":3666575,"name":"Turbaná","timezone":{"dstOffset":-5,"gmtOffset":-5,"timeZoneId":"America/Bogota"},"lat":10.2717,"lng":-75.44222,"population":10235},{"id":3667003,"name":"Tocaima","timezone":{"dstOffset":-5,"gmtOffset":-5,"timeZoneId":"America/Bogota"},"lat":4.4582,"lng":-74.63434,"population":10235},{"id":3671519,"name":"Puerto Carreño","timezone":{"dstOffset":-5,"gmtOffset":-5,"timeZoneId":"America/Bogota"},"lat":6.18903,"lng":-67.48588,"population":10216},{"id":3668451,"name":"Santa Rosa de Osos","timezone":{"dstOffset":-5,"gmtOffset":-5,"timeZoneId":"America/Bogota"},"lat":6.64738,"lng":-75.4603,"population":10191},{"id":3679660,"name":"La Calera","timezone":{"dstOffset":-5,"gmtOffset":-5,"timeZoneId":"America/Bogota"},"lat":4.72069,"lng":-73.96926,"population":10175},{"id":3667579,"name":"Tadó","timezone":{"dstOffset":-5,"gmtOffset":-5,"timeZoneId":"America/Bogota"},"lat":5.26598,"lng":-76.56487,"population":10095},{"id":3690172,"name":"Algarrobo","timezone":{"dstOffset":-5,"gmtOffset":-5,"timeZoneId":"America/Bogota"},"lat":10.18694,"lng":-74.57528,"population":10042},{"id":3685126,"name":"Don Matías","timezone":{"dstOffset":-5,"gmtOffset":-5,"timeZoneId":"America/Bogota"},"lat":6.48568,"lng":-75.39496,"population":10011},{"id":3667773,"name":"Suárez","timezone":{"dstOffset":-5,"gmtOffset":-5,"timeZoneId":"America/Bogota"},"lat":2.95395,"lng":-76.69644,"population":9985},{"id":3827723,"name":"Valle del Guamuez","timezone":{"dstOffset":-5,"gmtOffset":-5,"timeZoneId":"America/Bogota"},"lat":0.4525,"lng":-76.91917,"population":9969},{"id":3689714,"name":"Arauquita","timezone":{"dstOffset":-5,"gmtOffset":-5,"timeZoneId":"America/Bogota"},"lat":7.02917,"lng":-71.42806,"population":9950},{"id":3686002,"name":"Condoto","timezone":{"dstOffset":-5,"gmtOffset":-5,"timeZoneId":"America/Bogota"},"lat":5.09351,"lng":-76.64973,"population":9897},{"id":3673286,"name":"Palermo","timezone":{"dstOffset":-5,"gmtOffset":-5,"timeZoneId":"America/Bogota"},"lat":2.89167,"lng":-75.4375,"population":9896},{"id":3671330,"name":"Puerto Salgar","timezone":{"dstOffset":-5,"gmtOffset":-5,"timeZoneId":"America/Bogota"},"lat":5.46304,"lng":-74.65436,"population":9863},{"id":3682047,"name":"Gigante","timezone":{"dstOffset":-5,"gmtOffset":-5,"timeZoneId":"America/Bogota"},"lat":2.38678,"lng":-75.54736,"population":9829},{"id":3673609,"name":"Olaya Herrera","timezone":{"dstOffset":-5,"gmtOffset":-5,"timeZoneId":"America/Bogota"},"lat":1.24803,"lng":-77.49086,"population":9820},{"id":3674572,"name":"Moniquirá","timezone":{"dstOffset":-5,"gmtOffset":-5,"timeZoneId":"America/Bogota"},"lat":5.87638,"lng":-73.57284,"population":9785},{"id":3690010,"name":"Amalfi","timezone":{"dstOffset":-5,"gmtOffset":-5,"timeZoneId":"America/Bogota"},"lat":6.91016,"lng":-75.07764,"population":9733},{"id":3672077,"name":"Planadas","timezone":{"dstOffset":-5,"gmtOffset":-5,"timeZoneId":"America/Bogota"},"lat":3.19698,"lng":-75.64506,"population":9709},{"id":3675504,"name":"Manaure","timezone":{"dstOffset":-5,"gmtOffset":-5,"timeZoneId":"America/Bogota"},"lat":11.77505,"lng":-72.44447,"population":9703},{"id":3686574,"name":"Chinácota","timezone":{"dstOffset":-5,"gmtOffset":-5,"timeZoneId":"America/Bogota"},"lat":7.60731,"lng":-72.60108,"population":9667},{"id":3792377,"name":"Vegachí","timezone":{"dstOffset":-5,"gmtOffset":-5,"timeZoneId":"America/Bogota"},"lat":6.76141,"lng":-74.79473,"population":9618},{"id":3665616,"name":"Zambrano","timezone":{"dstOffset":-5,"gmtOffset":-5,"timeZoneId":"America/Bogota"},"lat":9.74724,"lng":-74.8153,"population":9565},{"id":3670856,"name":"Restrepo","timezone":{"dstOffset":-5,"gmtOffset":-5,"timeZoneId":"America/Bogota"},"lat":3.82203,"lng":-76.52242,"population":9545},{"id":3733861,"name":"Curillo","timezone":{"dstOffset":-5,"gmtOffset":-5,"timeZoneId":"America/Bogota"},"lat":1.03327,"lng":-75.91906,"population":9539},{"id":3670260,"name":"San Agustín","timezone":{"dstOffset":-5,"gmtOffset":-5,"timeZoneId":"America/Bogota"},"lat":1.90059,"lng":-76.28378,"population":9481},{"id":3682232,"name":"Galeras","timezone":{"dstOffset":-5,"gmtOffset":-5,"timeZoneId":"America/Bogota"},"lat":9.16095,"lng":-75.04811,"population":9459},{"id":3668078,"name":"Sibundoy","timezone":{"dstOffset":-5,"gmtOffset":-5,"timeZoneId":"America/Bogota"},"lat":1.20478,"lng":-76.92366,"population":9458},{"id":3689740,"name":"Aranzazu","timezone":{"dstOffset":-5,"gmtOffset":-5,"timeZoneId":"America/Bogota"},"lat":5.27123,"lng":-75.49044,"population":9327},{"id":3686013,"name":"Concordia","timezone":{"dstOffset":-5,"gmtOffset":-5,"timeZoneId":"America/Bogota"},"lat":6.04639,"lng":-75.90706,"population":9324},{"id":3688021,"name":"Cajamarca","timezone":{"dstOffset":-5,"gmtOffset":-5,"timeZoneId":"America/Bogota"},"lat":4.44234,"lng":-75.42874,"population":9309},{"id":3670357,"name":"Saldaña","timezone":{"dstOffset":-5,"gmtOffset":-5,"timeZoneId":"America/Bogota"},"lat":3.92922,"lng":-75.01517,"population":9237},{"id":3670754,"name":"Riofrío","timezone":{"dstOffset":-5,"gmtOffset":-5,"timeZoneId":"America/Bogota"},"lat":4.1571,"lng":-76.28852,"population":9236},{"id":3675668,"name":"Mahates","timezone":{"dstOffset":-5,"gmtOffset":-5,"timeZoneId":"America/Bogota"},"lat":10.23293,"lng":-75.18985,"population":9224},{"id":3687972,"name":"Calamar","timezone":{"dstOffset":-5,"gmtOffset":-5,"timeZoneId":"America/Bogota"},"lat":10.2511,"lng":-74.91462,"population":9180},{"id":3666370,"name":"Usiacurí","timezone":{"dstOffset":-5,"gmtOffset":-5,"timeZoneId":"America/Bogota"},"lat":10.75,"lng":-74.98333,"population":9146},{"id":3690237,"name":"Alcalá","timezone":{"dstOffset":-5,"gmtOffset":-5,"timeZoneId":"America/Bogota"},"lat":4.67472,"lng":-75.7825,"population":9135},{"id":3671437,"name":"Puerto Leguízamo","timezone":{"dstOffset":-5,"gmtOffset":-5,"timeZoneId":"America/Bogota"},"lat":-0.19337,"lng":-74.78189,"population":9098},{"id":3669480,"name":"San Juan de Betulia","timezone":{"dstOffset":-5,"gmtOffset":-5,"timeZoneId":"America/Bogota"},"lat":9.27345,"lng":-75.24103,"population":9092},{"id":3671655,"name":"Pueblo Nuevo","timezone":{"dstOffset":-5,"gmtOffset":-5,"timeZoneId":"America/Bogota"},"lat":8.2411,"lng":-74.95815,"population":9075},{"id":3770955,"name":"Villa Rica","timezone":{"dstOffset":-5,"gmtOffset":-5,"timeZoneId":"America/Bogota"},"lat":2.50949,"lng":-76.84418,"population":9070},{"id":3681596,"name":"Guamal","timezone":{"dstOffset":-5,"gmtOffset":-5,"timeZoneId":"America/Bogota"},"lat":9.14334,"lng":-74.22384,"population":9016},{"id":3689026,"name":"Becerril","timezone":{"dstOffset":-5,"gmtOffset":-5,"timeZoneId":"America/Bogota"},"lat":9.70413,"lng":-73.2793,"population":9002},{"id":3689458,"name":"Astrea","timezone":{"dstOffset":-5,"gmtOffset":-5,"timeZoneId":"America/Bogota"},"lat":9.49828,"lng":-73.97591,"population":8995},{"id":3670018,"name":"San Bernardo del Viento","timezone":{"dstOffset":-5,"gmtOffset":-5,"timeZoneId":"America/Bogota"},"lat":9.3533,"lng":-75.95244,"population":8967},{"id":3780602,"name":"Fredonia","timezone":{"dstOffset":-5,"gmtOffset":-5,"timeZoneId":"America/Bogota"},"lat":5.92583,"lng":-75.67056,"population":8950},{"id":3676674,"name":"Lebrija","timezone":{"dstOffset":-5,"gmtOffset":-5,"timeZoneId":"America/Bogota"},"lat":7.11317,"lng":-73.2178,"population":8949},{"id":3792379,"name":"Santa Rosa del Sur","timezone":{"dstOffset":-5,"gmtOffset":-5,"timeZoneId":"America/Bogota"},"lat":7.96444,"lng":-74.05444,"population":8904},{"id":3669138,"name":"San Pedro","timezone":{"dstOffset":-5,"gmtOffset":-5,"timeZoneId":"America/Bogota"},"lat":6.46451,"lng":-75.56002,"population":8801},{"id":3686196,"name":"Clemencia","timezone":{"dstOffset":-5,"gmtOffset":-5,"timeZoneId":"America/Bogota"},"lat":10.56646,"lng":-75.32499,"population":8775},{"id":3679379,"name":"La Cruz","timezone":{"dstOffset":-5,"gmtOffset":-5,"timeZoneId":"America/Bogota"},"lat":1.60301,"lng":-76.96901,"population":8751},{"id":3680176,"name":"Juan de Acosta","timezone":{"dstOffset":-5,"gmtOffset":-5,"timeZoneId":"America/Bogota"},"lat":10.82813,"lng":-75.03341,"population":8655},{"id":3682313,"name":"Frontino","timezone":{"dstOffset":-5,"gmtOffset":-5,"timeZoneId":"America/Bogota"},"lat":6.77133,"lng":-76.13324,"population":8603},{"id":3666381,"name":"Urumita","timezone":{"dstOffset":-5,"gmtOffset":-5,"timeZoneId":"America/Bogota"},"lat":10.55894,"lng":-73.01232,"population":8509},{"id":3670107,"name":"San Antonio","timezone":{"dstOffset":-5,"gmtOffset":-5,"timeZoneId":"America/Bogota"},"lat":9.93303,"lng":-74.69346,"population":8476},{"id":3690549,"name":"Achí","timezone":{"dstOffset":-5,"gmtOffset":-5,"timeZoneId":"America/Bogota"},"lat":8.56818,"lng":-74.55405,"population":8434},{"id":3667807,"name":"Sopó","timezone":{"dstOffset":-5,"gmtOffset":-5,"timeZoneId":"America/Bogota"},"lat":4.9075,"lng":-73.9384,"population":8396},{"id":3689693,"name":"Arboletes","timezone":{"dstOffset":-5,"gmtOffset":-5,"timeZoneId":"America/Bogota"},"lat":8.85051,"lng":-76.42694,"population":8380},{"id":3665678,"name":"Yotoco","timezone":{"dstOffset":-5,"gmtOffset":-5,"timeZoneId":"America/Bogota"},"lat":3.86048,"lng":-76.38364,"population":8362},{"id":3676923,"name":"La Unión","timezone":{"dstOffset":-5,"gmtOffset":-5,"timeZoneId":"America/Bogota"},"lat":5.97431,"lng":-75.36195,"population":8361},{"id":3670884,"name":"Remolino","timezone":{"dstOffset":-5,"gmtOffset":-5,"timeZoneId":"America/Bogota"},"lat":10.70198,"lng":-74.71602,"population":8308},{"id":3666936,"name":"Toluviejo","timezone":{"dstOffset":-5,"gmtOffset":-5,"timeZoneId":"America/Bogota"},"lat":9.45082,"lng":-75.43864,"population":8260},{"id":3668028,"name":"Silvania","timezone":{"dstOffset":-5,"gmtOffset":-5,"timeZoneId":"America/Bogota"},"lat":4.40367,"lng":-74.3867,"population":8237},{"id":3673413,"name":"Pácora","timezone":{"dstOffset":-5,"gmtOffset":-5,"timeZoneId":"America/Bogota"},"lat":5.52708,"lng":-75.4593,"population":8218},{"id":3686227,"name":"Cisneros","timezone":{"dstOffset":-5,"gmtOffset":-5,"timeZoneId":"America/Bogota"},"lat":6.53833,"lng":-75.08861,"population":8204},{"id":3667082,"name":"Timaná","timezone":{"dstOffset":-5,"gmtOffset":-5,"timeZoneId":"America/Bogota"},"lat":1.97136,"lng":-75.93123,"population":8203},{"id":3666673,"name":"Tubara","timezone":{"dstOffset":-5,"gmtOffset":-5,"timeZoneId":"America/Bogota"},"lat":10.87562,"lng":-74.97873,"population":8180},{"id":3672521,"name":"Pensilvania","timezone":{"dstOffset":-5,"gmtOffset":-5,"timeZoneId":"America/Bogota"},"lat":5.38346,"lng":-75.16122,"population":8173},{"id":3667811,"name":"Soplaviento","timezone":{"dstOffset":-5,"gmtOffset":-5,"timeZoneId":"America/Bogota"},"lat":10.39306,"lng":-75.14083,"population":8067},{"id":3670692,"name":"Rivera","timezone":{"dstOffset":-5,"gmtOffset":-5,"timeZoneId":"America/Bogota"},"lat":2.77717,"lng":-75.25642,"population":8044},{"id":3669947,"name":"San Diego","timezone":{"dstOffset":-5,"gmtOffset":-5,"timeZoneId":"America/Bogota"},"lat":10.33622,"lng":-73.18203,"population":8014},{"id":3674121,"name":"Muzo","timezone":{"dstOffset":-5,"gmtOffset":-5,"timeZoneId":"America/Bogota"},"lat":5.53528,"lng":-74.10778,"population":7977},{"id":3690287,"name":"Aipe","timezone":{"dstOffset":-5,"gmtOffset":-5,"timeZoneId":"America/Bogota"},"lat":3.22222,"lng":-75.23667,"population":7964},{"id":3687476,"name":"Cáqueza","timezone":{"dstOffset":-5,"gmtOffset":-5,"timeZoneId":"America/Bogota"},"lat":4.40569,"lng":-73.94683,"population":7958},{"id":3792384,"name":"Manaure Balcón del Cesar","timezone":{"dstOffset":-5,"gmtOffset":-5,"timeZoneId":"America/Bogota"},"lat":10.39278,"lng":-73.0325,"population":7953},{"id":3684266,"name":"El Dovio","timezone":{"dstOffset":-5,"gmtOffset":-5,"timeZoneId":"America/Bogota"},"lat":4.5079,"lng":-76.23619,"population":7942},{"id":3670849,"name":"El Retiro","timezone":{"dstOffset":-5,"gmtOffset":-5,"timeZoneId":"America/Bogota"},"lat":6.05861,"lng":-75.50306,"population":7941},{"id":3668245,"name":"Sardinata","timezone":{"dstOffset":-5,"gmtOffset":-5,"timeZoneId":"America/Bogota"},"lat":8.08289,"lng":-72.80071,"population":7872},{"id":3673269,"name":"Palestina","timezone":{"dstOffset":-5,"gmtOffset":-5,"timeZoneId":"America/Bogota"},"lat":5.0194,"lng":-75.62242,"population":7865},{"id":3769932,"name":"Monterrey","timezone":{"dstOffset":-5,"gmtOffset":-5,"timeZoneId":"America/Bogota"},"lat":4.87206,"lng":-72.89879,"population":7759},{"id":3680317,"name":"Jericó","timezone":{"dstOffset":-5,"gmtOffset":-5,"timeZoneId":"America/Bogota"},"lat":5.79211,"lng":-75.78601,"population":7750},{"id":3680366,"name":"Jardín","timezone":{"dstOffset":-5,"gmtOffset":-5,"timeZoneId":"America/Bogota"},"lat":5.59902,"lng":-75.81976,"population":7747},{"id":3670000,"name":"San Carlos","timezone":{"dstOffset":-5,"gmtOffset":-5,"timeZoneId":"America/Bogota"},"lat":6.18789,"lng":-74.99315,"population":7742},{"id":3686288,"name":"Cicuco","timezone":{"dstOffset":-5,"gmtOffset":-5,"timeZoneId":"America/Bogota"},"lat":9.26306,"lng":-74.65694,"population":7662},{"id":3689228,"name":"Barbacoas","timezone":{"dstOffset":-5,"gmtOffset":-5,"timeZoneId":"America/Bogota"},"lat":1.67154,"lng":-78.13978,"population":7633},{"id":3683528,"name":"El Paujil","timezone":{"dstOffset":-5,"gmtOffset":-5,"timeZoneId":"America/Bogota"},"lat":1.57006,"lng":-75.32863,"population":7618},{"id":3685733,"name":"Cota","timezone":{"dstOffset":-5,"gmtOffset":-5,"timeZoneId":"America/Bogota"},"lat":4.80938,"lng":-74.098,"population":7615},{"id":3686422,"name":"Chocontá","timezone":{"dstOffset":-5,"gmtOffset":-5,"timeZoneId":"America/Bogota"},"lat":5.14468,"lng":-73.68578,"population":7592},{"id":3792382,"name":"Cartagena del Chairá","timezone":{"dstOffset":-5,"gmtOffset":-5,"timeZoneId":"America/Bogota"},"lat":1.33488,"lng":-74.84289,"population":7586},{"id":3685432,"name":"Cumbal","timezone":{"dstOffset":-5,"gmtOffset":-5,"timeZoneId":"America/Bogota"},"lat":0.90875,"lng":-77.79145,"population":7529},{"id":3666409,"name":"Uribia","timezone":{"dstOffset":-5,"gmtOffset":-5,"timeZoneId":"America/Bogota"},"lat":11.7139,"lng":-72.26604,"population":7519},{"id":3665691,"name":"Yondó","timezone":{"dstOffset":-5,"gmtOffset":-5,"timeZoneId":"America/Bogota"},"lat":7.00621,"lng":-73.90972,"population":7516},{"id":3670855,"name":"Restrepo","timezone":{"dstOffset":-5,"gmtOffset":-5,"timeZoneId":"America/Bogota"},"lat":4.25833,"lng":-73.56142,"population":7511},{"id":3683463,"name":"El Piñón","timezone":{"dstOffset":-5,"gmtOffset":-5,"timeZoneId":"America/Bogota"},"lat":10.40283,"lng":-74.82415,"population":7481},{"id":3668025,"name":"Silvia","timezone":{"dstOffset":-5,"gmtOffset":-5,"timeZoneId":"America/Bogota"},"lat":2.61557,"lng":-76.38261,"population":7474},{"id":3690592,"name":"Abejorral","timezone":{"dstOffset":-5,"gmtOffset":-5,"timeZoneId":"America/Bogota"},"lat":5.78928,"lng":-75.42725,"population":7360},{"id":3682182,"name":"Gamarra","timezone":{"dstOffset":-5,"gmtOffset":-5,"timeZoneId":"America/Bogota"},"lat":8.32279,"lng":-73.74268,"population":7327},{"id":3671450,"name":"Inírida","timezone":{"dstOffset":-5,"gmtOffset":-5,"timeZoneId":"America/Bogota"},"lat":3.86528,"lng":-67.92389,"population":7298},{"id":3673676,"name":"Obando","timezone":{"dstOffset":-5,"gmtOffset":-5,"timeZoneId":"America/Bogota"},"lat":4.57583,"lng":-75.97389,"population":7298},{"id":3682965,"name":"El Tambo","timezone":{"dstOffset":-5,"gmtOffset":-5,"timeZoneId":"America/Bogota"},"lat":1.41814,"lng":-77.39678,"population":7279},{"id":3669056,"name":"San Rafael","timezone":{"dstOffset":-5,"gmtOffset":-5,"timeZoneId":"America/Bogota"},"lat":6.29436,"lng":-75.02589,"population":7245},{"id":3669293,"name":"San Miguel","timezone":{"dstOffset":-5,"gmtOffset":-5,"timeZoneId":"America/Bogota"},"lat":0.34314,"lng":-76.91124,"population":7185},{"id":3670718,"name":"Riosucio","timezone":{"dstOffset":-5,"gmtOffset":-5,"timeZoneId":"America/Bogota"},"lat":7.44383,"lng":-77.11501,"population":7163},{"id":3682068,"name":"Génova","timezone":{"dstOffset":-5,"gmtOffset":-5,"timeZoneId":"America/Bogota"},"lat":4.31667,"lng":-75.76667,"population":7140},{"id":3681356,"name":"Guateque","timezone":{"dstOffset":-5,"gmtOffset":-5,"timeZoneId":"America/Bogota"},"lat":5.00619,"lng":-73.47274,"population":7069},{"id":3686894,"name":"Cerro de San Antonio","timezone":{"dstOffset":-5,"gmtOffset":-5,"timeZoneId":"America/Bogota"},"lat":10.32585,"lng":-74.86933,"population":7057},{"id":3671203,"name":"Purísima","timezone":{"dstOffset":-5,"gmtOffset":-5,"timeZoneId":"America/Bogota"},"lat":9.23657,"lng":-75.7219,"population":7043},{"id":3675452,"name":"Maní","timezone":{"dstOffset":-5,"gmtOffset":-5,"timeZoneId":"America/Bogota"},"lat":4.81722,"lng":-72.28861,"population":7031},{"id":3792385,"name":"San Martín","timezone":{"dstOffset":-5,"gmtOffset":-5,"timeZoneId":"America/Bogota"},"lat":8.00151,"lng":-73.51126,"population":7029},{"id":3665992,"name":"Villagarzón","timezone":{"dstOffset":-5,"gmtOffset":-5,"timeZoneId":"America/Bogota"},"lat":1.0375,"lng":-76.62667,"population":7015},{"id":3670709,"name":"Río Viejo","timezone":{"dstOffset":-5,"gmtOffset":-5,"timeZoneId":"America/Bogota"},"lat":8.5874,"lng":-73.83901,"population":6963},{"id":3670587,"name":"Rovira","timezone":{"dstOffset":-5,"gmtOffset":-5,"timeZoneId":"America/Bogota"},"lat":4.23922,"lng":-75.23996,"population":6949},{"id":3689793,"name":"Apía","timezone":{"dstOffset":-5,"gmtOffset":-5,"timeZoneId":"America/Bogota"},"lat":5.10645,"lng":-75.94318,"population":6940},{"id":3668447,"name":"Santa Rosa de Viterbo","timezone":{"dstOffset":-5,"gmtOffset":-5,"timeZoneId":"America/Bogota"},"lat":5.87401,"lng":-72.98217,"population":6923},{"id":3673511,"name":"Ortega","timezone":{"dstOffset":-5,"gmtOffset":-5,"timeZoneId":"America/Bogota"},"lat":3.9361,"lng":-75.22169,"population":6871},{"id":3682473,"name":"Filandia","timezone":{"dstOffset":-5,"gmtOffset":-5,"timeZoneId":"America/Bogota"},"lat":4.67472,"lng":-75.65833,"population":6851},{"id":3668324,"name":"Santuario","timezone":{"dstOffset":-5,"gmtOffset":-5,"timeZoneId":"America/Bogota"},"lat":5.07237,"lng":-75.96341,"population":6815},{"id":3678907,"name":"La Gloria","timezone":{"dstOffset":-5,"gmtOffset":-5,"timeZoneId":"America/Bogota"},"lat":8.61868,"lng":-73.80265,"population":6810},{"id":3671228,"name":"Pupiales","timezone":{"dstOffset":-5,"gmtOffset":-5,"timeZoneId":"America/Bogota"},"lat":0.87136,"lng":-77.64027,"population":6760},{"id":3673976,"name":"Nechí","timezone":{"dstOffset":-5,"gmtOffset":-5,"timeZoneId":"America/Bogota"},"lat":8.09419,"lng":-74.77573,"population":6693},{"id":3668012,"name":"Simití","timezone":{"dstOffset":-5,"gmtOffset":-5,"timeZoneId":"America/Bogota"},"lat":7.9579,"lng":-73.9436,"population":6670},{"id":3686011,"name":"Concordia","timezone":{"dstOffset":-5,"gmtOffset":-5,"timeZoneId":"America/Bogota"},"lat":9.83545,"lng":-74.45548,"population":6624},{"id":3685893,"name":"Córdoba","timezone":{"dstOffset":-5,"gmtOffset":-5,"timeZoneId":"America/Bogota"},"lat":9.58612,"lng":-74.82705,"population":6597},{"id":3669214,"name":"San Pablo","timezone":{"dstOffset":-5,"gmtOffset":-5,"timeZoneId":"America/Bogota"},"lat":1.6725,"lng":-77.01389,"population":6522},{"id":3668286,"name":"San Zenón","timezone":{"dstOffset":-5,"gmtOffset":-5,"timeZoneId":"America/Bogota"},"lat":9.24217,"lng":-74.50037,"population":6520},{"id":3687880,"name":"Caloto","timezone":{"dstOffset":-5,"gmtOffset":-5,"timeZoneId":"America/Bogota"},"lat":3.03586,"lng":-76.40788,"population":6478},{"id":3770066,"name":"San Luis","timezone":{"dstOffset":-5,"gmtOffset":-5,"timeZoneId":"America/Bogota"},"lat":6.04167,"lng":-74.99278,"population":6448},{"id":3674603,"name":"Momil","timezone":{"dstOffset":-5,"gmtOffset":-5,"timeZoneId":"America/Bogota"},"lat":9.23768,"lng":-75.67489,"population":6441},{"id":3670350,"name":"Salgar","timezone":{"dstOffset":-5,"gmtOffset":-5,"timeZoneId":"America/Bogota"},"lat":5.96502,"lng":-75.96541,"population":6428},{"id":3670899,"name":"Remedios","timezone":{"dstOffset":-5,"gmtOffset":-5,"timeZoneId":"America/Bogota"},"lat":7.03083,"lng":-74.53333,"population":6415},{"id":3667473,"name":"Támesis","timezone":{"dstOffset":-5,"gmtOffset":-5,"timeZoneId":"America/Bogota"},"lat":5.66462,"lng":-75.71339,"population":6406},{"id":3683538,"name":"El Paso","timezone":{"dstOffset":-5,"gmtOffset":-5,"timeZoneId":"America/Bogota"},"lat":9.65724,"lng":-73.74685,"population":6367},{"id":3689012,"name":"Belalcázar","timezone":{"dstOffset":-5,"gmtOffset":-5,"timeZoneId":"America/Bogota"},"lat":4.99528,"lng":-75.81278,"population":6367},{"id":3690250,"name":"Albania","timezone":{"dstOffset":-5,"gmtOffset":-5,"timeZoneId":"America/Bogota"},"lat":11.16099,"lng":-72.59238,"population":6364},{"id":3682963,"name":"El Tambo","timezone":{"dstOffset":-5,"gmtOffset":-5,"timeZoneId":"America/Bogota"},"lat":2.45199,"lng":-76.81029,"population":6355},{"id":3681644,"name":"Guaitarilla","timezone":{"dstOffset":-5,"gmtOffset":-5,"timeZoneId":"America/Bogota"},"lat":1.13103,"lng":-77.54814,"population":6280},{"id":3689292,"name":"Balboa","timezone":{"dstOffset":-5,"gmtOffset":-5,"timeZoneId":"America/Bogota"},"lat":2.03956,"lng":-77.21684,"population":6272},{"id":3667070,"name":"Timbiquí","timezone":{"dstOffset":-5,"gmtOffset":-5,"timeZoneId":"America/Bogota"},"lat":2.7717,"lng":-77.66536,"population":6267},{"id":3674678,"name":"Mistrató","timezone":{"dstOffset":-5,"gmtOffset":-5,"timeZoneId":"America/Bogota"},"lat":5.29622,"lng":-75.8839,"population":6263},{"id":3675234,"name":"Marquetalia","timezone":{"dstOffset":-5,"gmtOffset":-5,"timeZoneId":"America/Bogota"},"lat":5.29659,"lng":-75.05496,"population":6224},{"id":3672197,"name":"Pinillos","timezone":{"dstOffset":-5,"gmtOffset":-5,"timeZoneId":"America/Bogota"},"lat":8.91925,"lng":-74.46771,"population":6218},{"id":3667547,"name":"Talaigua Viejo","timezone":{"dstOffset":-5,"gmtOffset":-5,"timeZoneId":"America/Bogota"},"lat":9.31206,"lng":-74.58544,"population":6217},{"id":3670764,"name":"Rioblanco","timezone":{"dstOffset":-5,"gmtOffset":-5,"timeZoneId":"America/Bogota"},"lat":3.53083,"lng":-75.68056,"population":6210},{"id":3672086,"name":"Pizarro","timezone":{"dstOffset":-5,"gmtOffset":-5,"timeZoneId":"America/Bogota"},"lat":4.95334,"lng":-77.36598,"population":6168},{"id":3670368,"name":"Salamina","timezone":{"dstOffset":-5,"gmtOffset":-5,"timeZoneId":"America/Bogota"},"lat":10.49027,"lng":-74.79463,"population":6166},{"id":3670756,"name":"Río de Oro","timezone":{"dstOffset":-5,"gmtOffset":-5,"timeZoneId":"America/Bogota"},"lat":8.2919,"lng":-73.38485,"population":6122},{"id":3672087,"name":"Francisco Pizarro","timezone":{"dstOffset":-5,"gmtOffset":-5,"timeZoneId":"America/Bogota"},"lat":2.10194,"lng":-78.72167,"population":6105},{"id":3682039,"name":"Ginebra","timezone":{"dstOffset":-5,"gmtOffset":-5,"timeZoneId":"America/Bogota"},"lat":3.72461,"lng":-76.26675,"population":6088},{"id":3668861,"name":"Santa Catalina","timezone":{"dstOffset":-5,"gmtOffset":-5,"timeZoneId":"America/Bogota"},"lat":10.60361,"lng":-75.28824,"population":6084},{"id":3665587,"name":"Zapatoca","timezone":{"dstOffset":-5,"gmtOffset":-5,"timeZoneId":"America/Bogota"},"lat":6.81532,"lng":-73.26768,"population":6052},{"id":3665693,"name":"Yolombó","timezone":{"dstOffset":-5,"gmtOffset":-5,"timeZoneId":"America/Bogota"},"lat":6.59841,"lng":-75.0114,"population":6033},{"id":3666997,"name":"Tocancipá","timezone":{"dstOffset":-5,"gmtOffset":-5,"timeZoneId":"America/Bogota"},"lat":4.96531,"lng":-73.91301,"population":6027},{"id":3687677,"name":"Cañasgordas","timezone":{"dstOffset":-5,"gmtOffset":-5,"timeZoneId":"America/Bogota"},"lat":6.74989,"lng":-76.02539,"population":6026},{"id":3673811,"name":"Norcasia","timezone":{"dstOffset":-5,"gmtOffset":-5,"timeZoneId":"America/Bogota"},"lat":5.57782,"lng":-74.88521,"population":5976},{"id":3689157,"name":"Barranco de Loba","timezone":{"dstOffset":-5,"gmtOffset":-5,"timeZoneId":"America/Bogota"},"lat":8.94597,"lng":-74.10647,"population":5933},{"id":3769976,"name":"Puerto Gaitán","timezone":{"dstOffset":-5,"gmtOffset":-5,"timeZoneId":"America/Bogota"},"lat":4.31328,"lng":-72.08157,"population":5928},{"id":3674676,"name":"Mitú","timezone":{"dstOffset":-5,"gmtOffset":-5,"timeZoneId":"America/Bogota"},"lat":1.19833,"lng":-70.17333,"population":5917},{"id":3666959,"name":"Toledo","timezone":{"dstOffset":-5,"gmtOffset":-5,"timeZoneId":"America/Bogota"},"lat":7.30984,"lng":-72.48295,"population":5911},{"id":3665924,"name":"Villapinzón","timezone":{"dstOffset":-5,"gmtOffset":-5,"timeZoneId":"America/Bogota"},"lat":5.21617,"lng":-73.5949,"population":5874},{"id":3666680,"name":"Trujillo","timezone":{"dstOffset":-5,"gmtOffset":-5,"timeZoneId":"America/Bogota"},"lat":4.21217,"lng":-76.31945,"population":5874},{"id":3689915,"name":"Ancuya","timezone":{"dstOffset":-5,"gmtOffset":-5,"timeZoneId":"America/Bogota"},"lat":1.2633,"lng":-77.51376,"population":5852},{"id":3665881,"name":"Viotá","timezone":{"dstOffset":-5,"gmtOffset":-5,"timeZoneId":"America/Bogota"},"lat":4.43713,"lng":-74.52157,"population":5840},{"id":3671591,"name":"Puente Nacional","timezone":{"dstOffset":-5,"gmtOffset":-5,"timeZoneId":"America/Bogota"},"lat":5.8774,"lng":-73.6781,"population":5774},{"id":3665803,"name":"Yaguará","timezone":{"dstOffset":-5,"gmtOffset":-5,"timeZoneId":"America/Bogota"},"lat":2.66355,"lng":-75.51753,"population":5724},{"id":3689771,"name":"Aquitania","timezone":{"dstOffset":-5,"gmtOffset":-5,"timeZoneId":"America/Bogota"},"lat":5.51972,"lng":-72.8875,"population":5718},{"id":3676864,"name":"La Vega","timezone":{"dstOffset":-5,"gmtOffset":-5,"timeZoneId":"America/Bogota"},"lat":4.99779,"lng":-74.33979,"population":5706},{"id":3672255,"name":"Pijao","timezone":{"dstOffset":-5,"gmtOffset":-5,"timeZoneId":"America/Bogota"},"lat":4.33419,"lng":-75.70348,"population":5668},{"id":3681952,"name":"Granada","timezone":{"dstOffset":-5,"gmtOffset":-5,"timeZoneId":"America/Bogota"},"lat":6.14353,"lng":-75.18532,"population":5661},{"id":3687324,"name":"Carmen de Apicalá","timezone":{"dstOffset":-5,"gmtOffset":-5,"timeZoneId":"America/Bogota"},"lat":4.14725,"lng":-74.72014,"population":5640},{"id":3669084,"name":"San Pelayo","timezone":{"dstOffset":-5,"gmtOffset":-5,"timeZoneId":"America/Bogota"},"lat":8.95833,"lng":-75.83627,"population":5637},{"id":3681990,"name":"González","timezone":{"dstOffset":-5,"gmtOffset":-5,"timeZoneId":"America/Bogota"},"lat":8.38944,"lng":-73.37989,"population":5634},{"id":3674499,"name":"Montecristo","timezone":{"dstOffset":-5,"gmtOffset":-5,"timeZoneId":"America/Bogota"},"lat":8.2971,"lng":-74.4733,"population":5608},{"id":3689841,"name":"Anolaima","timezone":{"dstOffset":-5,"gmtOffset":-5,"timeZoneId":"America/Bogota"},"lat":4.83362,"lng":-74.4995,"population":5585},{"id":3669011,"name":"San Roque","timezone":{"dstOffset":-5,"gmtOffset":-5,"timeZoneId":"America/Bogota"},"lat":6.48511,"lng":-75.0196,"population":5576},{"id":3683155,"name":"El Rosal","timezone":{"dstOffset":-5,"gmtOffset":-5,"timeZoneId":"America/Bogota"},"lat":4.85314,"lng":-74.25996,"population":5552},{"id":3669156,"name":"San Pedro","timezone":{"dstOffset":-5,"gmtOffset":-5,"timeZoneId":"America/Bogota"},"lat":3.99456,"lng":-76.2278,"population":5473},{"id":3673887,"name":"Nemocón","timezone":{"dstOffset":-5,"gmtOffset":-5,"timeZoneId":"America/Bogota"},"lat":5.05,"lng":-73.88333,"population":5466},{"id":3666193,"name":"Venecia","timezone":{"dstOffset":-5,"gmtOffset":-5,"timeZoneId":"America/Bogota"},"lat":5.96278,"lng":-75.73806,"population":5462},{"id":3670700,"name":"Risaralda","timezone":{"dstOffset":-5,"gmtOffset":-5,"timeZoneId":"America/Bogota"},"lat":5.16647,"lng":-75.76595,"population":5421},{"id":3689003,"name":"Belén","timezone":{"dstOffset":-5,"gmtOffset":-5,"timeZoneId":"America/Bogota"},"lat":5.98892,"lng":-72.91254,"population":5411},{"id":3672249,"name":"Pijiño","timezone":{"dstOffset":-5,"gmtOffset":-5,"timeZoneId":"America/Bogota"},"lat":9.32908,"lng":-74.45302,"population":5390},{"id":3682380,"name":"Fómeque","timezone":{"dstOffset":-5,"gmtOffset":-5,"timeZoneId":"America/Bogota"},"lat":4.48797,"lng":-73.89749,"population":5389},{"id":3681368,"name":"Guatapé","timezone":{"dstOffset":-5,"gmtOffset":-5,"timeZoneId":"America/Bogota"},"lat":6.23429,"lng":-75.16335,"population":5389},{"id":3674569,"name":"Moñitos","timezone":{"dstOffset":-5,"gmtOffset":-5,"timeZoneId":"America/Bogota"},"lat":8.25,"lng":-76.05,"population":5385},{"id":3689653,"name":"Arenal","timezone":{"dstOffset":-5,"gmtOffset":-5,"timeZoneId":"America/Bogota"},"lat":8.45928,"lng":-73.94331,"population":5346},{"id":3678118,"name":"La Pintada","timezone":{"dstOffset":-5,"gmtOffset":-5,"timeZoneId":"America/Bogota"},"lat":5.74867,"lng":-75.60626,"population":5342},{"id":3689551,"name":"Guayabal","timezone":{"dstOffset":-5,"gmtOffset":-5,"timeZoneId":"America/Bogota"},"lat":5.03103,"lng":-74.88682,"population":5339},{"id":3792399,"name":"El Playón","timezone":{"dstOffset":-5,"gmtOffset":-5,"timeZoneId":"America/Bogota"},"lat":7.47131,"lng":-73.2031,"population":5334},{"id":3671630,"name":"Pueblorrico","timezone":{"dstOffset":-5,"gmtOffset":-5,"timeZoneId":"America/Bogota"},"lat":5.79176,"lng":-75.84101,"population":5327},{"id":3684683,"name":"El Carmen","timezone":{"dstOffset":-5,"gmtOffset":-5,"timeZoneId":"America/Bogota"},"lat":8.51064,"lng":-73.44776,"population":5286},{"id":3683778,"name":"El Molino","timezone":{"dstOffset":-5,"gmtOffset":-5,"timeZoneId":"America/Bogota"},"lat":10.65225,"lng":-72.92405,"population":5265},{"id":3686158,"name":"Cocorná","timezone":{"dstOffset":-5,"gmtOffset":-5,"timeZoneId":"America/Bogota"},"lat":6.0573,"lng":-75.18524,"population":5257},{"id":3689709,"name":"Arbeláez","timezone":{"dstOffset":-5,"gmtOffset":-5,"timeZoneId":"America/Bogota"},"lat":4.27254,"lng":-74.41513,"population":5252},{"id":3682510,"name":"Falan","timezone":{"dstOffset":-5,"gmtOffset":-5,"timeZoneId":"America/Bogota"},"lat":5.11564,"lng":-74.94894,"population":5234},{"id":3792378,"name":"Altos del Rosario","timezone":{"dstOffset":-5,"gmtOffset":-5,"timeZoneId":"America/Bogota"},"lat":8.79444,"lng":-74.16583,"population":5220},{"id":3688840,"name":"Betulia","timezone":{"dstOffset":-5,"gmtOffset":-5,"timeZoneId":"America/Bogota"},"lat":6.11284,"lng":-75.98378,"population":5216},{"id":3670162,"name":"San Antonio","timezone":{"dstOffset":-5,"gmtOffset":-5,"timeZoneId":"America/Bogota"},"lat":3.91423,"lng":-75.48008,"population":5185},{"id":3792389,"name":"Isnos","timezone":{"dstOffset":-5,"gmtOffset":-5,"timeZoneId":"America/Bogota"},"lat":1.93556,"lng":-76.24056,"population":5185},{"id":3732964,"name":"Lejanías","timezone":{"dstOffset":-5,"gmtOffset":-5,"timeZoneId":"America/Bogota"},"lat":3.5251,"lng":-74.02156,"population":5157},{"id":3672428,"name":"Pesca","timezone":{"dstOffset":-5,"gmtOffset":-5,"timeZoneId":"America/Bogota"},"lat":5.55,"lng":-73.05,"population":5113},{"id":3666003,"name":"Villa de Leiva","timezone":{"dstOffset":-5,"gmtOffset":-5,"timeZoneId":"America/Bogota"},"lat":5.645,"lng":-73.56667,"population":5103},{"id":3671424,"name":"Puerto Lleras","timezone":{"dstOffset":-5,"gmtOffset":-5,"timeZoneId":"America/Bogota"},"lat":3.02225,"lng":-73.4044,"population":5076},{"id":3682481,"name":"Filadelfia","timezone":{"dstOffset":-5,"gmtOffset":-5,"timeZoneId":"America/Bogota"},"lat":5.29606,"lng":-75.5612,"population":5064},{"id":3688397,"name":"Buenavista","timezone":{"dstOffset":-5,"gmtOffset":-5,"timeZoneId":"America/Bogota"},"lat":9.04963,"lng":-76.0028,"population":5062},{"id":3671002,"name":"Ramiriquí","timezone":{"dstOffset":-5,"gmtOffset":-5,"timeZoneId":"America/Bogota"},"lat":5.4002,"lng":-73.33544,"population":5039},{"id":3671346,"name":"Puerto Yuca","timezone":{"dstOffset":-5,"gmtOffset":-5,"timeZoneId":"America/Bogota"},"lat":2.93833,"lng":-73.20833,"population":5029},{"id":3681605,"name":"Guamal","timezone":{"dstOffset":-5,"gmtOffset":-5,"timeZoneId":"America/Bogota"},"lat":3.88043,"lng":-73.76566,"population":5026},{"id":3668302,"name":"San Vicente","timezone":{"dstOffset":-5,"gmtOffset":-5,"timeZoneId":"America/Bogota"},"lat":6.23278,"lng":-75.33611,"population":5020},{"id":3688128,"name":"Cáceres","timezone":{"dstOffset":-5,"gmtOffset":-5,"timeZoneId":"America/Bogota"},"lat":7.58078,"lng":-75.34842,"population":4987},{"id":3667528,"name":"Tamalameque","timezone":{"dstOffset":-5,"gmtOffset":-5,"timeZoneId":"America/Bogota"},"lat":8.85221,"lng":-73.81229,"population":4972},{"id":3689941,"name":"Anapoima","timezone":{"dstOffset":-5,"gmtOffset":-5,"timeZoneId":"America/Bogota"},"lat":4.52028,"lng":-74.53944,"population":4953},{"id":3674337,"name":"Morroa","timezone":{"dstOffset":-5,"gmtOffset":-5,"timeZoneId":"America/Bogota"},"lat":9.33348,"lng":-75.30542,"population":4949},{"id":3679542,"name":"La Celia","timezone":{"dstOffset":-5,"gmtOffset":-5,"timeZoneId":"America/Bogota"},"lat":5.04333,"lng":-76.01667,"population":4940},{"id":3686867,"name":"Chachagüí","timezone":{"dstOffset":-5,"gmtOffset":-5,"timeZoneId":"America/Bogota"},"lat":1.35943,"lng":-77.28367,"population":4899},{"id":3689979,"name":"Ambalema","timezone":{"dstOffset":-5,"gmtOffset":-5,"timeZoneId":"America/Bogota"},"lat":4.78405,"lng":-74.76268,"population":4892},{"id":3685724,"name":"Cotorra","timezone":{"dstOffset":-5,"gmtOffset":-5,"timeZoneId":"America/Bogota"},"lat":9.03886,"lng":-75.78969,"population":4880},{"id":3667717,"name":"Suesca","timezone":{"dstOffset":-5,"gmtOffset":-5,"timeZoneId":"America/Bogota"},"lat":5.10289,"lng":-73.79845,"population":4877},{"id":3680491,"name":"Iscuandé","timezone":{"dstOffset":-5,"gmtOffset":-5,"timeZoneId":"America/Bogota"},"lat":2.45007,"lng":-77.97936,"population":4875},{"id":3667323,"name":"Tello","timezone":{"dstOffset":-5,"gmtOffset":-5,"timeZoneId":"America/Bogota"},"lat":3.06694,"lng":-75.13778,"population":4868},{"id":3674740,"name":"Miraflores","timezone":{"dstOffset":-5,"gmtOffset":-5,"timeZoneId":"America/Bogota"},"lat":1.33667,"lng":-71.95111,"population":4864},{"id":3690572,"name":"Acandí","timezone":{"dstOffset":-5,"gmtOffset":-5,"timeZoneId":"America/Bogota"},"lat":8.51158,"lng":-77.27718,"population":4840},{"id":3667791,"name":"Sotomayor","timezone":{"dstOffset":-5,"gmtOffset":-5,"timeZoneId":"America/Bogota"},"lat":1.51469,"lng":-77.50444,"population":4839},{"id":3674130,"name":"Mutatá","timezone":{"dstOffset":-5,"gmtOffset":-5,"timeZoneId":"America/Bogota"},"lat":7.24407,"lng":-76.43564,"population":4811},{"id":3667355,"name":"Tauramena","timezone":{"dstOffset":-5,"gmtOffset":-5,"timeZoneId":"America/Bogota"},"lat":5.01831,"lng":-72.74919,"population":4805},{"id":3685702,"name":"Cravo Norte","timezone":{"dstOffset":-5,"gmtOffset":-5,"timeZoneId":"America/Bogota"},"lat":6.30174,"lng":-70.20415,"population":4787},{"id":3668017,"name":"Simijaca","timezone":{"dstOffset":-5,"gmtOffset":-5,"timeZoneId":"America/Bogota"},"lat":5.50291,"lng":-73.85227,"population":4767},{"id":3685649,"name":"Cruces de Anorí","timezone":{"dstOffset":-5,"gmtOffset":-5,"timeZoneId":"America/Bogota"},"lat":7.18333,"lng":-75.06667,"population":4762},{"id":3681733,"name":"Guadalupe","timezone":{"dstOffset":-5,"gmtOffset":-5,"timeZoneId":"America/Bogota"},"lat":2.0248,"lng":-75.75589,"population":4760},{"id":3686134,"name":"Cogua","timezone":{"dstOffset":-5,"gmtOffset":-5,"timeZoneId":"America/Bogota"},"lat":5.06052,"lng":-73.97925,"population":4755},{"id":3666719,"name":"Trinidad","timezone":{"dstOffset":-5,"gmtOffset":-5,"timeZoneId":"America/Bogota"},"lat":5.43056,"lng":-71.63111,"population":4752},{"id":3685200,"name":"Distracción","timezone":{"dstOffset":-5,"gmtOffset":-5,"timeZoneId":"America/Bogota"},"lat":10.89693,"lng":-72.8861,"population":4742},{"id":3669956,"name":"San Cristóbal","timezone":{"dstOffset":-5,"gmtOffset":-5,"timeZoneId":"America/Bogota"},"lat":9.87809,"lng":-75.25248,"population":4737},{"id":3684115,"name":"El Guamo","timezone":{"dstOffset":-5,"gmtOffset":-5,"timeZoneId":"America/Bogota"},"lat":10.03155,"lng":-74.97612,"population":4732},{"id":3666075,"name":"Victoria","timezone":{"dstOffset":-5,"gmtOffset":-5,"timeZoneId":"America/Bogota"},"lat":5.31648,"lng":-74.91101,"population":4723},{"id":3674851,"name":"Mercaderes","timezone":{"dstOffset":-5,"gmtOffset":-5,"timeZoneId":"America/Bogota"},"lat":1.80175,"lng":-77.17032,"population":4684},{"id":3687541,"name":"Cantagallo","timezone":{"dstOffset":-5,"gmtOffset":-5,"timeZoneId":"America/Bogota"},"lat":7.37599,"lng":-73.91963,"population":4672},{"id":3666042,"name":"Vigía del Fuerte","timezone":{"dstOffset":-5,"gmtOffset":-5,"timeZoneId":"America/Bogota"},"lat":6.57891,"lng":-76.88628,"population":4638},{"id":3682361,"name":"Municipio de Fortul","timezone":{"dstOffset":-5,"gmtOffset":-5,"timeZoneId":"America/Bogota"},"lat":6.79277,"lng":-71.7717,"population":4607},{"id":3689336,"name":"Bagadó","timezone":{"dstOffset":-5,"gmtOffset":-5,"timeZoneId":"America/Bogota"},"lat":5.41164,"lng":-76.4152,"population":4561},{"id":3690520,"name":"Agrado","timezone":{"dstOffset":-5,"gmtOffset":-5,"timeZoneId":"America/Bogota"},"lat":2.25725,"lng":-75.77142,"population":4530},{"id":3687505,"name":"Caparrapí","timezone":{"dstOffset":-5,"gmtOffset":-5,"timeZoneId":"America/Bogota"},"lat":5.34644,"lng":-74.49147,"population":4477},{"id":3673407,"name":"Padilla","timezone":{"dstOffset":-5,"gmtOffset":-5,"timeZoneId":"America/Bogota"},"lat":3.22038,"lng":-76.31385,"population":4472},{"id":3690552,"name":"Acevedo","timezone":{"dstOffset":-5,"gmtOffset":-5,"timeZoneId":"America/Bogota"},"lat":1.83606,"lng":-75.85498,"population":4451},{"id":3680854,"name":"Hobo","timezone":{"dstOffset":-5,"gmtOffset":-5,"timeZoneId":"America/Bogota"},"lat":2.58333,"lng":-75.45,"population":4444},{"id":3676912,"name":"La Unión","timezone":{"dstOffset":-5,"gmtOffset":-5,"timeZoneId":"America/Bogota"},"lat":8.86056,"lng":-75.28056,"population":4427},{"id":3685223,"name":"Dibulla","timezone":{"dstOffset":-5,"gmtOffset":-5,"timeZoneId":"America/Bogota"},"lat":11.27251,"lng":-73.30911,"population":4402},{"id":3689232,"name":"Baraya","timezone":{"dstOffset":-5,"gmtOffset":-5,"timeZoneId":"America/Bogota"},"lat":3.15333,"lng":-75.05306,"population":4402},{"id":3688673,"name":"Bojacá","timezone":{"dstOffset":-5,"gmtOffset":-5,"timeZoneId":"America/Bogota"},"lat":4.73176,"lng":-74.34129,"population":4399},{"id":3681353,"name":"Guática","timezone":{"dstOffset":-5,"gmtOffset":-5,"timeZoneId":"America/Bogota"},"lat":5.31569,"lng":-75.79826,"population":4368},{"id":3669881,"name":"San Francisco","timezone":{"dstOffset":-5,"gmtOffset":-5,"timeZoneId":"America/Bogota"},"lat":1.17867,"lng":-76.8785,"population":4350},{"id":3688396,"name":"Buenavista","timezone":{"dstOffset":-5,"gmtOffset":-5,"timeZoneId":"America/Bogota"},"lat":9.21433,"lng":-74.31363,"population":4339},{"id":3792395,"name":"Puerto Concordia","timezone":{"dstOffset":-5,"gmtOffset":-5,"timeZoneId":"America/Bogota"},"lat":2.62206,"lng":-72.75724,"population":4313},{"id":3665860,"name":"Vista Hermosa","timezone":{"dstOffset":-5,"gmtOffset":-5,"timeZoneId":"America/Bogota"},"lat":3.12428,"lng":-73.75156,"population":4282},{"id":3686441,"name":"Choachí","timezone":{"dstOffset":-5,"gmtOffset":-5,"timeZoneId":"America/Bogota"},"lat":4.52897,"lng":-73.92273,"population":4281},{"id":3689615,"name":"Argelia","timezone":{"dstOffset":-5,"gmtOffset":-5,"timeZoneId":"America/Bogota"},"lat":2.25563,"lng":-77.24876,"population":4262},{"id":3688112,"name":"Cachipay","timezone":{"dstOffset":-5,"gmtOffset":-5,"timeZoneId":"America/Bogota"},"lat":5.26667,"lng":-74.56667,"population":4260},{"id":3792380,"name":"Tiquisio","timezone":{"dstOffset":-5,"gmtOffset":-5,"timeZoneId":"America/Bogota"},"lat":8.55972,"lng":-74.26694,"population":4255},{"id":3681767,"name":"Guachetá","timezone":{"dstOffset":-5,"gmtOffset":-5,"timeZoneId":"America/Bogota"},"lat":5.38425,"lng":-73.68617,"population":4245},{"id":3683497,"name":"El Peñón","timezone":{"dstOffset":-5,"gmtOffset":-5,"timeZoneId":"America/Bogota"},"lat":8.98916,"lng":-73.94857,"population":4204},{"id":3669399,"name":"San Luis","timezone":{"dstOffset":-5,"gmtOffset":-5,"timeZoneId":"America/Bogota"},"lat":4.13258,"lng":-75.09499,"population":4184},{"id":3667629,"name":"Tabio","timezone":{"dstOffset":-5,"gmtOffset":-5,"timeZoneId":"America/Bogota"},"lat":4.91726,"lng":-74.09364,"population":4180},{"id":3666475,"name":"Ungia","timezone":{"dstOffset":-5,"gmtOffset":-5,"timeZoneId":"America/Bogota"},"lat":8.04364,"lng":-77.09137,"population":4179},{"id":3688266,"name":"Buesaco","timezone":{"dstOffset":-5,"gmtOffset":-5,"timeZoneId":"America/Bogota"},"lat":1.39017,"lng":-77.15982,"population":4177},{"id":3671633,"name":"Pueblo Rico","timezone":{"dstOffset":-5,"gmtOffset":-5,"timeZoneId":"America/Bogota"},"lat":5.23833,"lng":-76.03639,"population":4165},{"id":3688659,"name":"Bolívar","timezone":{"dstOffset":-5,"gmtOffset":-5,"timeZoneId":"America/Bogota"},"lat":4.3387,"lng":-76.18342,"population":4165},{"id":3763578,"name":"Mesetas","timezone":{"dstOffset":-5,"gmtOffset":-5,"timeZoneId":"America/Bogota"},"lat":3.38464,"lng":-74.04424,"population":4163},{"id":3690262,"name":"Albania","timezone":{"dstOffset":-5,"gmtOffset":-5,"timeZoneId":"America/Bogota"},"lat":1.32866,"lng":-75.87824,"population":4160},{"id":3665986,"name":"Villahermosa","timezone":{"dstOffset":-5,"gmtOffset":-5,"timeZoneId":"America/Bogota"},"lat":5.03067,"lng":-75.11607,"population":4155},{"id":3689187,"name":"Barichara","timezone":{"dstOffset":-5,"gmtOffset":-5,"timeZoneId":"America/Bogota"},"lat":6.63572,"lng":-73.22282,"population":4149},{"id":3667386,"name":"Tarqui","timezone":{"dstOffset":-5,"gmtOffset":-5,"timeZoneId":"America/Bogota"},"lat":2.11248,"lng":-75.82419,"population":4144},{"id":3670352,"name":"Salento","timezone":{"dstOffset":-5,"gmtOffset":-5,"timeZoneId":"America/Bogota"},"lat":4.6375,"lng":-75.57028,"population":4135},{"id":3671901,"name":"Pore","timezone":{"dstOffset":-5,"gmtOffset":-5,"timeZoneId":"America/Bogota"},"lat":5.72992,"lng":-72.00159,"population":4133},{"id":3689450,"name":"Ataco","timezone":{"dstOffset":-5,"gmtOffset":-5,"timeZoneId":"America/Bogota"},"lat":3.59147,"lng":-75.38178,"population":4105},{"id":3681997,"name":"Gómez Plata","timezone":{"dstOffset":-5,"gmtOffset":-5,"timeZoneId":"America/Bogota"},"lat":6.68178,"lng":-75.21906,"population":4097},{"id":3792398,"name":"Puerto Guzmán","timezone":{"dstOffset":-5,"gmtOffset":-5,"timeZoneId":"America/Bogota"},"lat":0.97028,"lng":-76.58583,"population":4094},{"id":3667760,"name":"Subachoque","timezone":{"dstOffset":-5,"gmtOffset":-5,"timeZoneId":"America/Bogota"},"lat":4.92614,"lng":-74.17299,"population":4088},{"id":3781883,"name":"Gachetá","timezone":{"dstOffset":-5,"gmtOffset":-5,"timeZoneId":"America/Bogota"},"lat":4.81854,"lng":-73.63659,"population":4088},{"id":3671020,"name":"Apulo","timezone":{"dstOffset":-5,"gmtOffset":-5,"timeZoneId":"America/Bogota"},"lat":4.51952,"lng":-74.59293,"population":4084},{"id":3666025,"name":"Vijes","timezone":{"dstOffset":-5,"gmtOffset":-5,"timeZoneId":"America/Bogota"},"lat":3.69934,"lng":-76.4423,"population":4070},{"id":3685900,"name":"Córdoba","timezone":{"dstOffset":-5,"gmtOffset":-5,"timeZoneId":"America/Bogota"},"lat":4.39318,"lng":-75.68935,"population":4063},{"id":3671308,"name":"Puerto Triunfo","timezone":{"dstOffset":-5,"gmtOffset":-5,"timeZoneId":"America/Bogota"},"lat":5.87262,"lng":-74.64029,"population":4055},{"id":3681756,"name":"Guachucal","timezone":{"dstOffset":-5,"gmtOffset":-5,"timeZoneId":"America/Bogota"},"lat":0.96093,"lng":-77.7316,"population":4014},{"id":3673143,"name":"Palmito","timezone":{"dstOffset":-5,"gmtOffset":-5,"timeZoneId":"America/Bogota"},"lat":9.33333,"lng":-75.55,"population":3992},{"id":3667244,"name":"Tesalia","timezone":{"dstOffset":-5,"gmtOffset":-5,"timeZoneId":"America/Bogota"},"lat":2.48587,"lng":-75.72921,"population":3981},{"id":3671848,"name":"Potosí","timezone":{"dstOffset":-5,"gmtOffset":-5,"timeZoneId":"America/Bogota"},"lat":0.80739,"lng":-77.57216,"population":3979},{"id":3673637,"name":"Oiba","timezone":{"dstOffset":-5,"gmtOffset":-5,"timeZoneId":"America/Bogota"},"lat":6.26388,"lng":-73.29876,"population":3959},{"id":3672123,"name":"Pital","timezone":{"dstOffset":-5,"gmtOffset":-5,"timeZoneId":"America/Bogota"},"lat":2.2665,"lng":-75.80442,"population":3957},{"id":3667007,"name":"Toca","timezone":{"dstOffset":-5,"gmtOffset":-5,"timeZoneId":"America/Bogota"},"lat":5.56392,"lng":-73.18398,"population":3946},{"id":3680531,"name":"Íquira","timezone":{"dstOffset":-5,"gmtOffset":-5,"timeZoneId":"America/Bogota"},"lat":2.64867,"lng":-75.63457,"population":3942},{"id":3688991,"name":"Belén de los Andaquíes","timezone":{"dstOffset":-5,"gmtOffset":-5,"timeZoneId":"America/Bogota"},"lat":1.41828,"lng":-75.87754,"population":3937},{"id":3667247,"name":"Teruel","timezone":{"dstOffset":-5,"gmtOffset":-5,"timeZoneId":"America/Bogota"},"lat":2.74193,"lng":-75.56738,"population":3921},{"id":3678000,"name":"La Primavera","timezone":{"dstOffset":-5,"gmtOffset":-5,"timeZoneId":"America/Bogota"},"lat":5.49056,"lng":-70.40917,"population":3920},{"id":3670629,"name":"Roncesvalles","timezone":{"dstOffset":-5,"gmtOffset":-5,"timeZoneId":"America/Bogota"},"lat":4.0108,"lng":-75.60493,"population":3918},{"id":3666887,"name":"Toribío","timezone":{"dstOffset":-5,"gmtOffset":-5,"timeZoneId":"America/Bogota"},"lat":2.95481,"lng":-76.26839,"population":3911},{"id":3665792,"name":"Yalí","timezone":{"dstOffset":-5,"gmtOffset":-5,"timeZoneId":"America/Bogota"},"lat":6.67456,"lng":-74.8343,"population":3908},{"id":3685708,"name":"Coyaima","timezone":{"dstOffset":-5,"gmtOffset":-5,"timeZoneId":"America/Bogota"},"lat":3.79936,"lng":-75.19467,"population":3893},{"id":3686460,"name":"Chitagá","timezone":{"dstOffset":-5,"gmtOffset":-5,"timeZoneId":"America/Bogota"},"lat":7.13781,"lng":-72.66456,"population":3871},{"id":3667290,"name":"Tenjo","timezone":{"dstOffset":-5,"gmtOffset":-5,"timeZoneId":"America/Bogota"},"lat":4.8727,"lng":-74.14435,"population":3858},{"id":3678415,"name":"La Merced","timezone":{"dstOffset":-5,"gmtOffset":-5,"timeZoneId":"America/Bogota"},"lat":5.40194,"lng":-75.88472,"population":3851},{"id":3671576,"name":"Puerres","timezone":{"dstOffset":-5,"gmtOffset":-5,"timeZoneId":"America/Bogota"},"lat":1.19374,"lng":-77.26661,"population":3812},{"id":3688855,"name":"Betania","timezone":{"dstOffset":-5,"gmtOffset":-5,"timeZoneId":"America/Bogota"},"lat":5.746,"lng":-75.97765,"population":3800},{"id":3687490,"name":"Capitanejo","timezone":{"dstOffset":-5,"gmtOffset":-5,"timeZoneId":"America/Bogota"},"lat":6.52881,"lng":-72.69595,"population":3791},{"id":3667023,"name":"Titiribí","timezone":{"dstOffset":-5,"gmtOffset":-5,"timeZoneId":"America/Bogota"},"lat":6.06276,"lng":-75.7937,"population":3787},{"id":3685903,"name":"Córdoba","timezone":{"dstOffset":-5,"gmtOffset":-5,"timeZoneId":"America/Bogota"},"lat":0.85905,"lng":-77.5195,"population":3784},{"id":3792396,"name":"La Tola","timezone":{"dstOffset":-5,"gmtOffset":-5,"timeZoneId":"America/Bogota"},"lat":2.41083,"lng":-78.24278,"population":3769},{"id":3666291,"name":"Valparaíso","timezone":{"dstOffset":-5,"gmtOffset":-5,"timeZoneId":"America/Bogota"},"lat":1.19512,"lng":-75.70705,"population":3767},{"id":3686065,"name":"Colosó","timezone":{"dstOffset":-5,"gmtOffset":-5,"timeZoneId":"America/Bogota"},"lat":9.4915,"lng":-75.36145,"population":3749},{"id":3688775,"name":"Boavita","timezone":{"dstOffset":-5,"gmtOffset":-5,"timeZoneId":"America/Bogota"},"lat":6.33031,"lng":-72.58505,"population":3749},{"id":3687975,"name":"Calamar","timezone":{"dstOffset":-5,"gmtOffset":-5,"timeZoneId":"America/Bogota"},"lat":1.9596,"lng":-72.65315,"population":3745},{"id":3671337,"name":"Puerto Rondón","timezone":{"dstOffset":-5,"gmtOffset":-5,"timeZoneId":"America/Bogota"},"lat":6.28048,"lng":-71.1,"population":3724},{"id":3665949,"name":"Villanueva","timezone":{"dstOffset":-5,"gmtOffset":-5,"timeZoneId":"America/Bogota"},"lat":6.67169,"lng":-73.1742,"population":3707},{"id":3676417,"name":"López","timezone":{"dstOffset":-5,"gmtOffset":-5,"timeZoneId":"America/Bogota"},"lat":2.43333,"lng":-76.8,"population":3699},{"id":3670303,"name":"Samacá","timezone":{"dstOffset":-5,"gmtOffset":-5,"timeZoneId":"America/Bogota"},"lat":5.49274,"lng":-73.48537,"population":3689},{"id":3672633,"name":"Pedraza","timezone":{"dstOffset":-5,"gmtOffset":-5,"timeZoneId":"America/Bogota"},"lat":10.18739,"lng":-74.91504,"population":3677},{"id":3676661,"name":"Leiva","timezone":{"dstOffset":-5,"gmtOffset":-5,"timeZoneId":"America/Bogota"},"lat":1.93389,"lng":-77.30253,"population":3668},{"id":3681029,"name":"Hatillo de Loba","timezone":{"dstOffset":-5,"gmtOffset":-5,"timeZoneId":"America/Bogota"},"lat":8.95635,"lng":-74.0782,"population":3639},{"id":3689870,"name":"Angostura","timezone":{"dstOffset":-5,"gmtOffset":-5,"timeZoneId":"America/Bogota"},"lat":6.88508,"lng":-75.33467,"population":3639},{"id":3666287,"name":"Valparaíso","timezone":{"dstOffset":-5,"gmtOffset":-5,"timeZoneId":"America/Bogota"},"lat":5.615,"lng":-75.62422,"population":3626},{"id":3689507,"name":"Arroyohondo","timezone":{"dstOffset":-5,"gmtOffset":-5,"timeZoneId":"America/Bogota"},"lat":10.2522,"lng":-75.0198,"population":3622},{"id":3682299,"name":"Fuente de Oro","timezone":{"dstOffset":-5,"gmtOffset":-5,"timeZoneId":"America/Bogota"},"lat":3.46263,"lng":-73.62162,"population":3609},{"id":3673475,"name":"Otanche","timezone":{"dstOffset":-5,"gmtOffset":-5,"timeZoneId":"America/Bogota"},"lat":5.65672,"lng":-74.18249,"population":3589},{"id":3681966,"name":"Gramalote","timezone":{"dstOffset":-5,"gmtOffset":-5,"timeZoneId":"America/Bogota"},"lat":7.88752,"lng":-72.79749,"population":3577},{"id":3775262,"name":"Quípama","timezone":{"dstOffset":-5,"gmtOffset":-5,"timeZoneId":"America/Bogota"},"lat":5.5194,"lng":-74.17765,"population":3571},{"id":3671765,"name":"Prado","timezone":{"dstOffset":-5,"gmtOffset":-5,"timeZoneId":"America/Bogota"},"lat":3.75024,"lng":-74.92932,"population":3556},{"id":3671018,"name":"Ragonvalia","timezone":{"dstOffset":-5,"gmtOffset":-5,"timeZoneId":"America/Bogota"},"lat":7.57749,"lng":-72.47574,"population":3543},{"id":3666102,"name":"Versalles","timezone":{"dstOffset":-5,"gmtOffset":-5,"timeZoneId":"America/Bogota"},"lat":4.57544,"lng":-76.19814,"population":3542},{"id":3680641,"name":"Icononzo","timezone":{"dstOffset":-5,"gmtOffset":-5,"timeZoneId":"America/Bogota"},"lat":4.17698,"lng":-74.53254,"population":3540},{"id":3681404,"name":"Guasca","timezone":{"dstOffset":-5,"gmtOffset":-5,"timeZoneId":"America/Bogota"},"lat":4.86601,"lng":-73.87748,"population":3540},{"id":3667211,"name":"Tibasosa","timezone":{"dstOffset":-5,"gmtOffset":-5,"timeZoneId":"America/Bogota"},"lat":5.75,"lng":-73,"population":3535},{"id":3673126,"name":"Palocabildo","timezone":{"dstOffset":-5,"gmtOffset":-5,"timeZoneId":"America/Bogota"},"lat":5.11705,"lng":-75.01732,"population":3534},{"id":3687933,"name":"Caldono","timezone":{"dstOffset":-5,"gmtOffset":-5,"timeZoneId":"America/Bogota"},"lat":2.7974,"lng":-76.48316,"population":3517},{"id":3676540,"name":"Linares","timezone":{"dstOffset":-5,"gmtOffset":-5,"timeZoneId":"America/Bogota"},"lat":1.35783,"lng":-77.52725,"population":3512},{"id":3685961,"name":"Contratación","timezone":{"dstOffset":-5,"gmtOffset":-5,"timeZoneId":"America/Bogota"},"lat":6.29005,"lng":-73.47354,"population":3505},{"id":3680880,"name":"Herveo","timezone":{"dstOffset":-5,"gmtOffset":-5,"timeZoneId":"America/Bogota"},"lat":5.08333,"lng":-75.16667,"population":3490},{"id":3678328,"name":"Landázuri","timezone":{"dstOffset":-5,"gmtOffset":-5,"timeZoneId":"America/Bogota"},"lat":6.21826,"lng":-73.81121,"population":3483},{"id":3689611,"name":"Argelia","timezone":{"dstOffset":-5,"gmtOffset":-5,"timeZoneId":"America/Bogota"},"lat":5.73127,"lng":-75.14257,"population":3474},{"id":3674293,"name":"Mosquera","timezone":{"dstOffset":-5,"gmtOffset":-5,"timeZoneId":"America/Bogota"},"lat":2.50861,"lng":-78.4511,"population":3471},{"id":3685069,"name":"Durania","timezone":{"dstOffset":-5,"gmtOffset":-5,"timeZoneId":"America/Bogota"},"lat":7.71307,"lng":-72.65759,"population":3470},{"id":3676868,"name":"La Vega","timezone":{"dstOffset":-5,"gmtOffset":-5,"timeZoneId":"America/Bogota"},"lat":2.00628,"lng":-76.78028,"population":3469},{"id":3827693,"name":"La Macarena","timezone":{"dstOffset":-5,"gmtOffset":-5,"timeZoneId":"America/Bogota"},"lat":2.18367,"lng":-73.78485,"population":3466},{"id":3682633,"name":"Entrerríos","timezone":{"dstOffset":-5,"gmtOffset":-5,"timeZoneId":"America/Bogota"},"lat":6.5654,"lng":-75.5169,"population":3462},{"id":3783663,"name":"San Carlos","timezone":{"dstOffset":-5,"gmtOffset":-5,"timeZoneId":"America/Bogota"},"lat":8.74372,"lng":-75.71331,"population":3447},{"id":3674640,"name":"Mogotes","timezone":{"dstOffset":-5,"gmtOffset":-5,"timeZoneId":"America/Bogota"},"lat":6.47559,"lng":-72.97046,"population":3438},{"id":3689613,"name":"Argelia","timezone":{"dstOffset":-5,"gmtOffset":-5,"timeZoneId":"America/Bogota"},"lat":4.72342,"lng":-76.11909,"population":3418},{"id":3685345,"name":"Curití","timezone":{"dstOffset":-5,"gmtOffset":-5,"timeZoneId":"America/Bogota"},"lat":6.60519,"lng":-73.06809,"population":3417},{"id":3666333,"name":"Valdivia","timezone":{"dstOffset":-5,"gmtOffset":-5,"timeZoneId":"America/Bogota"},"lat":7.28889,"lng":-75.39778,"population":3398},{"id":3672176,"name":"Piojó","timezone":{"dstOffset":-5,"gmtOffset":-5,"timeZoneId":"America/Bogota"},"lat":10.74846,"lng":-75.10776,"population":3388},{"id":3670910,"name":"Regidor","timezone":{"dstOffset":-5,"gmtOffset":-5,"timeZoneId":"America/Bogota"},"lat":8.66565,"lng":-73.82151,"population":3386},{"id":3688009,"name":"Cajibío","timezone":{"dstOffset":-5,"gmtOffset":-5,"timeZoneId":"America/Bogota"},"lat":2.62271,"lng":-76.57039,"population":3365},{"id":3792387,"name":"El Retorno","timezone":{"dstOffset":-5,"gmtOffset":-5,"timeZoneId":"America/Bogota"},"lat":2.33022,"lng":-72.62765,"population":3362},{"id":3673829,"name":"Nobsa","timezone":{"dstOffset":-5,"gmtOffset":-5,"timeZoneId":"America/Bogota"},"lat":5.76978,"lng":-72.94099,"population":3360},{"id":3669718,"name":"San Jerónimo","timezone":{"dstOffset":-5,"gmtOffset":-5,"timeZoneId":"America/Bogota"},"lat":6.44344,"lng":-75.72815,"population":3356},{"id":3667892,"name":"Socha Viejo","timezone":{"dstOffset":-5,"gmtOffset":-5,"timeZoneId":"America/Bogota"},"lat":5.9817,"lng":-72.71503,"population":3353},{"id":3667447,"name":"Tangua","timezone":{"dstOffset":-5,"gmtOffset":-5,"timeZoneId":"America/Bogota"},"lat":1.09473,"lng":-77.39482,"population":3348},{"id":3738301,"name":"El Tarra","timezone":{"dstOffset":-5,"gmtOffset":-5,"timeZoneId":"America/Bogota"},"lat":8.57562,"lng":-73.09489,"population":3336},{"id":3671714,"name":"Providencia","timezone":{"dstOffset":-5,"gmtOffset":-5,"timeZoneId":"America/Bogota"},"lat":1.56976,"lng":-77.464,"population":3326},{"id":3683180,"name":"El Roble","timezone":{"dstOffset":-5,"gmtOffset":-5,"timeZoneId":"America/Bogota"},"lat":9.10194,"lng":-75.19508,"population":3324},{"id":3678363,"name":"La Montañita","timezone":{"dstOffset":-5,"gmtOffset":-5,"timeZoneId":"America/Bogota"},"lat":1.4766,"lng":-75.4398,"population":3305},