[{"id":3657509,"name":"Guayaquil","timezone":{"dstOffset":-5,"gmtOffset":-5,"timeZoneId":"America/Guayaquil"},"lat":-2.20584,"lng":-79.90795,"population":1952029},{"id":3652462,"name":"Quito","timezone":{"dstOffset":-5,"gmtOffset":-5,"timeZoneId":"America/Guayaquil"},"lat":-0.22985,"lng":-78.52495,"population":1399814},{"id":3658666,"name":"Cuenca","timezone":{"dstOffset":-5,"gmtOffset":-5,"timeZoneId":"America/Guayaquil"},"lat":-2.90054,"lng":-79.00453,"population":276964},{"id":3651297,"name":"Santo Domingo de los Colorados","timezone":{"dstOffset":-5,"gmtOffset":-5,"timeZoneId":"America/Guayaquil"},"lat":-0.25305,"lng":-79.17536,"population":200421},{"id":3654533,"name":"Machala","timezone":{"dstOffset":-5,"gmtOffset":-5,"timeZoneId":"America/Guayaquil"},"lat":-3.25861,"lng":-79.96054,"population":198123},{"id":3654410,"name":"Manta","timezone":{"dstOffset":-5,"gmtOffset":-5,"timeZoneId":"America/Guayaquil"},"lat":-0.96212,"lng":-80.71271,"population":183166},{"id":3652941,"name":"Portoviejo","timezone":{"dstOffset":-5,"gmtOffset":-5,"timeZoneId":"America/Guayaquil"},"lat":-1.05458,"lng":-80.45445,"population":170326},{"id":3658192,"name":"Durán","timezone":{"dstOffset":-5,"gmtOffset":-5,"timeZoneId":"America/Guayaquil"},"lat":-2.17579,"lng":-79.85519,"population":167784},{"id":3657990,"name":"Esmeraldas","timezone":{"dstOffset":-5,"gmtOffset":-5,"timeZoneId":"America/Guayaquil"},"lat":0.9592,"lng":-79.65397,"population":165216},{"id":3660689,"name":"Ambato","timezone":{"dstOffset":-5,"gmtOffset":-5,"timeZoneId":"America/Guayaquil"},"lat":-1.24908,"lng":-78.61675,"population":154369},{"id":3655673,"name":"Ibarra","timezone":{"dstOffset":-5,"gmtOffset":-5,"timeZoneId":"America/Guayaquil"},"lat":0.35171,"lng":-78.12233,"population":132977},{"id":3652350,"name":"Riobamba","timezone":{"dstOffset":-5,"gmtOffset":-5,"timeZoneId":"America/Guayaquil"},"lat":-1.67098,"lng":-78.64712,"population":124478},{"id":3652567,"name":"Quevedo","timezone":{"dstOffset":-5,"gmtOffset":-5,"timeZoneId":"America/Guayaquil"},"lat":-1.02863,"lng":-79.46352,"population":119436},{"id":3654667,"name":"Loja","timezone":{"dstOffset":-5,"gmtOffset":-5,"timeZoneId":"America/Guayaquil"},"lat":-3.99313,"lng":-79.20422,"population":117796},{"id":3650472,"name":"Tulcán","timezone":{"dstOffset":-5,"gmtOffset":-5,"timeZoneId":"America/Guayaquil"},"lat":0.81187,"lng":-77.71727,"population":86498},{"id":3660418,"name":"Babahoyo","timezone":{"dstOffset":-5,"gmtOffset":-5,"timeZoneId":"America/Guayaquil"},"lat":-1.80217,"lng":-79.53443,"population":76279},{"id":3655131,"name":"La Libertad","timezone":{"dstOffset":-5,"gmtOffset":-5,"timeZoneId":"America/Guayaquil"},"lat":-2.233,"lng":-80.91039,"population":75881},{"id":3654870,"name":"Latacunga","timezone":{"dstOffset":-5,"gmtOffset":-5,"timeZoneId":"America/Guayaquil"},"lat":-0.93521,"lng":-78.61554,"population":51717},{"id":3650273,"name":"Velasco Ibarra","timezone":{"dstOffset":-5,"gmtOffset":-5,"timeZoneId":"America/Guayaquil"},"lat":-1.04376,"lng":-79.63837,"population":48754},{"id":3652743,"name":"Puerto Francisco de Orellana","timezone":{"dstOffset":-5,"gmtOffset":-5,"timeZoneId":"America/Guayaquil"},"lat":-0.46645,"lng":-76.98719,"population":48144},{"id":3650267,"name":"Ventanas","timezone":{"dstOffset":-5,"gmtOffset":-5,"timeZoneId":"America/Guayaquil"},"lat":-1.44158,"lng":-79.45943,"population":46708},{"id":3653403,"name":"Pasaje","timezone":{"dstOffset":-5,"gmtOffset":-5,"timeZoneId":"America/Guayaquil"},"lat":-3.32561,"lng":-79.80697,"population":44860},{"id":3659139,"name":"Chone","timezone":{"dstOffset":-5,"gmtOffset":-5,"timeZoneId":"America/Guayaquil"},"lat":-0.69819,"lng":-80.09361,"population":44751},{"id":3652100,"name":"Salinas","timezone":{"dstOffset":-5,"gmtOffset":-5,"timeZoneId":"America/Guayaquil"},"lat":-2.21452,"lng":-80.95151,"population":43862},{"id":3651438,"name":"Santa Elena","timezone":{"dstOffset":-5,"gmtOffset":-5,"timeZoneId":"America/Guayaquil"},"lat":-2.22622,"lng":-80.85872,"population":42214},{"id":3652257,"name":"Rosa Zarate","timezone":{"dstOffset":-5,"gmtOffset":-5,"timeZoneId":"America/Guayaquil"},"lat":0.32779,"lng":-79.47407,"population":42121},{"id":3651356,"name":"Santa Rosa","timezone":{"dstOffset":-5,"gmtOffset":-5,"timeZoneId":"America/Guayaquil"},"lat":-3.44882,"lng":-79.95952,"population":41816},{"id":3660361,"name":"Balzar","timezone":{"dstOffset":-5,"gmtOffset":-5,"timeZoneId":"America/Guayaquil"},"lat":-1.36501,"lng":-79.90494,"population":40115},{"id":3655720,"name":"Huaquillas","timezone":{"dstOffset":-5,"gmtOffset":-5,"timeZoneId":"America/Guayaquil"},"lat":-3.47523,"lng":-80.23084,"population":39757},{"id":3660401,"name":"Bahía de Caráquez","timezone":{"dstOffset":-5,"gmtOffset":-5,"timeZoneId":"America/Guayaquil"},"lat":-0.59792,"lng":-80.42367,"population":37056},{"id":3654853,"name":"La Troncal","timezone":{"dstOffset":-5,"gmtOffset":-5,"timeZoneId":"America/Guayaquil"},"lat":-2.42355,"lng":-79.33977,"population":36353},{"id":3655446,"name":"Jipijapa","timezone":{"dstOffset":-5,"gmtOffset":-5,"timeZoneId":"America/Guayaquil"},"lat":-1.34872,"lng":-80.57875,"population":35901},{"id":3660434,"name":"Azogues","timezone":{"dstOffset":-5,"gmtOffset":-5,"timeZoneId":"America/Guayaquil"},"lat":-2.73969,"lng":-78.8486,"population":34877},{"id":3653873,"name":"Naranjito","timezone":{"dstOffset":-5,"gmtOffset":-5,"timeZoneId":"America/Guayaquil"},"lat":-2.16671,"lng":-79.4654,"population":34206},{"id":3650186,"name":"Vinces","timezone":{"dstOffset":-5,"gmtOffset":-5,"timeZoneId":"America/Guayaquil"},"lat":-1.55611,"lng":-79.75191,"population":32497},{"id":3653693,"name":"Otavalo","timezone":{"dstOffset":-5,"gmtOffset":-5,"timeZoneId":"America/Guayaquil"},"lat":0.23457,"lng":-78.26248,"population":32330},{"id":3658053,"name":"El Triunfo","timezone":{"dstOffset":-5,"gmtOffset":-5,"timeZoneId":"America/Guayaquil"},"lat":-1.93333,"lng":-79.96667,"population":32282},{"id":3653882,"name":"Naranjal","timezone":{"dstOffset":-5,"gmtOffset":-5,"timeZoneId":"America/Guayaquil"},"lat":-2.67364,"lng":-79.6183,"population":32045},{"id":3653015,"name":"Playas","timezone":{"dstOffset":-5,"gmtOffset":-5,"timeZoneId":"America/Guayaquil"},"lat":-2.63199,"lng":-80.38808,"population":30564},{"id":3650121,"name":"Yaguachi Nuevo","timezone":{"dstOffset":-5,"gmtOffset":-5,"timeZoneId":"America/Guayaquil"},"lat":-2.0968,"lng":-79.69485,"population":27947},{"id":3659578,"name":"Cayambe","timezone":{"dstOffset":-5,"gmtOffset":-5,"timeZoneId":"America/Guayaquil"},"lat":0.04084,"lng":-78.14524,"population":26582},{"id":3654536,"name":"Machachi","timezone":{"dstOffset":-5,"gmtOffset":-5,"timeZoneId":"America/Guayaquil"},"lat":-0.51011,"lng":-78.56712,"population":25742},{"id":3652584,"name":"Puyo","timezone":{"dstOffset":-5,"gmtOffset":-5,"timeZoneId":"America/Guayaquil"},"lat":-1.48369,"lng":-78.00257,"population":24881},{"id":3655185,"name":"Nueva Loja","timezone":{"dstOffset":-5,"gmtOffset":-5,"timeZoneId":"America/Guayaquil"},"lat":0.086,"lng":-76.89528,"population":24211},{"id":3652065,"name":"Samborondón","timezone":{"dstOffset":-5,"gmtOffset":-5,"timeZoneId":"America/Guayaquil"},"lat":-1.96276,"lng":-79.72402,"population":24118},{"id":3654541,"name":"Macas","timezone":{"dstOffset":-5,"gmtOffset":-5,"timeZoneId":"America/Guayaquil"},"lat":-2.30868,"lng":-78.11135,"population":23687},{"id":3653295,"name":"Pedro Carbo","timezone":{"dstOffset":-5,"gmtOffset":-5,"timeZoneId":"America/Guayaquil"},"lat":-1.81563,"lng":-80.23308,"population":23372},{"id":3657571,"name":"Guaranda","timezone":{"dstOffset":-5,"gmtOffset":-5,"timeZoneId":"America/Guayaquil"},"lat":-1.59263,"lng":-79.00098,"population":22199},{"id":3660152,"name":"Boca Suno","timezone":{"dstOffset":-5,"gmtOffset":-5,"timeZoneId":"America/Guayaquil"},"lat":-0.69832,"lng":-77.14083,"population":20313},{"id":3651694,"name":"San Lorenzo de Esmeraldas","timezone":{"dstOffset":-5,"gmtOffset":-5,"timeZoneId":"America/Guayaquil"},"lat":1.28626,"lng":-78.83514,"population":20209},{"id":3659599,"name":"Catamayo","timezone":{"dstOffset":-5,"gmtOffset":-5,"timeZoneId":"America/Guayaquil"},"lat":-3.98652,"lng":-79.35912,"population":18565},{"id":3654055,"name":"Montecristi","timezone":{"dstOffset":-5,"gmtOffset":-5,"timeZoneId":"America/Guayaquil"},"lat":-1.04576,"lng":-80.65889,"population":18351},{"id":3660478,"name":"Atuntaqui","timezone":{"dstOffset":-5,"gmtOffset":-5,"timeZoneId":"America/Guayaquil"},"lat":0.33247,"lng":-78.21371,"population":17456},{"id":3659926,"name":"Calceta","timezone":{"dstOffset":-5,"gmtOffset":-5,"timeZoneId":"America/Guayaquil"},"lat":-0.84582,"lng":-80.16389,"population":17286},{"id":3650721,"name":"Tena","timezone":{"dstOffset":-5,"gmtOffset":-5,"timeZoneId":"America/Guayaquil"},"lat":-0.9938,"lng":-77.81286,"population":17172},{"id":3657670,"name":"Gualaceo","timezone":{"dstOffset":-5,"gmtOffset":-5,"timeZoneId":"America/Guayaquil"},"lat":-2.89264,"lng":-78.77814,"population":17122},{"id":3653130,"name":"Piñas","timezone":{"dstOffset":-5,"gmtOffset":-5,"timeZoneId":"America/Guayaquil"},"lat":-3.68107,"lng":-79.68083,"population":16981},{"id":3659711,"name":"Cariamanga","timezone":{"dstOffset":-5,"gmtOffset":-5,"timeZoneId":"America/Guayaquil"},"lat":-4.32796,"lng":-79.55554,"population":16862},{"id":3653287,"name":"Pelileo","timezone":{"dstOffset":-5,"gmtOffset":-5,"timeZoneId":"America/Guayaquil"},"lat":-1.3299,"lng":-78.5434,"population":16572},{"id":3655117,"name":"La Maná","timezone":{"dstOffset":-5,"gmtOffset":-5,"timeZoneId":"America/Guayaquil"},"lat":-0.94094,"lng":-79.22506,"population":16450},{"id":3652684,"name":"Pujilí","timezone":{"dstOffset":-5,"gmtOffset":-5,"timeZoneId":"America/Guayaquil"},"lat":-0.95759,"lng":-78.69636,"population":16168},{"id":3654064,"name":"Montalvo","timezone":{"dstOffset":-5,"gmtOffset":-5,"timeZoneId":"America/Guayaquil"},"lat":-1.79008,"lng":-79.28759,"population":15547},{"id":3650960,"name":"Sucre","timezone":{"dstOffset":-5,"gmtOffset":-5,"timeZoneId":"America/Guayaquil"},"lat":-1.27974,"lng":-80.41885,"population":15286},{"id":3649959,"name":"Zamora","timezone":{"dstOffset":-5,"gmtOffset":-5,"timeZoneId":"America/Guayaquil"},"lat":-4.06685,"lng":-78.95488,"population":15276},{"id":3651868,"name":"San Gabriel","timezone":{"dstOffset":-5,"gmtOffset":-5,"timeZoneId":"America/Guayaquil"},"lat":0.59318,"lng":-77.83078,"population":15112},{"id":3650554,"name":"Tosagua","timezone":{"dstOffset":-5,"gmtOffset":-5,"timeZoneId":"America/Guayaquil"},"lat":-0.78679,"lng":-80.23473,"population":14680},{"id":3660798,"name":"Alausí","timezone":{"dstOffset":-5,"gmtOffset":-5,"timeZoneId":"America/Guayaquil"},"lat":-2.20329,"lng":-78.84714,"population":14294},{"id":3653967,"name":"Muisne","timezone":{"dstOffset":-5,"gmtOffset":-5,"timeZoneId":"America/Guayaquil"},"lat":0.61129,"lng":-80.01863,"population":13393},{"id":3654545,"name":"Macará","timezone":{"dstOffset":-5,"gmtOffset":-5,"timeZoneId":"America/Guayaquil"},"lat":-4.38181,"lng":-79.9437,"population":13035},{"id":3651495,"name":"Santa Ana","timezone":{"dstOffset":-5,"gmtOffset":-5,"timeZoneId":"America/Guayaquil"},"lat":-1.20726,"lng":-80.37132,"population":12833},{"id":3657594,"name":"Guano","timezone":{"dstOffset":-5,"gmtOffset":-5,"timeZoneId":"America/Guayaquil"},"lat":-1.60789,"lng":-78.63105,"population":12659},{"id":3660773,"name":"Alfredo Baquerizo Moreno","timezone":{"dstOffset":-5,"gmtOffset":-5,"timeZoneId":"America/Guayaquil"},"lat":-1.91667,"lng":-79.51667,"population":12617},{"id":3651639,"name":"San Miguel","timezone":{"dstOffset":-5,"gmtOffset":-5,"timeZoneId":"America/Guayaquil"},"lat":-1.70884,"lng":-79.04311,"population":12575},{"id":3651411,"name":"Santa Lucía","timezone":{"dstOffset":-5,"gmtOffset":-5,"timeZoneId":"America/Guayaquil"},"lat":-2.18333,"lng":-80,"population":12523},{"id":3649914,"name":"Zaruma","timezone":{"dstOffset":-5,"gmtOffset":-5,"timeZoneId":"America/Guayaquil"},"lat":-3.69132,"lng":-79.61174,"population":12505},{"id":3660387,"name":"Baláo","timezone":{"dstOffset":-5,"gmtOffset":-5,"timeZoneId":"America/Guayaquil"},"lat":-2.911,"lng":-79.81441,"population":12205},{"id":3650312,"name":"Valdez","timezone":{"dstOffset":-5,"gmtOffset":-5,"timeZoneId":"America/Guayaquil"},"lat":1.24917,"lng":-78.98306,"population":11441},{"id":3659602,"name":"Catacocha","timezone":{"dstOffset":-5,"gmtOffset":-5,"timeZoneId":"America/Guayaquil"},"lat":-4.04974,"lng":-79.64944,"population":10872},{"id":3651613,"name":"San Miguel de Salcedo","timezone":{"dstOffset":-5,"gmtOffset":-5,"timeZoneId":"America/Guayaquil"},"lat":-1.04547,"lng":-78.59062,"population":10838},{"id":3652315,"name":"Rocafuerte","timezone":{"dstOffset":-5,"gmtOffset":-5,"timeZoneId":"America/Guayaquil"},"lat":-0.9236,"lng":-80.44946,"population":10274},{"id":3650053,"name":"Yantzaza","timezone":{"dstOffset":-5,"gmtOffset":-5,"timeZoneId":"America/Guayaquil"},"lat":-3.83261,"lng":-78.76076,"population":9970},{"id":3659852,"name":"Cañar","timezone":{"dstOffset":-5,"gmtOffset":-5,"timeZoneId":"America/Guayaquil"},"lat":-2.56062,"lng":-78.9394,"population":9900},{"id":3659592,"name":"Catarama","timezone":{"dstOffset":-5,"gmtOffset":-5,"timeZoneId":"America/Guayaquil"},"lat":-1.57504,"lng":-79.45998,"population":9723},{"id":3652943,"name":"Portovelo","timezone":{"dstOffset":-5,"gmtOffset":-5,"timeZoneId":"America/Guayaquil"},"lat":-3.72145,"lng":-79.62187,"population":9708},{"id":3660346,"name":"Baños","timezone":{"dstOffset":-5,"gmtOffset":-5,"timeZoneId":"America/Guayaquil"},"lat":-1.39699,"lng":-78.42289,"population":9501},{"id":3658948,"name":"Colimes","timezone":{"dstOffset":-5,"gmtOffset":-5,"timeZoneId":"America/Guayaquil"},"lat":-1.54553,"lng":-80.01164,"population":9384},{"id":3653581,"name":"Palestina","timezone":{"dstOffset":-5,"gmtOffset":-5,"timeZoneId":"America/Guayaquil"},"lat":-1.93709,"lng":-79.71396,"population":9364},{"id":3653609,"name":"Paján","timezone":{"dstOffset":-5,"gmtOffset":-5,"timeZoneId":"America/Guayaquil"},"lat":-1.55238,"lng":-80.42958,"population":9183},{"id":3655385,"name":"Junín","timezone":{"dstOffset":-5,"gmtOffset":-5,"timeZoneId":"America/Guayaquil"},"lat":-0.92777,"lng":-80.20583,"population":9128},{"id":3653587,"name":"Palenque","timezone":{"dstOffset":-5,"gmtOffset":-5,"timeZoneId":"America/Guayaquil"},"lat":-1.43795,"lng":-79.75647,"population":9083},{"id":3652764,"name":"Puerto Ayora","timezone":{"dstOffset":-6,"gmtOffset":-6,"timeZoneId":"Pacific/Galapagos"},"lat":-0.74018,"lng":-90.3138,"population":8996},{"id":3652757,"name":"Puerto Bolivar","timezone":{"dstOffset":-5,"gmtOffset":-5,"timeZoneId":"America/Guayaquil"},"lat":-3.26649,"lng":-79.99749,"population":8300},{"id":3658781,"name":"Cotacachi","timezone":{"dstOffset":-5,"gmtOffset":-5,"timeZoneId":"America/Guayaquil"},"lat":0.30107,"lng":-78.26428,"population":8238},{"id":3654650,"name":"Lomas de Sargentillo","timezone":{"dstOffset":-5,"gmtOffset":-5,"timeZoneId":"America/Guayaquil"},"lat":-1.88333,"lng":-80.08333,"population":7542},{"id":3653159,"name":"Píllaro","timezone":{"dstOffset":-5,"gmtOffset":-5,"timeZoneId":"America/Guayaquil"},"lat":-1.17414,"lng":-78.54676,"population":7462},{"id":3650956,"name":"Sucúa","timezone":{"dstOffset":-5,"gmtOffset":-5,"timeZoneId":"America/Guayaquil"},"lat":-2.45866,"lng":-78.17171,"population":7413},{"id":3653146,"name":"Pimampiro","timezone":{"dstOffset":-5,"gmtOffset":-5,"timeZoneId":"America/Guayaquil"},"lat":0.39116,"lng":-77.94068,"population":7408},{"id":3660573,"name":"Archidona","timezone":{"dstOffset":-5,"gmtOffset":-5,"timeZoneId":"America/Guayaquil"},"lat":-0.9095,"lng":-77.80772,"population":7309},{"id":3658822,"name":"Coronel Marcelino Maridueña","timezone":{"dstOffset":-5,"gmtOffset":-5,"timeZoneId":"America/Guayaquil"},"lat":-2.20924,"lng":-79.43248,"population":7303},{"id":3653523,"name":"Palora","timezone":{"dstOffset":-5,"gmtOffset":-5,"timeZoneId":"America/Guayaquil"},"lat":-1.70131,"lng":-77.96516,"population":6472},{"id":3653307,"name":"Pedernales","timezone":{"dstOffset":-5,"gmtOffset":-5,"timeZoneId":"America/Guayaquil"},"lat":0.07166,"lng":-80.0525,"population":5983},{"id":3659544,"name":"Celica","timezone":{"dstOffset":-5,"gmtOffset":-5,"timeZoneId":"America/Guayaquil"},"lat":-4.10266,"lng":-79.95665,"population":5499},{"id":3651857,"name":"Sangolquí","timezone":{"dstOffset":-5,"gmtOffset":-5,"timeZoneId":"America/Guayaquil"},"lat":-0.33405,"lng":-78.45217,"population":5114},{"id":3657661,"name":"Gualaquiza","timezone":{"dstOffset":-5,"gmtOffset":-5,"timeZoneId":"America/Guayaquil"},"lat":-3.40359,"lng":-78.58166,"population":4611},{"id":3653771,"name":"Nulti","timezone":{"dstOffset":-5,"gmtOffset":-5,"timeZoneId":"America/Guayaquil"},"lat":-2.91667,"lng":-78.85,"population":4589},{"id":3654724,"name":"Llacao","timezone":{"dstOffset":-5,"gmtOffset":-5,"timeZoneId":"America/Guayaquil"},"lat":-2.86667,"lng":-78.88333,"population":4501},{"id":3652758,"name":"Puerto Baquerizo Moreno","timezone":{"dstOffset":-6,"gmtOffset":-6,"timeZoneId":"Pacific/Galapagos"},"lat":-0.92322,"lng":-89.60474,"population":4214},{"id":3658379,"name":"El Ángel","timezone":{"dstOffset":-5,"gmtOffset":-5,"timeZoneId":"America/Guayaquil"},"lat":0.62279,"lng":-77.94003,"population":3983},{"id":3651251,"name":"Saquisilí","timezone":{"dstOffset":-5,"gmtOffset":-5,"timeZoneId":"America/Guayaquil"},"lat":-0.8399,"lng":-78.667,"population":3778},{"id":3652694,"name":"Puerto Villamil","timezone":{"dstOffset":-6,"gmtOffset":-6,"timeZoneId":"Pacific/Galapagos"},"lat":-0.95542,"lng":-90.96654,"population":2200},{"id":3654842,"name":"La Unión","timezone":{"dstOffset":-5,"gmtOffset":-5,"timeZoneId":"America/Guayaquil"},"lat":-2.85,"lng":-78.78333,"population":1622},{"id":3650855,"name":"Taisha","timezone":{"dstOffset":-5,"gmtOffset":-5,"timeZoneId":"America/Guayaquil"},"lat":-2.38136,"lng":-77.50891,"population":0},{"id":3652573,"name":"Quero","timezone":{"dstOffset":-5,"gmtOffset":-5,"timeZoneId":"America/Guayaquil"},"lat":-1.38122,"lng":-78.60812,"population":0},{"id":3654063,"name":"Montalvo","timezone":{"dstOffset":-5,"gmtOffset":-5,"timeZoneId":"America/Guayaquil"},"lat":-2.04934,"lng":-77.00856,"population":0},{"id":3658701,"name":"Cube","timezone":{"dstOffset":-5,"gmtOffset":-5,"timeZoneId":"America/Guayaquil"},"lat":0.57364,"lng":-79.64418,"population":0},{"id":3827889,"name":"Gonzalo Pizarro","timezone":{"dstOffset":-5,"gmtOffset":-5,"timeZoneId":"America/Guayaquil"},"lat":0.01674,"lng":-77.37924,"population":0},{"id":9255326,"name":"Wilfrido Loor Moreira","timezone":{"dstOffset":-5,"gmtOffset":-5,"timeZoneId":"America/Guayaquil"},"lat":-0.35294,"lng":-79.66033,"population":0}]