[{"id":2643741,"name":"City of London","timezone":{"dstOffset":1,"gmtOffset":0,"timeZoneId":"Europe/London"},"lat":51.51279,"lng":-0.09184,"population":7556900},{"id":2643743,"name":"London","timezone":{"dstOffset":1,"gmtOffset":0,"timeZoneId":"Europe/London"},"lat":51.50853,"lng":-0.12574,"population":7556900},{"id":2655603,"name":"Birmingham","timezone":{"dstOffset":1,"gmtOffset":0,"timeZoneId":"Europe/London"},"lat":52.48142,"lng":-1.89983,"population":984333},{"id":2648579,"name":"Glasgow","timezone":{"dstOffset":1,"gmtOffset":0,"timeZoneId":"Europe/London"},"lat":55.86515,"lng":-4.25763,"population":610268},{"id":2644210,"name":"Liverpool","timezone":{"dstOffset":1,"gmtOffset":0,"timeZoneId":"Europe/London"},"lat":53.41058,"lng":-2.97794,"population":468945},{"id":2644688,"name":"Leeds","timezone":{"dstOffset":1,"gmtOffset":0,"timeZoneId":"Europe/London"},"lat":53.79648,"lng":-1.54785,"population":455123},{"id":2638077,"name":"Sheffield","timezone":{"dstOffset":1,"gmtOffset":0,"timeZoneId":"Europe/London"},"lat":53.38297,"lng":-1.4659,"population":447047},{"id":2650225,"name":"Edinburgh","timezone":{"dstOffset":1,"gmtOffset":0,"timeZoneId":"Europe/London"},"lat":55.95206,"lng":-3.19648,"population":435791},{"id":2654675,"name":"Bristol","timezone":{"dstOffset":1,"gmtOffset":0,"timeZoneId":"Europe/London"},"lat":51.45523,"lng":-2.59665,"population":430713},{"id":2643123,"name":"Manchester","timezone":{"dstOffset":1,"gmtOffset":0,"timeZoneId":"Europe/London"},"lat":53.48095,"lng":-2.23743,"population":395515},{"id":2644668,"name":"Leicester","timezone":{"dstOffset":1,"gmtOffset":0,"timeZoneId":"Europe/London"},"lat":52.6386,"lng":-1.13169,"population":339239},{"id":2646003,"name":"Islington","timezone":{"dstOffset":1,"gmtOffset":0,"timeZoneId":"Europe/London"},"lat":51.53622,"lng":-0.10304,"population":319143},{"id":2652221,"name":"Coventry","timezone":{"dstOffset":1,"gmtOffset":0,"timeZoneId":"Europe/London"},"lat":52.40656,"lng":-1.51217,"population":308313},{"id":2645425,"name":"Hull","timezone":{"dstOffset":1,"gmtOffset":0,"timeZoneId":"Europe/London"},"lat":53.7446,"lng":-0.33525,"population":302296},{"id":2653822,"name":"Cardiff","timezone":{"dstOffset":1,"gmtOffset":0,"timeZoneId":"Europe/London"},"lat":51.48,"lng":-3.18,"population":302139},{"id":2654993,"name":"Bradford","timezone":{"dstOffset":1,"gmtOffset":0,"timeZoneId":"Europe/London"},"lat":53.79391,"lng":-1.75206,"population":299310},{"id":2655984,"name":"Belfast","timezone":{"dstOffset":1,"gmtOffset":0,"timeZoneId":"Europe/London"},"lat":54.58333,"lng":-5.93333,"population":274770},{"id":2636841,"name":"Stoke-on-Trent","timezone":{"dstOffset":1,"gmtOffset":0,"timeZoneId":"Europe/London"},"lat":53.00415,"lng":-2.18538,"population":260419},{"id":2633691,"name":"Wolverhampton","timezone":{"dstOffset":1,"gmtOffset":0,"timeZoneId":"Europe/London"},"lat":52.58547,"lng":-2.12296,"population":252791},{"id":2640194,"name":"Plymouth","timezone":{"dstOffset":1,"gmtOffset":0,"timeZoneId":"Europe/London"},"lat":50.37153,"lng":-4.14305,"population":247297},{"id":2641170,"name":"Nottingham","timezone":{"dstOffset":1,"gmtOffset":0,"timeZoneId":"Europe/London"},"lat":52.9536,"lng":-1.15047,"population":246654},{"id":2637487,"name":"Southampton","timezone":{"dstOffset":1,"gmtOffset":0,"timeZoneId":"Europe/London"},"lat":50.90395,"lng":-1.40428,"population":246201},{"id":2639577,"name":"Reading","timezone":{"dstOffset":1,"gmtOffset":0,"timeZoneId":"Europe/London"},"lat":51.45625,"lng":-0.97113,"population":244070},{"id":2651347,"name":"Derby","timezone":{"dstOffset":1,"gmtOffset":0,"timeZoneId":"Europe/London"},"lat":52.92277,"lng":-1.47663,"population":235029},{"id":2655775,"name":"Bexley","timezone":{"dstOffset":1,"gmtOffset":0,"timeZoneId":"Europe/London"},"lat":51.44162,"lng":0.14866,"population":228000},{"id":2650839,"name":"Dudley","timezone":{"dstOffset":1,"gmtOffset":0,"timeZoneId":"Europe/London"},"lat":52.5,"lng":-2.08333,"population":199059},{"id":2641430,"name":"Northampton","timezone":{"dstOffset":1,"gmtOffset":0,"timeZoneId":"Europe/London"},"lat":52.25,"lng":-0.88333,"population":197322},{"id":2639996,"name":"Portsmouth","timezone":{"dstOffset":1,"gmtOffset":0,"timeZoneId":"Europe/London"},"lat":50.79899,"lng":-1.09125,"population":194150},{"id":2643339,"name":"Luton","timezone":{"dstOffset":1,"gmtOffset":0,"timeZoneId":"Europe/London"},"lat":51.87967,"lng":-0.41748,"population":193669},{"id":2641673,"name":"Newcastle upon Tyne","timezone":{"dstOffset":1,"gmtOffset":0,"timeZoneId":"Europe/London"},"lat":54.97328,"lng":-1.61396,"population":192382},{"id":2639912,"name":"Preston","timezone":{"dstOffset":1,"gmtOffset":0,"timeZoneId":"Europe/London"},"lat":53.76667,"lng":-2.71667,"population":190687},{"id":2636503,"name":"Sutton","timezone":{"dstOffset":1,"gmtOffset":0,"timeZoneId":"Europe/London"},"lat":51.35,"lng":-0.2,"population":187600},{"id":2642465,"name":"Milton Keynes","timezone":{"dstOffset":1,"gmtOffset":0,"timeZoneId":"Europe/London"},"lat":52.04172,"lng":-0.75583,"population":184506},{"id":2657832,"name":"Aberdeen","timezone":{"dstOffset":1,"gmtOffset":0,"timeZoneId":"Europe/London"},"lat":57.14369,"lng":-2.09814,"population":183790},{"id":2636531,"name":"Sunderland","timezone":{"dstOffset":1,"gmtOffset":0,"timeZoneId":"Europe/London"},"lat":54.90465,"lng":-1.38222,"population":177965},{"id":2641181,"name":"Norwich","timezone":{"dstOffset":1,"gmtOffset":0,"timeZoneId":"Europe/London"},"lat":52.62783,"lng":1.29834,"population":177636},{"id":2634853,"name":"Walsall","timezone":{"dstOffset":1,"gmtOffset":0,"timeZoneId":"Europe/London"},"lat":52.58528,"lng":-1.98396,"population":172141},{"id":2636432,"name":"Swansea","timezone":{"dstOffset":1,"gmtOffset":0,"timeZoneId":"Europe/London"},"lat":51.62079,"lng":-3.94323,"population":170883},{"id":2655095,"name":"Bournemouth","timezone":{"dstOffset":1,"gmtOffset":0,"timeZoneId":"Europe/London"},"lat":50.72048,"lng":-1.8795,"population":163600},{"id":2637433,"name":"Southend-on-Sea","timezone":{"dstOffset":1,"gmtOffset":0,"timeZoneId":"Europe/London"},"lat":51.53782,"lng":0.71433,"population":163377},{"id":2636389,"name":"Swindon","timezone":{"dstOffset":1,"gmtOffset":0,"timeZoneId":"Europe/London"},"lat":51.55797,"lng":-1.78116,"population":155432},{"id":2640729,"name":"Oxford","timezone":{"dstOffset":1,"gmtOffset":0,"timeZoneId":"Europe/London"},"lat":51.75222,"lng":-1.25596,"population":154566},{"id":2650752,"name":"Dundee","timezone":{"dstOffset":1,"gmtOffset":0,"timeZoneId":"Europe/London"},"lat":56.46913,"lng":-2.97489,"population":151592},{"id":2640101,"name":"Poole","timezone":{"dstOffset":1,"gmtOffset":0,"timeZoneId":"Europe/London"},"lat":50.71667,"lng":-2,"population":150092},{"id":2646458,"name":"Huddersfield","timezone":{"dstOffset":1,"gmtOffset":0,"timeZoneId":"Europe/London"},"lat":53.64904,"lng":-1.78416,"population":149017},{"id":2633352,"name":"York","timezone":{"dstOffset":1,"gmtOffset":0,"timeZoneId":"Europe/London"},"lat":53.95763,"lng":-1.08271,"population":144202},{"id":2646057,"name":"Ipswich","timezone":{"dstOffset":1,"gmtOffset":0,"timeZoneId":"Europe/London"},"lat":52.05917,"lng":1.15545,"population":143767},{"id":2655459,"name":"Blackpool","timezone":{"dstOffset":1,"gmtOffset":0,"timeZoneId":"Europe/London"},"lat":53.81667,"lng":-3.05,"population":143101},{"id":2642607,"name":"Middlesbrough","timezone":{"dstOffset":1,"gmtOffset":0,"timeZoneId":"Europe/London"},"lat":54.57623,"lng":-1.23483,"population":142707},{"id":2655237,"name":"Bolton","timezone":{"dstOffset":1,"gmtOffset":0,"timeZoneId":"Europe/London"},"lat":53.58333,"lng":-2.43333,"population":141331},{"id":2640354,"name":"Peterborough","timezone":{"dstOffset":1,"gmtOffset":0,"timeZoneId":"Europe/London"},"lat":52.57364,"lng":-0.24777,"population":140141},{"id":2636882,"name":"Stockport","timezone":{"dstOffset":1,"gmtOffset":0,"timeZoneId":"Europe/London"},"lat":53.40979,"lng":-2.15761,"population":139052},{"id":2654710,"name":"Brighton","timezone":{"dstOffset":1,"gmtOffset":0,"timeZoneId":"Europe/London"},"lat":50.82838,"lng":-0.13947,"population":139001},{"id":3345439,"name":"Telford","timezone":{"dstOffset":1,"gmtOffset":0,"timeZoneId":"Europe/London"},"lat":52.67659,"lng":-2.44926,"population":138241},{"id":2634491,"name":"West Bromwich","timezone":{"dstOffset":1,"gmtOffset":0,"timeZoneId":"Europe/London"},"lat":52.51868,"lng":-1.9945,"population":135618},{"id":2637627,"name":"Slough","timezone":{"dstOffset":1,"gmtOffset":0,"timeZoneId":"Europe/London"},"lat":51.50949,"lng":-0.59541,"population":134072},{"id":2648404,"name":"Gloucester","timezone":{"dstOffset":1,"gmtOffset":0,"timeZoneId":"Europe/London"},"lat":51.86568,"lng":-2.2431,"population":128721},{"id":2653941,"name":"Cambridge","timezone":{"dstOffset":1,"gmtOffset":0,"timeZoneId":"Europe/London"},"lat":52.2,"lng":0.11667,"population":128488},{"id":2634677,"name":"Watford","timezone":{"dstOffset":1,"gmtOffset":0,"timeZoneId":"Europe/London"},"lat":51.65531,"lng":-0.39602,"population":125707},{"id":2639093,"name":"Rotherham","timezone":{"dstOffset":1,"gmtOffset":0,"timeZoneId":"Europe/London"},"lat":53.43012,"lng":-1.35678,"population":117618},{"id":2641598,"name":"Newport","timezone":{"dstOffset":1,"gmtOffset":0,"timeZoneId":"Europe/London"},"lat":51.58774,"lng":-2.99835,"population":117326},{"id":2649808,"name":"Exeter","timezone":{"dstOffset":1,"gmtOffset":0,"timeZoneId":"Europe/London"},"lat":50.7236,"lng":-3.52751,"population":113118},{"id":2650497,"name":"Eastbourne","timezone":{"dstOffset":1,"gmtOffset":0,"timeZoneId":"Europe/London"},"lat":50.76871,"lng":0.28453,"population":112906},{"id":6947756,"name":"Mendip","timezone":{"dstOffset":1,"gmtOffset":0,"timeZoneId":"Europe/London"},"lat":51.2372,"lng":-2.6266,"population":110000},{"id":2652618,"name":"Colchester","timezone":{"dstOffset":1,"gmtOffset":0,"timeZoneId":"Europe/London"},"lat":51.88921,"lng":0.90421,"population":109414},{"id":2651621,"name":"Dagenham","timezone":{"dstOffset":1,"gmtOffset":0,"timeZoneId":"Europe/London"},"lat":51.55,"lng":0.16667,"population":108368},{"id":2652053,"name":"Crawley","timezone":{"dstOffset":1,"gmtOffset":0,"timeZoneId":"Europe/London"},"lat":51.11303,"lng":-0.18312,"population":107061},{"id":2636486,"name":"Sutton Coldfield","timezone":{"dstOffset":1,"gmtOffset":0,"timeZoneId":"Europe/London"},"lat":52.56667,"lng":-1.81667,"population":107030},{"id":2655524,"name":"Blackburn","timezone":{"dstOffset":1,"gmtOffset":0,"timeZoneId":"Europe/London"},"lat":53.75,"lng":-2.48333,"population":106154},{"id":2641022,"name":"Oldham","timezone":{"dstOffset":1,"gmtOffset":0,"timeZoneId":"Europe/London"},"lat":53.54051,"lng":-2.1183,"population":104782},{"id":2633709,"name":"Woking","timezone":{"dstOffset":1,"gmtOffset":0,"timeZoneId":"Europe/London"},"lat":51.31903,"lng":-0.55893,"population":103932},{"id":2653261,"name":"Cheltenham","timezone":{"dstOffset":1,"gmtOffset":0,"timeZoneId":"Europe/London"},"lat":51.9,"lng":-2.08333,"population":103249},{"id":2653266,"name":"Chelmsford","timezone":{"dstOffset":1,"gmtOffset":0,"timeZoneId":"Europe/London"},"lat":51.73575,"lng":0.46958,"population":102671},{"id":2638785,"name":"St Helens","timezone":{"dstOffset":1,"gmtOffset":0,"timeZoneId":"Europe/London"},"lat":53.45,"lng":-2.73333,"population":102555},{"id":2656194,"name":"Basildon","timezone":{"dstOffset":1,"gmtOffset":0,"timeZoneId":"Europe/London"},"lat":51.56844,"lng":0.45782,"population":101362},{"id":2648657,"name":"Gillingham","timezone":{"dstOffset":1,"gmtOffset":0,"timeZoneId":"Europe/London"},"lat":51.38914,"lng":0.54863,"population":101187},{"id":2633563,"name":"Worcester","timezone":{"dstOffset":1,"gmtOffset":0,"timeZoneId":"Europe/London"},"lat":52.18935,"lng":-2.22001,"population":100023},{"id":6690870,"name":"Becontree","timezone":{"dstOffset":1,"gmtOffset":0,"timeZoneId":"Europe/London"},"lat":51.5529,"lng":0.129,"population":100000},{"id":2633521,"name":"Worthing","timezone":{"dstOffset":1,"gmtOffset":0,"timeZoneId":"Europe/London"},"lat":50.81795,"lng":-0.37538,"population":99110},{"id":2639272,"name":"Rochdale","timezone":{"dstOffset":1,"gmtOffset":0,"timeZoneId":"Europe/London"},"lat":53.61766,"lng":-2.1552,"population":97550},{"id":2656192,"name":"Basingstoke","timezone":{"dstOffset":1,"gmtOffset":0,"timeZoneId":"Europe/London"},"lat":51.26249,"lng":-1.08708,"population":96348},{"id":2637546,"name":"Solihull","timezone":{"dstOffset":1,"gmtOffset":0,"timeZoneId":"Europe/London"},"lat":52.41426,"lng":-1.78094,"population":96267},{"id":2647461,"name":"Harlow","timezone":{"dstOffset":1,"gmtOffset":0,"timeZoneId":"Europe/London"},"lat":51.77655,"lng":0.11158,"population":94365},{"id":2656173,"name":"Bath","timezone":{"dstOffset":1,"gmtOffset":0,"timeZoneId":"Europe/London"},"lat":51.3751,"lng":-2.36172,"population":93238},{"id":2637343,"name":"Southport","timezone":{"dstOffset":1,"gmtOffset":0,"timeZoneId":"Europe/London"},"lat":53.64779,"lng":-3.00648,"population":93044},{"id":8299617,"name":"High Peak","timezone":{"dstOffset":1,"gmtOffset":0,"timeZoneId":"Europe/London"},"lat":53.36797,"lng":-1.84536,"population":92600},{"id":2643179,"name":"Maidstone","timezone":{"dstOffset":1,"gmtOffset":0,"timeZoneId":"Europe/London"},"lat":51.26667,"lng":0.51667,"population":90894},{"id":2644487,"name":"Lincoln","timezone":{"dstOffset":1,"gmtOffset":0,"timeZoneId":"Europe/London"},"lat":53.22683,"lng":-0.53792,"population":89228},{"id":2647356,"name":"Hastings","timezone":{"dstOffset":1,"gmtOffset":0,"timeZoneId":"Europe/London"},"lat":50.85519,"lng":0.57292,"population":89100},{"id":2651513,"name":"Darlington","timezone":{"dstOffset":1,"gmtOffset":0,"timeZoneId":"Europe/London"},"lat":54.52429,"lng":-1.55039,"population":87204},{"id":2643734,"name":"Londonderry County Borough","timezone":{"dstOffset":1,"gmtOffset":0,"timeZoneId":"Europe/London"},"lat":54.99721,"lng":-7.30917,"population":87153},{"id":2647428,"name":"Harrogate","timezone":{"dstOffset":1,"gmtOffset":0,"timeZoneId":"Europe/London"},"lat":53.99078,"lng":-1.5373,"population":87024},{"id":2647400,"name":"Hartlepool","timezone":{"dstOffset":1,"gmtOffset":0,"timeZoneId":"Europe/London"},"lat":54.68611,"lng":-1.2125,"population":86713},{"id":2656046,"name":"Bedford","timezone":{"dstOffset":1,"gmtOffset":0,"timeZoneId":"Europe/London"},"lat":52.13459,"lng":-0.46632,"population":86658},{"id":2647138,"name":"Hemel Hempstead","timezone":{"dstOffset":1,"gmtOffset":0,"timeZoneId":"Europe/London"},"lat":51.75368,"lng":-0.44975,"population":85629},{"id":2636940,"name":"Stevenage","timezone":{"dstOffset":1,"gmtOffset":0,"timeZoneId":"Europe/London"},"lat":51.90224,"lng":-0.20256,"population":84651},{"id":2638867,"name":"St Albans","timezone":{"dstOffset":1,"gmtOffset":0,"timeZoneId":"Europe/London"},"lat":51.75,"lng":-0.33333,"population":84561},{"id":2637329,"name":"South Shields","timezone":{"dstOffset":1,"gmtOffset":0,"timeZoneId":"Europe/London"},"lat":54.99859,"lng":-1.4323,"population":83655},{"id":2643736,"name":"Londonderry","timezone":{"dstOffset":1,"gmtOffset":0,"timeZoneId":"Europe/London"},"lat":54.9981,"lng":-7.30934,"population":83652},{"id":2634308,"name":"Weston-super-Mare","timezone":{"dstOffset":1,"gmtOffset":0,"timeZoneId":"Europe/London"},"lat":51.34603,"lng":-2.97665,"population":82903},{"id":2647632,"name":"Halifax","timezone":{"dstOffset":1,"gmtOffset":0,"timeZoneId":"Europe/London"},"lat":53.71667,"lng":-1.85,"population":82624},{"id":2656065,"name":"Beckenham","timezone":{"dstOffset":1,"gmtOffset":0,"timeZoneId":"Europe/London"},"lat":51.40878,"lng":-0.02526,"population":82000},{"id":2655613,"name":"Birkenhead","timezone":{"dstOffset":1,"gmtOffset":0,"timeZoneId":"Europe/London"},"lat":53.39337,"lng":-3.01479,"population":81805},{"id":2634739,"name":"Warrington","timezone":{"dstOffset":1,"gmtOffset":0,"timeZoneId":"Europe/London"},"lat":53.39254,"lng":-2.58024,"population":81238},{"id":2633948,"name":"Wigan","timezone":{"dstOffset":1,"gmtOffset":0,"timeZoneId":"Europe/London"},"lat":53.53333,"lng":-2.61667,"population":80788},{"id":2646914,"name":"High Wycombe","timezone":{"dstOffset":1,"gmtOffset":0,"timeZoneId":"Europe/London"},"lat":51.62907,"lng":-0.74934,"population":80357},{"id":2636876,"name":"Stockton-on-Tees","timezone":{"dstOffset":1,"gmtOffset":0,"timeZoneId":"Europe/London"},"lat":54.56848,"lng":-1.3187,"population":79957},{"id":2634910,"name":"Wakefield","timezone":{"dstOffset":1,"gmtOffset":0,"timeZoneId":"Europe/London"},"lat":53.68331,"lng":-1.49768,"population":78978},{"id":2648773,"name":"Gateshead","timezone":{"dstOffset":1,"gmtOffset":0,"timeZoneId":"Europe/London"},"lat":54.96209,"lng":-1.60168,"population":77649},{"id":2644411,"name":"Lisburn","timezone":{"dstOffset":1,"gmtOffset":0,"timeZoneId":"Europe/London"},"lat":54.52337,"lng":-6.03527,"population":77506},{"id":2639557,"name":"Redditch","timezone":{"dstOffset":1,"gmtOffset":0,"timeZoneId":"Europe/London"},"lat":52.3065,"lng":-1.94569,"population":77128},{"id":2653228,"name":"Chester","timezone":{"dstOffset":1,"gmtOffset":0,"timeZoneId":"Europe/London"},"lat":53.1905,"lng":-2.89189,"population":77040},{"id":2648970,"name":"Fylde","timezone":{"dstOffset":1,"gmtOffset":0,"timeZoneId":"Europe/London"},"lat":53.83333,"lng":-2.91667,"population":76500},{"id":2655009,"name":"Bracknell","timezone":{"dstOffset":1,"gmtOffset":0,"timeZoneId":"Europe/London"},"lat":51.41363,"lng":-0.75054,"population":76103},{"id":2641674,"name":"Newcastle-under-Lyme","timezone":{"dstOffset":1,"gmtOffset":0,"timeZoneId":"Europe/London"},"lat":53,"lng":-2.23333,"population":75794},{"id":6690602,"name":"Battersea","timezone":{"dstOffset":1,"gmtOffset":0,"timeZoneId":"Europe/London"},"lat":51.47475,"lng":-0.15547,"population":75651},{"id":2653305,"name":"Chatham","timezone":{"dstOffset":1,"gmtOffset":0,"timeZoneId":"Europe/London"},"lat":51.37891,"lng":0.52786,"population":75509},{"id":2646504,"name":"Hove","timezone":{"dstOffset":1,"gmtOffset":0,"timeZoneId":"Europe/London"},"lat":50.83088,"lng":-0.1672,"population":75174},{"id":2656719,"name":"Aylesbury","timezone":{"dstOffset":1,"gmtOffset":0,"timeZoneId":"Europe/London"},"lat":51.81665,"lng":-0.81458,"population":74565},{"id":2650405,"name":"East Kilbride","timezone":{"dstOffset":1,"gmtOffset":0,"timeZoneId":"Europe/London"},"lat":55.76412,"lng":-4.17669,"population":74231},{"id":2636276,"name":"Tamworth","timezone":{"dstOffset":1,"gmtOffset":0,"timeZoneId":"Europe/London"},"lat":52.63399,"lng":-1.69587,"population":74129},{"id":2641157,"name":"Nuneaton","timezone":{"dstOffset":1,"gmtOffset":0,"timeZoneId":"Europe/London"},"lat":52.52323,"lng":-1.46523,"population":73555},{"id":2654264,"name":"Burnley","timezone":{"dstOffset":1,"gmtOffset":0,"timeZoneId":"Europe/London"},"lat":53.8,"lng":-2.23333,"population":73480},{"id":2640677,"name":"Paisley","timezone":{"dstOffset":1,"gmtOffset":0,"timeZoneId":"Europe/London"},"lat":55.83173,"lng":-4.43254,"population":73074},{"id":2638671,"name":"Salford","timezone":{"dstOffset":1,"gmtOffset":0,"timeZoneId":"Europe/London"},"lat":53.48771,"lng":-2.29042,"population":72750},{"id":2653775,"name":"Carlisle","timezone":{"dstOffset":1,"gmtOffset":0,"timeZoneId":"Europe/London"},"lat":54.8951,"lng":-2.9382,"population":72633},{"id":2638324,"name":"Scunthorpe","timezone":{"dstOffset":1,"gmtOffset":0,"timeZoneId":"Europe/London"},"lat":53.57905,"lng":-0.65437,"population":72514},{"id":2639842,"name":"Purley","timezone":{"dstOffset":1,"gmtOffset":0,"timeZoneId":"Europe/London"},"lat":51.33678,"lng":-0.11201,"population":72000},{"id":2647793,"name":"Guildford","timezone":{"dstOffset":1,"gmtOffset":0,"timeZoneId":"Europe/London"},"lat":51.23536,"lng":-0.57427,"population":71873},{"id":2643490,"name":"Lowestoft","timezone":{"dstOffset":1,"gmtOffset":0,"timeZoneId":"Europe/London"},"lat":52.4752,"lng":1.75159,"population":71479},{"id":2656284,"name":"Barnsley","timezone":{"dstOffset":1,"gmtOffset":0,"timeZoneId":"Europe/London"},"lat":53.55,"lng":-1.48333,"population":71447},{"id":2648182,"name":"Grays","timezone":{"dstOffset":1,"gmtOffset":0,"timeZoneId":"Europe/London"},"lat":51.47566,"lng":0.32521,"population":70934},{"id":2648272,"name":"Gosport","timezone":{"dstOffset":1,"gmtOffset":0,"timeZoneId":"Europe/London"},"lat":50.79509,"lng":-1.12902,"population":70793},{"id":2653225,"name":"Chesterfield","timezone":{"dstOffset":1,"gmtOffset":0,"timeZoneId":"Europe/London"},"lat":53.25,"lng":-1.41667,"population":70679},{"id":2652002,"name":"Crewe","timezone":{"dstOffset":1,"gmtOffset":0,"timeZoneId":"Europe/London"},"lat":53.09787,"lng":-2.44161,"population":70455},{"id":2643097,"name":"Mansfield","timezone":{"dstOffset":1,"gmtOffset":0,"timeZoneId":"Europe/London"},"lat":53.13333,"lng":-1.2,"population":70447},{"id":2637490,"name":"Southall","timezone":{"dstOffset":1,"gmtOffset":0,"timeZoneId":"Europe/London"},"lat":51.50896,"lng":-0.3713,"population":70000},{"id":2637891,"name":"Shrewsbury","timezone":{"dstOffset":1,"gmtOffset":0,"timeZoneId":"Europe/London"},"lat":52.71009,"lng":-2.75208,"population":69519},{"id":2653883,"name":"Cannock","timezone":{"dstOffset":1,"gmtOffset":0,"timeZoneId":"Europe/London"},"lat":52.69045,"lng":-2.03085,"population":68067},{"id":2650096,"name":"Ellesmere Port","timezone":{"dstOffset":1,"gmtOffset":0,"timeZoneId":"Europe/London"},"lat":53.27875,"lng":-2.90134,"population":67768},{"id":2651123,"name":"Doncaster","timezone":{"dstOffset":1,"gmtOffset":0,"timeZoneId":"Europe/London"},"lat":53.52285,"lng":-1.13116,"population":67670},{"id":8299614,"name":"Rossendale","timezone":{"dstOffset":1,"gmtOffset":0,"timeZoneId":"Europe/London"},"lat":53.68456,"lng":-2.2769,"population":67400},{"id":6690877,"name":"Brixton","timezone":{"dstOffset":1,"gmtOffset":0,"timeZoneId":"Europe/London"},"lat":51.46593,"lng":-0.10652,"population":66300},{"id":2655262,"name":"Bognor Regis","timezone":{"dstOffset":1,"gmtOffset":0,"timeZoneId":"Europe/London"},"lat":50.78206,"lng":-0.67978,"population":65391},{"id":2635650,"name":"Torquay","timezone":{"dstOffset":1,"gmtOffset":0,"timeZoneId":"Europe/London"},"lat":50.46384,"lng":-3.51434,"population":65388},{"id":2637142,"name":"Stafford","timezone":{"dstOffset":1,"gmtOffset":0,"timeZoneId":"Europe/London"},"lat":52.80521,"lng":-2.11636,"population":65290},{"id":2645418,"name":"Kingswood","timezone":{"dstOffset":1,"gmtOffset":0,"timeZoneId":"Europe/London"},"lat":51.45278,"lng":-2.50833,"population":64793},{"id":2644737,"name":"Royal Leamington Spa","timezone":{"dstOffset":1,"gmtOffset":0,"timeZoneId":"Europe/London"},"lat":52.3,"lng":-1.53333,"population":64640},{"id":2634686,"name":"Waterlooville","timezone":{"dstOffset":1,"gmtOffset":0,"timeZoneId":"Europe/London"},"lat":50.88067,"lng":-1.0304,"population":64350},{"id":2641520,"name":"Newtownabbey","timezone":{"dstOffset":1,"gmtOffset":0,"timeZoneId":"Europe/London"},"lat":54.65983,"lng":-5.90858,"population":63860},{"id":2638978,"name":"Rugby","timezone":{"dstOffset":1,"gmtOffset":0,"timeZoneId":"Europe/London"},"lat":52.37092,"lng":-1.26417,"population":63323},{"id":2656955,"name":"Ashford","timezone":{"dstOffset":1,"gmtOffset":0,"timeZoneId":"Europe/London"},"lat":51.14648,"lng":0.87376,"population":62787},{"id":2657540,"name":"Aldershot","timezone":{"dstOffset":1,"gmtOffset":0,"timeZoneId":"Europe/London"},"lat":51.24827,"lng":-0.76389,"population":61339},{"id":2639022,"name":"Tunbridge Wells","timezone":{"dstOffset":1,"gmtOffset":0,"timeZoneId":"Europe/London"},"lat":51.13245,"lng":0.26333,"population":61075},{"id":2654187,"name":"Bury","timezone":{"dstOffset":1,"gmtOffset":0,"timeZoneId":"Europe/London"},"lat":53.6,"lng":-2.3,"population":61044},{"id":2656333,"name":"Barking","timezone":{"dstOffset":1,"gmtOffset":0,"timeZoneId":"Europe/London"},"lat":51.53333,"lng":0.08333,"population":61000},{"id":2636177,"name":"Taunton","timezone":{"dstOffset":1,"gmtOffset":0,"timeZoneId":"Europe/London"},"lat":51.01494,"lng":-3.10293,"population":60433},{"id":2656396,"name":"Bangor","timezone":{"dstOffset":1,"gmtOffset":0,"timeZoneId":"Europe/London"},"lat":54.65338,"lng":-5.66895,"population":60385},{"id":2643044,"name":"Margate","timezone":{"dstOffset":1,"gmtOffset":0,"timeZoneId":"Europe/London"},"lat":51.38132,"lng":1.38617,"population":60134},{"id":2653265,"name":"Chelsea","timezone":{"dstOffset":1,"gmtOffset":0,"timeZoneId":"Europe/London"},"lat":51.48755,"lng":-0.16936,"population":60000},{"id":2649672,"name":"Farnborough","timezone":{"dstOffset":1,"gmtOffset":0,"timeZoneId":"Europe/London"},"lat":51.29424,"lng":-0.75565,"population":59902},{"id":2638960,"name":"Runcorn","timezone":{"dstOffset":1,"gmtOffset":0,"timeZoneId":"Europe/London"},"lat":53.34174,"lng":-2.73124,"population":59679},{"id":2647984,"name":"Great Yarmouth","timezone":{"dstOffset":1,"gmtOffset":0,"timeZoneId":"Europe/London"},"lat":52.60831,"lng":1.73052,"population":59601},{"id":2643186,"name":"Maidenhead","timezone":{"dstOffset":1,"gmtOffset":0,"timeZoneId":"Europe/London"},"lat":51.52279,"lng":-0.71986,"population":59463},{"id":2639447,"name":"Rhondda","timezone":{"dstOffset":1,"gmtOffset":0,"timeZoneId":"Europe/London"},"lat":51.65896,"lng":-3.44885,"population":59450},{"id":2643567,"name":"Loughborough","timezone":{"dstOffset":1,"gmtOffset":0,"timeZoneId":"Europe/London"},"lat":52.76667,"lng":-1.2,"population":59317},{"id":3345440,"name":"Craigavon","timezone":{"dstOffset":1,"gmtOffset":0,"timeZoneId":"Europe/London"},"lat":54.44709,"lng":-6.387,"population":59236},{"id":2634873,"name":"Wallasey","timezone":{"dstOffset":1,"gmtOffset":0,"timeZoneId":"Europe/London"},"lat":53.42324,"lng":-3.06497,"population":58794},{"id":2644319,"name":"Littlehampton","timezone":{"dstOffset":1,"gmtOffset":0,"timeZoneId":"Europe/London"},"lat":50.81137,"lng":-0.54078,"population":58714},{"id":2647074,"name":"Hereford","timezone":{"dstOffset":1,"gmtOffset":0,"timeZoneId":"Europe/London"},"lat":52.05684,"lng":-2.71482,"population":58281},{"id":2655198,"name":"Bootle","timezone":{"dstOffset":1,"gmtOffset":0,"timeZoneId":"Europe/London"},"lat":53.46667,"lng":-3.01667,"population":57791},{"id":2649692,"name":"Fareham","timezone":{"dstOffset":1,"gmtOffset":0,"timeZoneId":"Europe/London"},"lat":50.85162,"lng":-1.17929,"population":57390},{"id":2642189,"name":"Morley","timezone":{"dstOffset":1,"gmtOffset":0,"timeZoneId":"Europe/London"},"lat":53.74013,"lng":-1.59877,"population":57385},{"id":2653232,"name":"Cheshunt","timezone":{"dstOffset":1,"gmtOffset":0,"timeZoneId":"Europe/London"},"lat":51.70791,"lng":-0.03739,"population":57374},{"id":2651500,"name":"Dartford","timezone":{"dstOffset":1,"gmtOffset":0,"timeZoneId":"Europe/London"},"lat":51.44352,"lng":0.21964,"population":56694},{"id":2653558,"name":"Castlereagh","timezone":{"dstOffset":1,"gmtOffset":0,"timeZoneId":"Europe/London"},"lat":54.5735,"lng":-5.88472,"population":56679},{"id":2645724,"name":"Kidderminster","timezone":{"dstOffset":1,"gmtOffset":0,"timeZoneId":"Europe/London"},"lat":52.38819,"lng":-2.25,"population":56657},{"id":2651286,"name":"Dewsbury","timezone":{"dstOffset":1,"gmtOffset":0,"timeZoneId":"Europe/London"},"lat":53.69076,"lng":-1.62907,"population":56640},{"id":2636769,"name":"Stourbridge","timezone":{"dstOffset":1,"gmtOffset":0,"timeZoneId":"Europe/London"},"lat":52.45608,"lng":-2.14317,"population":56284},{"id":2633954,"name":"Widnes","timezone":{"dstOffset":1,"gmtOffset":0,"timeZoneId":"Europe/London"},"lat":53.3618,"lng":-2.73406,"population":56097},{"id":2638678,"name":"Sale","timezone":{"dstOffset":1,"gmtOffset":0,"timeZoneId":"Europe/London"},"lat":53.42519,"lng":-2.32443,"population":55689},{"id":2647639,"name":"Halesowen","timezone":{"dstOffset":1,"gmtOffset":0,"timeZoneId":"Europe/London"},"lat":52.44859,"lng":-2.04938,"population":55265},{"id":6690862,"name":"South Croydon","timezone":{"dstOffset":1,"gmtOffset":0,"timeZoneId":"Europe/London"},"lat":51.36217,"lng":-0.09421,"population":55198},{"id":2646329,"name":"Huyton","timezone":{"dstOffset":1,"gmtOffset":0,"timeZoneId":"Europe/London"},"lat":53.4115,"lng":-2.83935,"population":54738},{"id":2652974,"name":"Clacton-on-Sea","timezone":{"dstOffset":1,"gmtOffset":0,"timeZoneId":"Europe/London"},"lat":51.78967,"lng":1.15597,"population":54674},{"id":2648187,"name":"Gravesend","timezone":{"dstOffset":1,"gmtOffset":0,"timeZoneId":"Europe/London"},"lat":51.44138,"lng":0.37371,"population":54263},{"id":2650396,"name":"Eastleigh","timezone":{"dstOffset":1,"gmtOffset":0,"timeZoneId":"Europe/London"},"lat":50.96667,"lng":-1.35,"population":54225},{"id":2644204,"name":"Livingston","timezone":{"dstOffset":1,"gmtOffset":0,"timeZoneId":"Europe/London"},"lat":55.90288,"lng":-3.52261,"population":53798},{"id":2657697,"name":"Acton","timezone":{"dstOffset":1,"gmtOffset":0,"timeZoneId":"Europe/London"},"lat":51.50901,"lng":-0.2762,"population":53689},{"id":2634715,"name":"Washington","timezone":{"dstOffset":1,"gmtOffset":0,"timeZoneId":"Europe/London"},"lat":54.9,"lng":-1.51667,"population":53526},{"id":2645753,"name":"Kettering","timezone":{"dstOffset":1,"gmtOffset":0,"timeZoneId":"Europe/London"},"lat":52.39836,"lng":-0.72571,"population":53329},{"id":2649911,"name":"Esher","timezone":{"dstOffset":1,"gmtOffset":0,"timeZoneId":"Europe/London"},"lat":51.36969,"lng":-0.36693,"population":52392},{"id":3209584,"name":"Crosby","timezone":{"dstOffset":1,"gmtOffset":0,"timeZoneId":"Europe/London"},"lat":53.47778,"lng":-3.03333,"population":52140},{"id":2639506,"name":"Reigate","timezone":{"dstOffset":1,"gmtOffset":0,"timeZoneId":"Europe/London"},"lat":51.23758,"lng":-0.2078,"population":52123},{"id":2650657,"name":"Dunstable","timezone":{"dstOffset":1,"gmtOffset":0,"timeZoneId":"Europe/London"},"lat":51.88571,"lng":-0.52288,"population":51973},{"id":2643266,"name":"Macclesfield","timezone":{"dstOffset":1,"gmtOffset":0,"timeZoneId":"Europe/London"},"lat":53.26023,"lng":-2.12564,"population":51739},{"id":2656235,"name":"Barry","timezone":{"dstOffset":1,"gmtOffset":0,"timeZoneId":"Europe/London"},"lat":51.39979,"lng":-3.2838,"population":51681},{"id":2642214,"name":"Morecambe","timezone":{"dstOffset":1,"gmtOffset":0,"timeZoneId":"Europe/London"},"lat":54.06835,"lng":-2.86108,"population":51644},{"id":2639545,"name":"Redhill","timezone":{"dstOffset":1,"gmtOffset":0,"timeZoneId":"Europe/London"},"lat":51.24048,"lng":-0.17044,"population":51559},{"id":2637126,"name":"Staines-upon-Thames","timezone":{"dstOffset":1,"gmtOffset":0,"timeZoneId":"Europe/London"},"lat":51.43092,"lng":-0.50606,"population":51040},{"id":2656168,"name":"Batley","timezone":{"dstOffset":1,"gmtOffset":0,"timeZoneId":"Europe/London"},"lat":53.70291,"lng":-1.6337,"population":50807},{"id":2646557,"name":"Horsham","timezone":{"dstOffset":1,"gmtOffset":0,"timeZoneId":"Europe/London"},"lat":51.06314,"lng":-0.32757,"population":50680},{"id":2634202,"name":"Weymouth","timezone":{"dstOffset":1,"gmtOffset":0,"timeZoneId":"Europe/London"},"lat":50.61448,"lng":-2.45991,"population":50253},{"id":2655351,"name":"Bletchley","timezone":{"dstOffset":1,"gmtOffset":0,"timeZoneId":"Europe/London"},"lat":51.99334,"lng":-0.73471,"population":50193},{"id":2645889,"name":"Keighley","timezone":{"dstOffset":1,"gmtOffset":0,"timeZoneId":"Europe/London"},"lat":53.86791,"lng":-1.90664,"population":50171},{"id":2652381,"name":"Corby","timezone":{"dstOffset":1,"gmtOffset":0,"timeZoneId":"Europe/London"},"lat":52.49637,"lng":-0.68939,"population":50029},{"id":2647261,"name":"Hayes","timezone":{"dstOffset":1,"gmtOffset":0,"timeZoneId":"Europe/London"},"lat":51.51579,"lng":-0.4234,"population":50000},{"id":2640681,"name":"Paignton","timezone":{"dstOffset":1,"gmtOffset":0,"timeZoneId":"Europe/London"},"lat":50.43565,"lng":-3.56789,"population":49886},{"id":2634578,"name":"Wellingborough","timezone":{"dstOffset":1,"gmtOffset":0,"timeZoneId":"Europe/London"},"lat":52.30273,"lng":-0.69446,"population":49783},{"id":2651715,"name":"Cumbernauld","timezone":{"dstOffset":1,"gmtOffset":0,"timeZoneId":"Europe/London"},"lat":55.94685,"lng":-3.99051,"population":49392},{"id":2637476,"name":"South Benfleet","timezone":{"dstOffset":1,"gmtOffset":0,"timeZoneId":"Europe/London"},"lat":51.55295,"lng":0.55962,"population":48824},{"id":2634493,"name":"West Bridgford","timezone":{"dstOffset":1,"gmtOffset":0,"timeZoneId":"Europe/London"},"lat":52.92979,"lng":-1.12537,"population":48314},{"id":2642414,"name":"Mitcham","timezone":{"dstOffset":1,"gmtOffset":0,"timeZoneId":"Europe/London"},"lat":51.40322,"lng":-0.16831,"population":48311},{"id":2651654,"name":"Cwmbran","timezone":{"dstOffset":1,"gmtOffset":0,"timeZoneId":"Europe/London"},"lat":51.65446,"lng":-3.02281,"population":48157},{"id":2643697,"name":"Long Eaton","timezone":{"dstOffset":1,"gmtOffset":0,"timeZoneId":"Europe/London"},"lat":52.89855,"lng":-1.27136,"population":47898},{"id":2647570,"name":"Hamilton","timezone":{"dstOffset":1,"gmtOffset":0,"timeZoneId":"Europe/London"},"lat":55.76667,"lng":-4.03333,"population":47615},{"id":2654782,"name":"Brentwood","timezone":{"dstOffset":1,"gmtOffset":0,"timeZoneId":"Europe/London"},"lat":51.62127,"lng":0.30556,"population":47606},{"id":2656241,"name":"Barrow","timezone":{"dstOffset":1,"gmtOffset":0,"timeZoneId":"Europe/London"},"lat":54.11094,"lng":-3.22758,"population":47264},{"id":2644100,"name":"Llanelli","timezone":{"dstOffset":1,"gmtOffset":0,"timeZoneId":"Europe/London"},"lat":51.68195,"lng":-4.16191,"population":47206},{"id":2644972,"name":"Lancaster","timezone":{"dstOffset":1,"gmtOffset":0,"timeZoneId":"Europe/London"},"lat":54.04649,"lng":-2.79988,"population":47162},{"id":2635785,"name":"Tipton","timezone":{"dstOffset":1,"gmtOffset":0,"timeZoneId":"Europe/London"},"lat":52.52956,"lng":-2.06773,"population":47000},{"id":2653877,"name":"Canterbury","timezone":{"dstOffset":1,"gmtOffset":0,"timeZoneId":"Europe/London"},"lat":51.27904,"lng":1.07992,"population":46978},{"id":2645298,"name":"Kirkcaldy","timezone":{"dstOffset":1,"gmtOffset":0,"timeZoneId":"Europe/London"},"lat":56.11683,"lng":-3.15999,"population":46912},{"id":2654938,"name":"Braintree","timezone":{"dstOffset":1,"gmtOffset":0,"timeZoneId":"Europe/London"},"lat":51.87819,"lng":0.55292,"population":46765},{"id":2656379,"name":"Banstead","timezone":{"dstOffset":1,"gmtOffset":0,"timeZoneId":"Europe/London"},"lat":51.32233,"lng":-0.20685,"population":46280},{"id":2641843,"name":"Neath","timezone":{"dstOffset":1,"gmtOffset":0,"timeZoneId":"Europe/London"},"lat":51.66317,"lng":-3.80443,"population":46126},{"id":2656406,"name":"Banbury","timezone":{"dstOffset":1,"gmtOffset":0,"timeZoneId":"Europe/London"},"lat":52.0632,"lng":-1.34222,"population":46075},{"id":2649258,"name":"Folkestone","timezone":{"dstOffset":1,"gmtOffset":0,"timeZoneId":"Europe/London"},"lat":51.08333,"lng":1.18333,"population":45992},{"id":2650628,"name":"Durham","timezone":{"dstOffset":1,"gmtOffset":0,"timeZoneId":"Europe/London"},"lat":54.77676,"lng":-1.57566,"population":45696},{"id":2638664,"name":"Salisbury","timezone":{"dstOffset":1,"gmtOffset":0,"timeZoneId":"Europe/London"},"lat":51.06931,"lng":-1.79569,"population":45600},{"id":2642593,"name":"Middleton","timezone":{"dstOffset":1,"gmtOffset":0,"timeZoneId":"Europe/London"},"lat":53.55,"lng":-2.2,"population":45589},{"id":2647317,"name":"Havant","timezone":{"dstOffset":1,"gmtOffset":0,"timeZoneId":"Europe/London"},"lat":50.8567,"lng":-0.98559,"population":45574},{"id":2653646,"name":"Carshalton","timezone":{"dstOffset":1,"gmtOffset":0,"timeZoneId":"Europe/London"},"lat":51.36829,"lng":-0.16755,"population":45525},{"id":2656708,"name":"Ayr","timezone":{"dstOffset":1,"gmtOffset":0,"timeZoneId":"Europe/London"},"lat":55.46273,"lng":-4.63393,"population":45513},{"id":2646867,"name":"Hinckley","timezone":{"dstOffset":1,"gmtOffset":0,"timeZoneId":"Europe/London"},"lat":52.5389,"lng":-1.37613,"population":45130},{"id":2655562,"name":"Bishop's Stortford","timezone":{"dstOffset":1,"gmtOffset":0,"timeZoneId":"Europe/London"},"lat":51.87113,"lng":0.15868,"population":45001},{"id":2634552,"name":"Welwyn Garden City","timezone":{"dstOffset":1,"gmtOffset":0,"timeZoneId":"Europe/London"},"lat":51.80174,"lng":-0.20691,"population":44725},{"id":2636484,"name":"Sutton in Ashfield","timezone":{"dstOffset":1,"gmtOffset":0,"timeZoneId":"Europe/London"},"lat":53.12542,"lng":-1.26135,"population":43912},{"id":2648026,"name":"Great Sankey","timezone":{"dstOffset":1,"gmtOffset":0,"timeZoneId":"Europe/London"},"lat":53.39234,"lng":-2.63994,"population":43793},{"id":2633373,"name":"Yeovil","timezone":{"dstOffset":1,"gmtOffset":0,"timeZoneId":"Europe/London"},"lat":50.94159,"lng":-2.63211,"population":43733},{"id":2656915,"name":"Ashton-under-Lyne","timezone":{"dstOffset":1,"gmtOffset":0,"timeZoneId":"Europe/London"},"lat":53.48876,"lng":-2.0989,"population":43675},{"id":2633485,"name":"Wrexham","timezone":{"dstOffset":1,"gmtOffset":0,"timeZoneId":"Europe/London"},"lat":53.04664,"lng":-2.99132,"population":43649},{"id":2640358,"name":"Perth","timezone":{"dstOffset":1,"gmtOffset":0,"timeZoneId":"Europe/London"},"lat":56.39522,"lng":-3.43139,"population":43633},{"id":2644660,"name":"Leigh","timezone":{"dstOffset":1,"gmtOffset":0,"timeZoneId":"Europe/London"},"lat":53.48333,"lng":-2.51667,"population":43626},{"id":2644726,"name":"Leatherhead","timezone":{"dstOffset":1,"gmtOffset":0,"timeZoneId":"Europe/London"},"lat":51.29652,"lng":-0.3338,"population":43544},{"id":2647948,"name":"Greenock","timezone":{"dstOffset":1,"gmtOffset":0,"timeZoneId":"Europe/London"},"lat":55.94838,"lng":-4.76121,"population":43495},{"id":2645605,"name":"Kilmarnock","timezone":{"dstOffset":1,"gmtOffset":0,"timeZoneId":"Europe/London"},"lat":55.61171,"lng":-4.49581,"population":42904},{"id":2634864,"name":"Wallsend","timezone":{"dstOffset":1,"gmtOffset":0,"timeZoneId":"Europe/London"},"lat":54.99111,"lng":-1.53397,"population":42739},{"id":2634579,"name":"Welling","timezone":{"dstOffset":1,"gmtOffset":0,"timeZoneId":"Europe/London"},"lat":51.46246,"lng":0.10759,"population":42500},{"id":2653075,"name":"Christchurch","timezone":{"dstOffset":1,"gmtOffset":0,"timeZoneId":"Europe/London"},"lat":50.73583,"lng":-1.78129,"population":42396},{"id":2641224,"name":"Northwich","timezone":{"dstOffset":1,"gmtOffset":0,"timeZoneId":"Europe/London"},"lat":53.25882,"lng":-2.52025,"population":42113},{"id":2636663,"name":"Stretford","timezone":{"dstOffset":1,"gmtOffset":0,"timeZoneId":"Europe/London"},"lat":53.45,"lng":-2.31667,"population":41953},{"id":2657402,"name":"Altrincham","timezone":{"dstOffset":1,"gmtOffset":0,"timeZoneId":"Europe/London"},"lat":53.38752,"lng":-2.34848,"population":41548},{"id":2652622,"name":"Coity","timezone":{"dstOffset":1,"gmtOffset":0,"timeZoneId":"Europe/London"},"lat":51.522,"lng":-3.55531,"population":41352},{"id":2641690,"name":"Newburn","timezone":{"dstOffset":1,"gmtOffset":0,"timeZoneId":"Europe/London"},"lat":54.9876,"lng":-1.74415,"population":41347},{"id":8315400,"name":"Holloway","timezone":{"dstOffset":1,"gmtOffset":0,"timeZoneId":"Europe/London"},"lat":51.55237,"lng":-0.12497,"population":41329},{"id":6693470,"name":"St Annes","timezone":{"dstOffset":1,"gmtOffset":0,"timeZoneId":"Europe/London"},"lat":53.7426,"lng":-2.997,"population":41327},{"id":2635062,"name":"Urmston","timezone":{"dstOffset":1,"gmtOffset":0,"timeZoneId":"Europe/London"},"lat":53.44852,"lng":-2.35419,"population":41198},{"id":2652696,"name":"Coatbridge","timezone":{"dstOffset":1,"gmtOffset":0,"timeZoneId":"Europe/London"},"lat":55.86216,"lng":-4.02469,"population":41170},{"id":2637802,"name":"Sittingbourne","timezone":{"dstOffset":1,"gmtOffset":0,"timeZoneId":"Europe/London"},"lat":51.34128,"lng":0.73282,"population":41148},{"id":2633708,"name":"Wokingham","timezone":{"dstOffset":1,"gmtOffset":0,"timeZoneId":"Europe/London"},"lat":51.4112,"lng":-0.83565,"population":41143},{"id":2636465,"name":"Swadlincote","timezone":{"dstOffset":1,"gmtOffset":0,"timeZoneId":"Europe/London"},"lat":52.774,"lng":-1.55744,"population":40960},{"id":2639928,"name":"Prescot","timezone":{"dstOffset":1,"gmtOffset":0,"timeZoneId":"Europe/London"},"lat":53.42948,"lng":-2.80031,"population":40889},{"id":2646088,"name":"Inverness","timezone":{"dstOffset":1,"gmtOffset":0,"timeZoneId":"Europe/London"},"lat":57.47908,"lng":-4.22398,"population":40755},{"id":2655777,"name":"Bexhill","timezone":{"dstOffset":1,"gmtOffset":0,"timeZoneId":"Europe/London"},"lat":50.85023,"lng":0.47095,"population":40478},{"id":2633551,"name":"Worksop","timezone":{"dstOffset":1,"gmtOffset":0,"timeZoneId":"Europe/London"},"lat":53.30182,"lng":-1.12404,"population":40443},{"id":2654200,"name":"Burton-on-Trent","timezone":{"dstOffset":1,"gmtOffset":0,"timeZoneId":"Europe/London"},"lat":52.80728,"lng":-1.64263,"population":40039},{"id":2633858,"name":"Winchester","timezone":{"dstOffset":1,"gmtOffset":0,"timeZoneId":"Europe/London"},"lat":51.06513,"lng":-1.3187,"population":40000},{"id":2655329,"name":"Bloxwich","timezone":{"dstOffset":1,"gmtOffset":0,"timeZoneId":"Europe/London"},"lat":52.61806,"lng":-2.00431,"population":40000},{"id":6690867,"name":"Ewell","timezone":{"dstOffset":1,"gmtOffset":0,"timeZoneId":"Europe/London"},"lat":51.34948,"lng":-0.2494,"population":39994},{"id":2657324,"name":"Andover","timezone":{"dstOffset":1,"gmtOffset":0,"timeZoneId":"Europe/London"},"lat":51.21135,"lng":-1.49393,"population":39951},{"id":2641267,"name":"North Shields","timezone":{"dstOffset":1,"gmtOffset":0,"timeZoneId":"Europe/London"},"lat":55.01646,"lng":-1.44925,"population":39747},{"id":2654755,"name":"Bridgend","timezone":{"dstOffset":1,"gmtOffset":0,"timeZoneId":"Europe/London"},"lat":51.50583,"lng":-3.57722,"population":39429},{"id":2645313,"name":"Kirkby","timezone":{"dstOffset":1,"gmtOffset":0,"timeZoneId":"Europe/London"},"lat":53.48138,"lng":-2.89215,"population":39208},{"id":2653584,"name":"Castleford","timezone":{"dstOffset":1,"gmtOffset":0,"timeZoneId":"Europe/London"},"lat":53.72587,"lng":-1.36256,"population":39142},{"id":2650732,"name":"Dunfermline","timezone":{"dstOffset":1,"gmtOffset":0,"timeZoneId":"Europe/London"},"lat":56.07156,"lng":-3.45887,"population":38960},{"id":2637752,"name":"Skelmersdale","timezone":{"dstOffset":1,"gmtOffset":0,"timeZoneId":"Europe/London"},"lat":53.55024,"lng":-2.77348,"population":38944},{"id":2638419,"name":"Scarborough","timezone":{"dstOffset":1,"gmtOffset":0,"timeZoneId":"Europe/London"},"lat":54.27966,"lng":-0.40443,"population":38909},{"id":2648438,"name":"Glenrothes","timezone":{"dstOffset":1,"gmtOffset":0,"timeZoneId":"Europe/London"},"lat":56.19514,"lng":-3.17316,"population":38734},{"id":2639660,"name":"Ramsgate","timezone":{"dstOffset":1,"gmtOffset":0,"timeZoneId":"Europe/London"},"lat":51.33576,"lng":1.41552,"population":38624},{"id":2654186,"name":"Bury St","timezone":{"dstOffset":1,"gmtOffset":0,"timeZoneId":"Europe/London"},"lat":52.2463,"lng":0.71111,"population":38622},{"id":2646274,"name":"Ilkeston","timezone":{"dstOffset":1,"gmtOffset":0,"timeZoneId":"Europe/London"},"lat":52.97055,"lng":-1.30951,"population":38587},{"id":6690866,"name":"Surbiton","timezone":{"dstOffset":1,"gmtOffset":0,"timeZoneId":"Europe/London"},"lat":51.39148,"lng":-0.29825,"population":38158},{"id":2634032,"name":"Whitley Bay","timezone":{"dstOffset":1,"gmtOffset":0,"timeZoneId":"Europe/London"},"lat":55.03973,"lng":-1.44713,"population":38055},{"id":2654730,"name":"Bridgwater","timezone":{"dstOffset":1,"gmtOffset":0,"timeZoneId":"Europe/London"},"lat":51.12837,"lng":-3.00356,"population":38020},{"id":2647972,"name":"Greenford","timezone":{"dstOffset":1,"gmtOffset":0,"timeZoneId":"Europe/London"},"lat":51.52866,"lng":-0.35508,"population":38000},{"id":2657030,"name":"Arnold","timezone":{"dstOffset":1,"gmtOffset":0,"timeZoneId":"Europe/London"},"lat":53,"lng":-1.13333,"population":37873},{"id":2646525,"name":"Houghton-le-Spring","timezone":{"dstOffset":1,"gmtOffset":0,"timeZoneId":"Europe/London"},"lat":54.84034,"lng":-1.46427,"population":37840},{"id":2648063,"name":"Great Malvern","timezone":{"dstOffset":1,"gmtOffset":0,"timeZoneId":"Europe/London"},"lat":52.11161,"lng":-2.32515,"population":37663},{"id":2644547,"name":"Leyland","timezone":{"dstOffset":1,"gmtOffset":0,"timeZoneId":"Europe/London"},"lat":53.69786,"lng":-2.68758,"population":37614},{"id":2633397,"name":"Yeadon","timezone":{"dstOffset":1,"gmtOffset":0,"timeZoneId":"Europe/London"},"lat":53.86437,"lng":-1.68743,"population":37379},{"id":2650278,"name":"Eccles","timezone":{"dstOffset":1,"gmtOffset":0,"timeZoneId":"Europe/London"},"lat":53.48333,"lng":-2.33333,"population":37275},{"id":2639563,"name":"Redcar","timezone":{"dstOffset":1,"gmtOffset":0,"timeZoneId":"Europe/London"},"lat":54.61657,"lng":-1.05999,"population":37203},{"id":2657780,"name":"Abingdon","timezone":{"dstOffset":1,"gmtOffset":0,"timeZoneId":"Europe/London"},"lat":51.67109,"lng":-1.28278,"population":37192},{"id":2649660,"name":"Farnham","timezone":{"dstOffset":1,"gmtOffset":0,"timeZoneId":"Europe/London"},"lat":51.21444,"lng":-0.80054,"population":36971},{"id":2635427,"name":"Trowbridge","timezone":{"dstOffset":1,"gmtOffset":0,"timeZoneId":"Europe/London"},"lat":51.31889,"lng":-2.20861,"population":36922},{"id":2653224,"name":"Chester-le-Street","timezone":{"dstOffset":1,"gmtOffset":0,"timeZoneId":"Europe/London"},"lat":54.85862,"lng":-1.57408,"population":36917},{"id":2635703,"name":"Tonbridge","timezone":{"dstOffset":1,"gmtOffset":0,"timeZoneId":"Europe/London"},"lat":51.19242,"lng":0.27532,"population":36894},{"id":2653144,"name":"Chippenham","timezone":{"dstOffset":1,"gmtOffset":0,"timeZoneId":"Europe/London"},"lat":51.46,"lng":-2.12472,"population":36890},{"id":2647057,"name":"Herne Bay","timezone":{"dstOffset":1,"gmtOffset":0,"timeZoneId":"Europe/London"},"lat":51.373,"lng":1.12857,"population":36642},{"id":2633883,"name":"Wilmslow","timezone":{"dstOffset":1,"gmtOffset":0,"timeZoneId":"Europe/London"},"lat":53.32803,"lng":-2.23148,"population":36617},{"id":2643116,"name":"Mangotsfield","timezone":{"dstOffset":1,"gmtOffset":0,"timeZoneId":"Europe/London"},"lat":51.4878,"lng":-2.50403,"population":36427},{"id":2655315,"name":"Blyth","timezone":{"dstOffset":1,"gmtOffset":0,"timeZoneId":"Europe/London"},"lat":55.12708,"lng":-1.50856,"population":36355},{"id":2653137,"name":"Chipping Sodbury","timezone":{"dstOffset":1,"gmtOffset":0,"timeZoneId":"Europe/London"},"lat":51.53813,"lng":-2.39379,"population":36108},{"id":2634887,"name":"Walkden","timezone":{"dstOffset":1,"gmtOffset":0,"timeZoneId":"Europe/London"},"lat":53.51667,"lng":-2.4,"population":35937},{"id":2635281,"name":"Tyldesley","timezone":{"dstOffset":1,"gmtOffset":0,"timeZoneId":"Europe/London"},"lat":53.51393,"lng":-2.46754,"population":35932},{"id":2655729,"name":"Bicester","timezone":{"dstOffset":1,"gmtOffset":0,"timeZoneId":"Europe/London"},"lat":51.89998,"lng":-1.15357,"population":35902},{"id":2655138,"name":"Boston","timezone":{"dstOffset":1,"gmtOffset":0,"timeZoneId":"Europe/London"},"lat":52.97633,"lng":-0.02664,"population":35859},{"id":2648208,"name":"Grantham","timezone":{"dstOffset":1,"gmtOffset":0,"timeZoneId":"Europe/London"},"lat":52.91149,"lng":-0.64184,"population":35720},{"id":2655664,"name":"Billingham","timezone":{"dstOffset":1,"gmtOffset":0,"timeZoneId":"Europe/London"},"lat":54.58881,"lng":-1.29034,"population":35708},{"id":2640106,"name":"Pontypool","timezone":{"dstOffset":1,"gmtOffset":0,"timeZoneId":"Europe/London"},"lat":51.70111,"lng":-3.04444,"population":35686},{"id":2657613,"name":"Airdrie","timezone":{"dstOffset":1,"gmtOffset":0,"timeZoneId":"Europe/London"},"lat":55.86602,"lng":-3.98025,"population":35440},{"id":2657770,"name":"Accrington","timezone":{"dstOffset":1,"gmtOffset":0,"timeZoneId":"Europe/London"},"lat":53.75379,"lng":-2.35863,"population":35318},{"id":2654668,"name":"Briton Ferry","timezone":{"dstOffset":1,"gmtOffset":0,"timeZoneId":"Europe/London"},"lat":51.63106,"lng":-3.81898,"population":35179},{"id":2646807,"name":"Hoddesdon","timezone":{"dstOffset":1,"gmtOffset":0,"timeZoneId":"Europe/London"},"lat":51.76148,"lng":-0.01144,"population":35174},{"id":2654728,"name":"Bridlington","timezone":{"dstOffset":1,"gmtOffset":0,"timeZoneId":"Europe/London"},"lat":54.08306,"lng":-0.19192,"population":35057},{"id":2655882,"name":"Bentley","timezone":{"dstOffset":1,"gmtOffset":0,"timeZoneId":"Europe/London"},"lat":53.53333,"lng":-1.15,"population":34821},{"id":2645456,"name":"Kings Lynn","timezone":{"dstOffset":1,"gmtOffset":0,"timeZoneId":"Europe/London"},"lat":52.75172,"lng":0.39516,"population":34564},{"id":2655672,"name":"Billericay","timezone":{"dstOffset":1,"gmtOffset":0,"timeZoneId":"Europe/London"},"lat":51.62867,"lng":0.41963,"population":34467},{"id":2649578,"name":"Felling","timezone":{"dstOffset":1,"gmtOffset":0,"timeZoneId":"Europe/London"},"lat":54.95297,"lng":-1.57152,"population":34355},{"id":6691227,"name":"Radcliffe","timezone":{"dstOffset":1,"gmtOffset":0,"timeZoneId":"Europe/London"},"lat":53.56178,"lng":-2.32455,"population":34239},{"id":2649322,"name":"Fleet","timezone":{"dstOffset":1,"gmtOffset":0,"timeZoneId":"Europe/London"},"lat":51.28333,"lng":-0.83333,"population":34218},{"id":2644597,"name":"Letchworth","timezone":{"dstOffset":1,"gmtOffset":0,"timeZoneId":"Europe/London"},"lat":51.97944,"lng":-0.2284,"population":33955},{"id":2653086,"name":"Chorley","timezone":{"dstOffset":1,"gmtOffset":0,"timeZoneId":"Europe/London"},"lat":53.65,"lng":-2.61667,"population":33888},{"id":2646826,"name":"Hitchin","timezone":{"dstOffset":1,"gmtOffset":0,"timeZoneId":"Europe/London"},"lat":51.94924,"lng":-0.28496,"population":33830},{"id":2633936,"name":"Wigston Magna","timezone":{"dstOffset":1,"gmtOffset":0,"timeZoneId":"Europe/London"},"lat":52.58128,"lng":-1.09248,"population":33720},{"id":8224216,"name":"Letchworth","timezone":{"dstOffset":1,"gmtOffset":0,"timeZoneId":"Europe/London"},"lat":51.97938,"lng":-0.22664,"population":33600},{"id":2634616,"name":"Wednesfield","timezone":{"dstOffset":1,"gmtOffset":0,"timeZoneId":"Europe/London"},"lat":52.5963,"lng":-2.08508,"population":33555},{"id":2644652,"name":"Leighton Buzzard","timezone":{"dstOffset":1,"gmtOffset":0,"timeZoneId":"Europe/London"},"lat":51.91722,"lng":-0.65802,"population":33467},{"id":2636619,"name":"Strood","timezone":{"dstOffset":1,"gmtOffset":0,"timeZoneId":"Europe/London"},"lat":51.39594,"lng":0.49361,"population":33381},{"id":2652698,"name":"Coalville","timezone":{"dstOffset":1,"gmtOffset":0,"timeZoneId":"Europe/London"},"lat":52.72247,"lng":-1.3702,"population":33288},{"id":2648405,"name":"Glossop","timezone":{"dstOffset":1,"gmtOffset":0,"timeZoneId":"Europe/London"},"lat":53.44325,"lng":-1.949,"population":33243},{"id":2639866,"name":"Pudsey","timezone":{"dstOffset":1,"gmtOffset":0,"timeZoneId":"Europe/London"},"lat":53.79538,"lng":-1.66134,"population":33109},{"id":2641689,"name":"Newbury","timezone":{"dstOffset":1,"gmtOffset":0,"timeZoneId":"Europe/London"},"lat":51.40148,"lng":-1.32471,"population":33065},{"id":2636910,"name":"Stirling","timezone":{"dstOffset":1,"gmtOffset":0,"timeZoneId":"Europe/London"},"lat":56.11903,"lng":-3.93682,"population":33012},{"id":2633976,"name":"Wickford","timezone":{"dstOffset":1,"gmtOffset":0,"timeZoneId":"Europe/London"},"lat":51.61101,"lng":0.52331,"population":32975},{"id":2649800,"name":"Exmouth","timezone":{"dstOffset":1,"gmtOffset":0,"timeZoneId":"Europe/London"},"lat":50.61723,"lng":-3.40233,"population":32972},{"id":2654715,"name":"Brighouse","timezone":{"dstOffset":1,"gmtOffset":0,"timeZoneId":"Europe/London"},"lat":53.70322,"lng":-1.78428,"population":32872},{"id":2657835,"name":"Aberdare","timezone":{"dstOffset":1,"gmtOffset":0,"timeZoneId":"Europe/London"},"lat":51.71438,"lng":-3.44918,"population":32756},{"id":2646032,"name":"Irvine","timezone":{"dstOffset":1,"gmtOffset":0,"timeZoneId":"Europe/London"},"lat":55.6194,"lng":-4.65508,"population":32748},{"id":2651495,"name":"Darwen","timezone":{"dstOffset":1,"gmtOffset":0,"timeZoneId":"Europe/London"},"lat":53.69803,"lng":-2.46494,"population":32566},{"id":2656281,"name":"Barnstaple","timezone":{"dstOffset":1,"gmtOffset":0,"timeZoneId":"Europe/London"},"lat":51.08022,"lng":-4.05808,"population":32532},{"id":2649723,"name":"Falkirk","timezone":{"dstOffset":1,"gmtOffset":0,"timeZoneId":"Europe/London"},"lat":56.0021,"lng":-3.78535,"population":32479},{"id":2655186,"name":"Borehamwood","timezone":{"dstOffset":1,"gmtOffset":0,"timeZoneId":"Europe/London"},"lat":51.65468,"lng":-0.27762,"population":32176},{"id":2639897,"name":"Prestwich","timezone":{"dstOffset":1,"gmtOffset":0,"timeZoneId":"Europe/London"},"lat":53.53333,"lng":-2.28333,"population":32125},{"id":2652885,"name":"Meggies","timezone":{"dstOffset":1,"gmtOffset":0,"timeZoneId":"Europe/London"},"lat":53.56047,"lng":-0.03225,"population":32017},{"id":7290015,"name":"Lower Earley","timezone":{"dstOffset":1,"gmtOffset":0,"timeZoneId":"Europe/London"},"lat":51.42708,"lng":-0.91979,"population":32000},{"id":8224782,"name":"Shirley","timezone":{"dstOffset":1,"gmtOffset":0,"timeZoneId":"Europe/London"},"lat":52.41074,"lng":-1.81952,"population":32000},{"id":8299616,"name":"Deeside","timezone":{"dstOffset":1,"gmtOffset":0,"timeZoneId":"Europe/London"},"lat":53.20053,"lng":-3.03841,"population":32000},{"id":2655785,"name":"Beverley","timezone":{"dstOffset":1,"gmtOffset":0,"timeZoneId":"Europe/London"},"lat":53.84587,"lng":-0.42332,"population":31968},{"id":2646327,"name":"Hyde","timezone":{"dstOffset":1,"gmtOffset":0,"timeZoneId":"Europe/London"},"lat":53.45131,"lng":-2.07943,"population":31926},{"id":2654308,"name":"Burgess Hill","timezone":{"dstOffset":1,"gmtOffset":0,"timeZoneId":"Europe/London"},"lat":50.95843,"lng":-0.13287,"population":31183},{"id":8299615,"name":"Thornton-Cleveleys","timezone":{"dstOffset":1,"gmtOffset":0,"timeZoneId":"Europe/London"},"lat":53.87389,"lng":-3.02244,"population":31157},{"id":2654089,"name":"Caerphilly","timezone":{"dstOffset":1,"gmtOffset":0,"timeZoneId":"Europe/London"},"lat":51.57452,"lng":-3.218,"population":31060},{"id":2638976,"name":"Ruislip","timezone":{"dstOffset":1,"gmtOffset":0,"timeZoneId":"Europe/London"},"lat":51.57344,"lng":-0.42341,"population":31000},{"id":2652513,"name":"Colwyn Bay","timezone":{"dstOffset":1,"gmtOffset":0,"timeZoneId":"Europe/London"},"lat":53.29483,"lng":-3.72674,"population":30829},{"id":2642705,"name":"Merthyr Tydfil","timezone":{"dstOffset":1,"gmtOffset":0,"timeZoneId":"Europe/London"},"lat":51.74794,"lng":-3.37779,"population":30821},{"id":2633810,"name":"Winsford","timezone":{"dstOffset":1,"gmtOffset":0,"timeZoneId":"Europe/London"},"lat":53.18333,"lng":-2.51667,"population":30812},{"id":2636616,"name":"Stroud","timezone":{"dstOffset":1,"gmtOffset":0,"timeZoneId":"Europe/London"},"lat":51.75,"lng":-2.2,"population":30600},{"id":2640104,"name":"Pontypridd","timezone":{"dstOffset":1,"gmtOffset":0,"timeZoneId":"Europe/London"},"lat":51.6021,"lng":-3.34211,"population":30420},{"id":2639583,"name":"Rayleigh","timezone":{"dstOffset":1,"gmtOffset":0,"timeZoneId":"Europe/London"},"lat":51.58571,"lng":0.60459,"population":30196},{"id":2634021,"name":"Whitstable","timezone":{"dstOffset":1,"gmtOffset":0,"timeZoneId":"Europe/London"},"lat":51.3607,"lng":1.0257,"population":30195},{"id":2653947,"name":"Camberley","timezone":{"dstOffset":1,"gmtOffset":0,"timeZoneId":"Europe/London"},"lat":51.33705,"lng":-0.74261,"population":30155},{"id":2647026,"name":"Heswall","timezone":{"dstOffset":1,"gmtOffset":0,"timeZoneId":"Europe/London"},"lat":53.32733,"lng":-3.09648,"population":30065},{"id":2656295,"name":"Barnet","timezone":{"dstOffset":1,"gmtOffset":0,"timeZoneId":"Europe/London"},"lat":51.65,"lng":-0.2,"population":30000},{"id":2652095,"name":"Cramlington","timezone":{"dstOffset":1,"gmtOffset":0,"timeZoneId":"Europe/London"},"lat":55.08652,"lng":-1.58598,"population":29985},{"id":2656031,"name":"Bedworth","timezone":{"dstOffset":1,"gmtOffset":0,"timeZoneId":"Europe/London"},"lat":52.4791,"lng":-1.46909,"population":29981},{"id":2640349,"name":"Peterlee","timezone":{"dstOffset":1,"gmtOffset":0,"timeZoneId":"Europe/London"},"lat":54.76032,"lng":-1.33649,"population":29979},{"id":2642135,"name":"Motherwell","timezone":{"dstOffset":1,"gmtOffset":0,"timeZoneId":"Europe/London"},"lat":55.78924,"lng":-3.99187,"population":29908},{"id":2652730,"name":"Clydebank","timezone":{"dstOffset":1,"gmtOffset":0,"timeZoneId":"Europe/London"},"lat":55.90137,"lng":-4.4057,"population":29867},{"id":2654252,"name":"Burntwood","timezone":{"dstOffset":1,"gmtOffset":0,"timeZoneId":"Europe/London"},"lat":52.68075,"lng":-1.92759,"population":29766},{"id":2646460,"name":"Hucknall Torkard","timezone":{"dstOffset":1,"gmtOffset":0,"timeZoneId":"Europe/London"},"lat":53.03333,"lng":-1.2,"population":29728},{"id":2650188,"name":"Egham","timezone":{"dstOffset":1,"gmtOffset":0,"timeZoneId":"Europe/London"},"lat":51.43158,"lng":-0.55239,"population":29663},{"id":2647248,"name":"Haywards Heath","timezone":{"dstOffset":1,"gmtOffset":0,"timeZoneId":"Europe/London"},"lat":50.99769,"lng":-0.10313,"population":29660},{"id":2645721,"name":"Kidsgrove","timezone":{"dstOffset":1,"gmtOffset":0,"timeZoneId":"Europe/London"},"lat":53.08691,"lng":-2.23777,"population":29480},{"id":2645826,"name":"Kendal","timezone":{"dstOffset":1,"gmtOffset":0,"timeZoneId":"Europe/London"},"lat":54.32681,"lng":-2.74757,"population":29468},{"id":2641519,"name":"Newtownards","timezone":{"dstOffset":1,"gmtOffset":0,"timeZoneId":"Europe/London"},"lat":54.59236,"lng":-5.69092,"population":29363},{"id":2649579,"name":"Felixstowe","timezone":{"dstOffset":1,"gmtOffset":0,"timeZoneId":"Europe/London"},"lat":51.96375,"lng":1.3511,"population":29349},{"id":2641810,"name":"Nelson","timezone":{"dstOffset":1,"gmtOffset":0,"timeZoneId":"Europe/London"},"lat":53.83333,"lng":-2.2,"population":29317},{"id":2635603,"name":"Totton","timezone":{"dstOffset":1,"gmtOffset":0,"timeZoneId":"Europe/London"},"lat":50.91877,"lng":-1.49037,"population":29260},{"id":2651468,"name":"Deal","timezone":{"dstOffset":1,"gmtOffset":0,"timeZoneId":"Europe/London"},"lat":51.22322,"lng":1.40432,"population":29248},{"id":2654579,"name":"Bromsgrove","timezone":{"dstOffset":1,"gmtOffset":0,"timeZoneId":"Europe/London"},"lat":52.33574,"lng":-2.05983,"population":29237},{"id":2653680,"name":"Carrickfergus","timezone":{"dstOffset":1,"gmtOffset":0,"timeZoneId":"Europe/London"},"lat":54.7158,"lng":-5.8058,"population":29208},{"id":2656918,"name":"Ashton in Makerfield","timezone":{"dstOffset":1,"gmtOffset":0,"timeZoneId":"Europe/London"},"lat":53.48333,"lng":-2.65,"population":29039},{"id":2644531,"name":"Lichfield","timezone":{"dstOffset":1,"gmtOffset":0,"timeZoneId":"Europe/London"},"lat":52.68154,"lng":-1.82549,"population":28973},{"id":2647451,"name":"Harpenden","timezone":{"dstOffset":1,"gmtOffset":0,"timeZoneId":"Europe/London"},"lat":51.81684,"lng":-0.35706,"population":28966},{"id":2653290,"name":"Cheadle Hulme","timezone":{"dstOffset":1,"gmtOffset":0,"timeZoneId":"Europe/London"},"lat":53.3761,"lng":-2.1897,"population":28952},{"id":2656490,"name":"Ballymena","timezone":{"dstOffset":1,"gmtOffset":0,"timeZoneId":"Europe/London"},"lat":54.86357,"lng":-6.27628,"population":28932},{"id":2639268,"name":"Rochester","timezone":{"dstOffset":1,"gmtOffset":0,"timeZoneId":"Europe/London"},"lat":51.38764,"lng":0.50546,"population":28671},{"id":2640132,"name":"Pontefract","timezone":{"dstOffset":1,"gmtOffset":0,"timeZoneId":"Europe/London"},"lat":53.69107,"lng":-1.31269,"population":28620},{"id":2637958,"name":"Shipley","timezone":{"dstOffset":1,"gmtOffset":0,"timeZoneId":"Europe/London"},"lat":53.83333,"lng":-1.76667,"population":28544},{"id":2633842,"name":"Windsor","timezone":{"dstOffset":1,"gmtOffset":0,"timeZoneId":"Europe/London"},"lat":51.48333,"lng":-0.6,"population":28324},{"id":2653192,"name":"Chichester","timezone":{"dstOffset":1,"gmtOffset":0,"timeZoneId":"Europe/London"},"lat":50.83673,"lng":-0.78003,"population":28222},{"id":2651048,"name":"Dover","timezone":{"dstOffset":1,"gmtOffset":0,"timeZoneId":"Europe/London"},"lat":51.13333,"lng":1.3,"population":28156},{"id":6691235,"name":"Heywood","timezone":{"dstOffset":1,"gmtOffset":0,"timeZoneId":"Europe/London"},"lat":53.59245,"lng":-2.21941,"population":28024},{"id":3042091,"name":"Saint Helier","timezone":{"dstOffset":1,"gmtOffset":0,"timeZoneId":"Europe/Jersey"},"lat":49.18804,"lng":-2.10491,"population":28000},{"id":2654724,"name":"Brierley Hill","timezone":{"dstOffset":1,"gmtOffset":0,"timeZoneId":"Europe/London"},"lat":52.48173,"lng":-2.12139,"population":28000},{"id":2647349,"name":"Hatfield","timezone":{"dstOffset":1,"gmtOffset":0,"timeZoneId":"Europe/London"},"lat":51.76338,"lng":-0.22419,"population":27883},{"id":2638187,"name":"Sevenoaks","timezone":{"dstOffset":1,"gmtOffset":0,"timeZoneId":"Europe/London"},"lat":51.27266,"lng":0.18883,"population":27871},{"id":2656086,"name":"Bearsden","timezone":{"dstOffset":1,"gmtOffset":0,"timeZoneId":"Europe/London"},"lat":55.91536,"lng":-4.33279,"population":27839},{"id":2636534,"name":"Sunbury-on-Thames","timezone":{"dstOffset":1,"gmtOffset":0,"timeZoneId":"Europe/London"},"lat":51.40424,"lng":-0.41817,"population":27784},{"id":2641581,"name":"Newry","timezone":{"dstOffset":1,"gmtOffset":0,"timeZoneId":"Europe/London"},"lat":54.17841,"lng":-6.33739,"population":27757},{"id":2633765,"name":"Wishaw","timezone":{"dstOffset":1,"gmtOffset":0,"timeZoneId":"Europe/London"},"lat":55.76667,"lng":-3.91667,"population":27627},{"id":2645309,"name":"Kirkby in Ashfield","timezone":{"dstOffset":1,"gmtOffset":0,"timeZoneId":"Europe/London"},"lat":53.09982,"lng":-1.24379,"population":27539},{"id":2633912,"name":"Willenhall","timezone":{"dstOffset":1,"gmtOffset":0,"timeZoneId":"Europe/London"},"lat":52.58514,"lng":-2.05934,"population":27500},{"id":2651357,"name":"Denton","timezone":{"dstOffset":1,"gmtOffset":0,"timeZoneId":"Europe/London"},"lat":53.45678,"lng":-2.11822,"population":27464},{"id":2652890,"name":"Cleckheaton","timezone":{"dstOffset":1,"gmtOffset":0,"timeZoneId":"Europe/London"},"lat":53.72405,"lng":-1.71294,"population":27393},{"id":2645972,"name":"Jarrow","timezone":{"dstOffset":1,"gmtOffset":0,"timeZoneId":"Europe/London"},"lat":54.98036,"lng":-1.48423,"population":27264},{"id":2649312,"name":"Fleetwood","timezone":{"dstOffset":1,"gmtOffset":0,"timeZoneId":"Europe/London"},"lat":53.92527,"lng":-3.01085,"population":27077},{"id":2649957,"name":"Epsom","timezone":{"dstOffset":1,"gmtOffset":0,"timeZoneId":"Europe/London"},"lat":51.3305,"lng":-0.27011,"population":27065},{"id":2657703,"name":"Acocks Green","timezone":{"dstOffset":1,"gmtOffset":0,"timeZoneId":"Europe/London"},"lat":52.45,"lng":-1.81667,"population":26635},{"id":2650435,"name":"East Grinstead","timezone":{"dstOffset":1,"gmtOffset":0,"timeZoneId":"Europe/London"},"lat":51.12382,"lng":-0.0061,"population":26523},{"id":2642763,"name":"Melton Mowbray","timezone":{"dstOffset":1,"gmtOffset":0,"timeZoneId":"Europe/London"},"lat":52.76588,"lng":-0.88693,"population":26405},{"id":2638946,"name":"Rushden","timezone":{"dstOffset":1,"gmtOffset":0,"timeZoneId":"Europe/London"},"lat":52.28927,"lng":-0.60184,"population":26307},{"id":2641555,"name":"Newton Aycliffe","timezone":{"dstOffset":1,"gmtOffset":0,"timeZoneId":"Europe/London"},"lat":54.61842,"lng":-1.5719,"population":26269},{"id":3042237,"name":"Douglas","timezone":{"dstOffset":1,"gmtOffset":0,"timeZoneId":"Europe/Isle_of_Man"},"lat":54.15,"lng":-4.48333,"population":26218},{"id":3345437,"name":"Camden Town","timezone":{"dstOffset":1,"gmtOffset":0,"timeZoneId":"Europe/London"},"lat":51.54057,"lng":-0.14334,"population":26122},{"id":2652464,"name":"Congleton","timezone":{"dstOffset":1,"gmtOffset":0,"timeZoneId":"Europe/London"},"lat":53.16314,"lng":-2.21253,"population":26030},{"id":2641290,"name":"Northolt","timezone":{"dstOffset":1,"gmtOffset":0,"timeZoneId":"Europe/London"},"lat":51.54855,"lng":-0.36778,"population":26000},{"id":2655819,"name":"Berwick","timezone":{"dstOffset":1,"gmtOffset":0,"timeZoneId":"Europe/London"},"lat":55.78333,"lng":-2,"population":26000},{"id":2639409,"name":"Rhyl","timezone":{"dstOffset":1,"gmtOffset":0,"timeZoneId":"Europe/London"},"lat":53.31929,"lng":-3.49228,"population":25874},{"id":2647044,"name":"Hertford","timezone":{"dstOffset":1,"gmtOffset":0,"timeZoneId":"Europe/London"},"lat":51.79588,"lng":-0.07854,"population":25847},{"id":2651269,"name":"Didcot","timezone":{"dstOffset":1,"gmtOffset":0,"timeZoneId":"Europe/London"},"lat":51.60928,"lng":-1.24214,"population":25793},{"id":2641557,"name":"Newton Abbot","timezone":{"dstOffset":1,"gmtOffset":0,"timeZoneId":"Europe/London"},"lat":50.52858,"lng":-3.61186,"population":25789},{"id":2636995,"name":"Staveley","timezone":{"dstOffset":1,"gmtOffset":0,"timeZoneId":"Europe/London"},"lat":53.26667,"lng":-1.35,"population":25719},{"id":2652586,"name":"Coleraine","timezone":{"dstOffset":1,"gmtOffset":0,"timeZoneId":"Europe/London"},"lat":55.13333,"lng":-6.66667,"population":25681},{"id":2649650,"name":"Farnworth","timezone":{"dstOffset":1,"gmtOffset":0,"timeZoneId":"Europe/London"},"lat":53.55,"lng":-2.4,"population":25680},{"id":2655583,"name":"Bishop Auckland","timezone":{"dstOffset":1,"gmtOffset":0,"timeZoneId":"Europe/London"},"lat":54.65554,"lng":-1.67706,"population":25665},{"id":2651831,"name":"Crowthorne","timezone":{"dstOffset":1,"gmtOffset":0,"timeZoneId":"Europe/London"},"lat":51.37027,"lng":-0.79219,"population":25522},{"id":2647303,"name":"Hawarden","timezone":{"dstOffset":1,"gmtOffset":0,"timeZoneId":"Europe/London"},"lat":53.18478,"lng":-3.02578,"population":25513},{"id":2654927,"name":"Bramhall","timezone":{"dstOffset":1,"gmtOffset":0,"timeZoneId":"Europe/London"},"lat":53.35801,"lng":-2.16539,"population":25506},{"id":2652249,"name":"Coulsdon","timezone":{"dstOffset":1,"gmtOffset":0,"timeZoneId":"Europe/London"},"lat":51.32002,"lng":-0.14088,"population":25500},{"id":7302130,"name":"Bartley Green","timezone":{"dstOffset":1,"gmtOffset":0,"timeZoneId":"Europe/London"},"lat":52.43532,"lng":-1.99707,"population":25473},{"id":6690863,"name":"Hornchurch","timezone":{"dstOffset":1,"gmtOffset":0,"timeZoneId":"Europe/London"},"lat":51.55685,"lng":0.21664,"population":25470},{"id":2641731,"name":"Newark on Trent","timezone":{"dstOffset":1,"gmtOffset":0,"timeZoneId":"Europe/London"},"lat":53.06667,"lng":-0.81667,"population":25376},{"id":6947041,"name":"Blackheath","timezone":{"dstOffset":1,"gmtOffset":0,"timeZoneId":"Europe/London"},"lat":51.4647,"lng":0.0079,"population":25116},{"id":2638926,"name":"Rutherglen","timezone":{"dstOffset":1,"gmtOffset":0,"timeZoneId":"Europe/London"},"lat":55.82885,"lng":-4.21376,"population":25000},{"id":2640246,"name":"Pitsea","timezone":{"dstOffset":1,"gmtOffset":0,"timeZoneId":"Europe/London"},"lat":51.56387,"lng":0.50859,"population":25000},{"id":2649024,"name":"Frome","timezone":{"dstOffset":1,"gmtOffset":0,"timeZoneId":"Europe/London"},"lat":51.22834,"lng":-2.32211,"population":24948},{"id":2634096,"name":"Whitehaven","timezone":{"dstOffset":1,"gmtOffset":0,"timeZoneId":"Europe/London"},"lat":54.54897,"lng":-3.58412,"population":24803},{"id":2634617,"name":"Wednesbury","timezone":{"dstOffset":1,"gmtOffset":0,"timeZoneId":"Europe/London"},"lat":52.5514,"lng":-2.02355,"population":24337},{"id":2649571,"name":"Feltham","timezone":{"dstOffset":1,"gmtOffset":0,"timeZoneId":"Europe/London"},"lat":51.4462,"lng":-0.41388,"population":24325},{"id":2636049,"name":"Thatcham","timezone":{"dstOffset":1,"gmtOffset":0,"timeZoneId":"Europe/London"},"lat":51.40366,"lng":-1.26049,"population":24274},{"id":2649198,"name":"Formby","timezone":{"dstOffset":1,"gmtOffset":0,"timeZoneId":"Europe/London"},"lat":53.55838,"lng":-3.06999,"population":24225},{"id":2641599,"name":"Newport","timezone":{"dstOffset":1,"gmtOffset":0,"timeZoneId":"Europe/London"},"lat":50.70146,"lng":-1.29124,"population":24200},{"id":2646862,"name":"Hindley","timezone":{"dstOffset":1,"gmtOffset":0,"timeZoneId":"Europe/London"},"lat":53.53333,"lng":-2.58333,"population":24169},{"id":2638911,"name":"Ryde","timezone":{"dstOffset":1,"gmtOffset":0,"timeZoneId":"Europe/London"},"lat":50.72999,"lng":-1.1621,"population":24107},{"id":2640190,"name":"Plymstock","timezone":{"dstOffset":1,"gmtOffset":0,"timeZoneId":"Europe/London"},"lat":50.35999,"lng":-4.09049,"population":24103},{"id":2633729,"name":"Witney","timezone":{"dstOffset":1,"gmtOffset":0,"timeZoneId":"Europe/London"},"lat":51.7836,"lng":-1.4854,"population":24103},{"id":2634725,"name":"Warwick","timezone":{"dstOffset":1,"gmtOffset":0,"timeZoneId":"Europe/London"},"lat":52.28333,"lng":-1.58333,"population":24040},{"id":2648356,"name":"Golborne","timezone":{"dstOffset":1,"gmtOffset":0,"timeZoneId":"Europe/London"},"lat":53.47693,"lng":-2.59651,"population":24021},{"id":2648273,"name":"Gosforth","timezone":{"dstOffset":1,"gmtOffset":0,"timeZoneId":"Europe/London"},"lat":55,"lng":-1.61667,"population":23975},{"id":2641617,"name":"New Malden","timezone":{"dstOffset":1,"gmtOffset":0,"timeZoneId":"Europe/London"},"lat":51.40065,"lng":-0.2617,"population":23818},{"id":2641544,"name":"Newton Mearns","timezone":{"dstOffset":1,"gmtOffset":0,"timeZoneId":"Europe/London"},"lat":55.77334,"lng":-4.33339,"population":23808},{"id":2640908,"name":"Ormskirk","timezone":{"dstOffset":1,"gmtOffset":0,"timeZoneId":"Europe/London"},"lat":53.56685,"lng":-2.88178,"population":23792},{"id":2641609,"name":"New Milton","timezone":{"dstOffset":1,"gmtOffset":0,"timeZoneId":"Europe/London"},"lat":50.75601,"lng":-1.6658,"population":23753},{"id":2650962,"name":"Droylsden","timezone":{"dstOffset":1,"gmtOffset":0,"timeZoneId":"Europe/London"},"lat":53.48005,"lng":-2.14543,"population":23689},{"id":2650983,"name":"Droitwich","timezone":{"dstOffset":1,"gmtOffset":0,"timeZoneId":"Europe/London"},"lat":52.26667,"lng":-2.15,"population":23588},{"id":2634103,"name":"Whitefield","timezone":{"dstOffset":1,"gmtOffset":0,"timeZoneId":"Europe/London"},"lat":53.55,"lng":-2.3,"population":23545},{"id":2643776,"name":"Lofthouse","timezone":{"dstOffset":1,"gmtOffset":0,"timeZoneId":"Europe/London"},"lat":53.72947,"lng":-1.49697,"population":23458},{"id":2640496,"name":"Penarth","timezone":{"dstOffset":1,"gmtOffset":0,"timeZoneId":"Europe/London"},"lat":51.4386,"lng":-3.17342,"population":23437},{"id":2638853,"name":"St Austell","timezone":{"dstOffset":1,"gmtOffset":0,"timeZoneId":"Europe/London"},"lat":50.3425,"lng":-4.77442,"population":23432},{"id":2654635,"name":"Broadstairs","timezone":{"dstOffset":1,"gmtOffset":0,"timeZoneId":"Europe/London"},"lat":51.35908,"lng":1.43938,"population":23283},{"id":2641134,"name":"Oadby","timezone":{"dstOffset":1,"gmtOffset":0,"timeZoneId":"Europe/London"},"lat":52.60621,"lng":-1.08354,"population":23184},{"id":2647227,"name":"Heanor","timezone":{"dstOffset":1,"gmtOffset":0,"timeZoneId":"Europe/London"},"lat":53.01372,"lng":-1.35383,"population":23122},{"id":2633749,"name":"Witham","timezone":{"dstOffset":1,"gmtOffset":0,"timeZoneId":"Europe/London"},"lat":51.80007,"lng":0.64038,"population":22995},{"id":2634387,"name":"Westhoughton","timezone":{"dstOffset":1,"gmtOffset":0,"timeZoneId":"Europe/London"},"lat":53.54899,"lng":-2.52464,"population":22994},{"id":2644386,"name":"Litherland","timezone":{"dstOffset":1,"gmtOffset":0,"timeZoneId":"Europe/London"},"lat":53.46993,"lng":-2.99809,"population":22971},{"id":2638977,"name":"Rugeley","timezone":{"dstOffset":1,"gmtOffset":0,"timeZoneId":"Europe/London"},"lat":52.7593,"lng":-1.93694,"population":22937},{"id":2639015,"name":"Royton","timezone":{"dstOffset":1,"gmtOffset":0,"timeZoneId":"Europe/London"},"lat":53.56507,"lng":-2.12267,"population":22848},{"id":2634825,"name":"Walton on Thames","timezone":{"dstOffset":1,"gmtOffset":0,"timeZoneId":"Europe/London"},"lat":51.38533,"lng":-0.42066,"population":22834},{"id":2634573,"name":"Wellington","timezone":{"dstOffset":1,"gmtOffset":0,"timeZoneId":"Europe/London"},"lat":52.7,"lng":-2.51667,"population":22816},{"id":2633655,"name":"Woodford Green","timezone":{"dstOffset":1,"gmtOffset":0,"timeZoneId":"Europe/London"},"lat":51.60938,"lng":0.02329,"population":22803},{"id":2645822,"name":"Kenilworth","timezone":{"dstOffset":1,"gmtOffset":0,"timeZoneId":"Europe/London"},"lat":52.34958,"lng":-1.58276,"population":22799},{"id":2653353,"name":"Chapeltown","timezone":{"dstOffset":1,"gmtOffset":0,"timeZoneId":"Europe/London"},"lat":53.46506,"lng":-1.47217,"population":22785},{"id":2637106,"name":"Stalybridge","timezone":{"dstOffset":1,"gmtOffset":0,"timeZoneId":"Europe/London"},"lat":53.48414,"lng":-2.05908,"population":22748},{"id":2649833,"name":"Evesham","timezone":{"dstOffset":1,"gmtOffset":0,"timeZoneId":"Europe/London"},"lat":52.09237,"lng":-1.94887,"population":22673},{"id":2655582,"name":"Bishopbriggs","timezone":{"dstOffset":1,"gmtOffset":0,"timeZoneId":"Europe/London"},"lat":55.90669,"lng":-4.21869,"population":22668},{"id":2641942,"name":"Musselburgh","timezone":{"dstOffset":1,"gmtOffset":0,"timeZoneId":"Europe/London"},"lat":55.9417,"lng":-3.04991,"population":22656},{"id":2636713,"name":"Stratford-upon-Avon","timezone":{"dstOffset":1,"gmtOffset":0,"timeZoneId":"Europe/London"},"lat":52.19166,"lng":-1.70734,"population":22576},{"id":2657508,"name":"Alfreton","timezone":{"dstOffset":1,"gmtOffset":0,"timeZoneId":"Europe/London"},"lat":53.0961,"lng":-1.38832,"population":22550},{"id":2647310,"name":"Haverhill","timezone":{"dstOffset":1,"gmtOffset":0,"timeZoneId":"Europe/London"},"lat":52.08226,"lng":0.43891,"population":22500},{"id":2653945,"name":"Camborne","timezone":{"dstOffset":1,"gmtOffset":0,"timeZoneId":"Europe/London"},"lat":50.21306,"lng":-5.29731,"population":22500},{"id":2655942,"name":"Belper","timezone":{"dstOffset":1,"gmtOffset":0,"timeZoneId":"Europe/London"},"lat":53.0233,"lng":-1.48119,"population":22427},{"id":2652861,"name":"Clevedon","timezone":{"dstOffset":1,"gmtOffset":0,"timeZoneId":"Europe/London"},"lat":51.44227,"lng":-2.85786,"population":22413},{"id":2637265,"name":"Spalding","timezone":{"dstOffset":1,"gmtOffset":0,"timeZoneId":"Europe/London"},"lat":52.78709,"lng":-0.15141,"population":22357},{"id":2636005,"name":"Thornaby","timezone":{"dstOffset":1,"gmtOffset":0,"timeZoneId":"Europe/London"},"lat":54.53333,"lng":-1.3,"population":22356},{"id":2638311,"name":"Seaford","timezone":{"dstOffset":1,"gmtOffset":0,"timeZoneId":"Europe/London"},"lat":50.77141,"lng":0.10268,"population":22338},{"id":2657215,"name":"Arbroath","timezone":{"dstOffset":1,"gmtOffset":0,"timeZoneId":"Europe/London"},"lat":56.56317,"lng":-2.58736,"population":22291},{"id":2643198,"name":"Maghull","timezone":{"dstOffset":1,"gmtOffset":0,"timeZoneId":"Europe/London"},"lat":53.51619,"lng":-2.94117,"population":22225},{"id":2649715,"name":"Falmouth","timezone":{"dstOffset":1,"gmtOffset":0,"timeZoneId":"Europe/London"},"lat":50.15441,"lng":-5.07113,"population":22222},{"id":2651485,"name":"Daventry","timezone":{"dstOffset":1,"gmtOffset":0,"timeZoneId":"Europe/London"},"lat":52.25688,"lng":-1.16066,"population":22215},{"id":8299621,"name":"Shetland","timezone":{"dstOffset":1,"gmtOffset":0,"timeZoneId":"Europe/London"},"lat":60.15456,"lng":-1.14899,"population":22210},{"id":2648372,"name":"Godalming","timezone":{"dstOffset":1,"gmtOffset":0,"timeZoneId":"Europe/London"},"lat":51.1858,"lng":-0.61489,"population":22199},{"id":2639970,"name":"Potters Bar","timezone":{"dstOffset":1,"gmtOffset":0,"timeZoneId":"Europe/London"},"lat":51.69353,"lng":-0.17835,"population":22192},{"id":2639586,"name":"Rawtenstall","timezone":{"dstOffset":1,"gmtOffset":0,"timeZoneId":"Europe/London"},"lat":53.70076,"lng":-2.28442,"population":22114},{"id":2635412,"name":"Truro","timezone":{"dstOffset":1,"gmtOffset":0,"timeZoneId":"Europe/London"},"lat":50.26526,"lng":-5.05436,"population":22044},{"id":2640085,"name":"Portadown","timezone":{"dstOffset":1,"gmtOffset":0,"timeZoneId":"Europe/London"},"lat":54.42302,"lng":-6.44434,"population":22000},{"id":6691884,"name":"Heavitree","timezone":{"dstOffset":1,"gmtOffset":0,"timeZoneId":"Europe/London"},"lat":50.72044,"lng":-3.49646,"population":22000},{"id":2650346,"name":"East Retford","timezone":{"dstOffset":1,"gmtOffset":0,"timeZoneId":"Europe/London"},"lat":53.32213,"lng":-0.94315,"population":21897},{"id":2633406,"name":"Yate","timezone":{"dstOffset":1,"gmtOffset":0,"timeZoneId":"Europe/London"},"lat":51.54074,"lng":-2.41839,"population":21789},{"id":2641546,"name":"Newton-le-Willows","timezone":{"dstOffset":1,"gmtOffset":0,"timeZoneId":"Europe/London"},"lat":53.45,"lng":-2.6,"population":21782},{"id":2639069,"name":"Rottingdean","timezone":{"dstOffset":1,"gmtOffset":0,"timeZoneId":"Europe/London"},"lat":50.80984,"lng":-0.05939,"population":21756},{"id":2657356,"name":"Amersham","timezone":{"dstOffset":1,"gmtOffset":0,"timeZoneId":"Europe/London"},"lat":51.66667,"lng":-0.61667,"population":21731},{"id":6693771,"name":"Hadley Wood","timezone":{"dstOffset":1,"gmtOffset":0,"timeZoneId":"Europe/London"},"lat":51.66669,"lng":-0.16981,"population":21639},{"id":2640869,"name":"Ossett","timezone":{"dstOffset":1,"gmtOffset":0,"timeZoneId":"Europe/London"},"lat":53.67978,"lng":-1.58006,"population":21616},{"id":2636032,"name":"Thetford","timezone":{"dstOffset":1,"gmtOffset":0,"timeZoneId":"Europe/London"},"lat":52.41667,"lng":0.75,"population":21588},{"id":2654141,"name":"Buxton","timezone":{"dstOffset":1,"gmtOffset":0,"timeZoneId":"Europe/London"},"lat":53.25741,"lng":-1.90982,"population":21300},{"id":2650122,"name":"Elgin","timezone":{"dstOffset":1,"gmtOffset":0,"timeZoneId":"Europe/London"},"lat":57.65,"lng":-3.33333,"population":21236},{"id":2646606,"name":"Horley","timezone":{"dstOffset":1,"gmtOffset":0,"timeZoneId":"Europe/London"},"lat":51.17423,"lng":-0.15919,"population":21232},{"id":2643160,"name":"Maldon","timezone":{"dstOffset":1,"gmtOffset":0,"timeZoneId":"Europe/London"},"lat":51.7311,"lng":0.67463,"population":21193},{"id":2638302,"name":"Seaham","timezone":{"dstOffset":1,"gmtOffset":0,"timeZoneId":"Europe/London"},"lat":54.83903,"lng":-1.34575,"population":21170},{"id":2639325,"name":"Ripley","timezone":{"dstOffset":1,"gmtOffset":0,"timeZoneId":"Europe/London"},"lat":53.03333,"lng":-1.4,"population":21097},{"id":2646393,"name":"Huntingdon","timezone":{"dstOffset":1,"gmtOffset":0,"timeZoneId":"Europe/London"},"lat":52.33049,"lng":-0.18651,"population":21059},{"id":2640967,"name":"Omagh","timezone":{"dstOffset":1,"gmtOffset":0,"timeZoneId":"Europe/London"},"lat":54.6,"lng":-7.3,"population":21056},{"id":2652437,"name":"Consett","timezone":{"dstOffset":1,"gmtOffset":0,"timeZoneId":"Europe/London"},"lat":54.85404,"lng":-1.8316,"population":21016},{"id":2647784,"name":"Guiseley","timezone":{"dstOffset":1,"gmtOffset":0,"timeZoneId":"Europe/London"},"lat":53.87561,"lng":-1.71232,"population":21000},{"id":2636439,"name":"Swanley","timezone":{"dstOffset":1,"gmtOffset":0,"timeZoneId":"Europe/London"},"lat":51.39717,"lng":0.17321,"population":20986},{"id":2653520,"name":"Caterham","timezone":{"dstOffset":1,"gmtOffset":0,"timeZoneId":"Europe/London"},"lat":51.2823,"lng":-0.07889,"population":20957},{"id":2650967,"name":"Dronfield","timezone":{"dstOffset":1,"gmtOffset":0,"timeZoneId":"Europe/London"},"lat":53.30221,"lng":-1.47507,"population":20942},{"id":2640377,"name":"Penzance","timezone":{"dstOffset":1,"gmtOffset":0,"timeZoneId":"Europe/London"},"lat":50.11861,"lng":-5.53715,"population":20812},{"id":2651852,"name":"Crowborough","timezone":{"dstOffset":1,"gmtOffset":0,"timeZoneId":"Europe/London"},"lat":51.06098,"lng":0.16342,"population":20733},{"id":2653235,"name":"Chesham","timezone":{"dstOffset":1,"gmtOffset":0,"timeZoneId":"Europe/London"},"lat":51.7,"lng":-0.6,"population":20649},{"id":2633553,"name":"Workington","timezone":{"dstOffset":1,"gmtOffset":0,"timeZoneId":"Europe/London"},"lat":54.6425,"lng":-3.54413,"population":20618},{"id":2647383,"name":"Harwich","timezone":{"dstOffset":1,"gmtOffset":0,"timeZoneId":"Europe/London"},"lat":51.94194,"lng":1.28437,"population":20578},{"id":2643027,"name":"Market Harborough","timezone":{"dstOffset":1,"gmtOffset":0,"timeZoneId":"Europe/London"},"lat":52.4776,"lng":-0.92053,"population":20575},{"id":6691219,"name":"Failsworth","timezone":{"dstOffset":1,"gmtOffset":0,"timeZoneId":"Europe/London"},"lat":53.50484,"lng":-2.16568,"population":20555},{"id":2637104,"name":"Stamford","timezone":{"dstOffset":1,"gmtOffset":0,"timeZoneId":"Europe/London"},"lat":52.65,"lng":-0.48333,"population":20526},{"id":2646004,"name":"Isleworth","timezone":{"dstOffset":1,"gmtOffset":0,"timeZoneId":"Europe/London"},"lat":51.47518,"lng":-0.34246,"population":20500},{"id":2639317,"name":"Risca","timezone":{"dstOffset":1,"gmtOffset":0,"timeZoneId":"Europe/London"},"lat":51.60799,"lng":-3.10081,"population":20443},{"id":2655642,"name":"Bingley","timezone":{"dstOffset":1,"gmtOffset":0,"timeZoneId":"Europe/London"},"lat":53.84861,"lng":-1.83857,"population":20327},{"id":2654490,"name":"Brownhills","timezone":{"dstOffset":1,"gmtOffset":0,"timeZoneId":"Europe/London"},"lat":52.63333,"lng":-1.93333,"population":20308},{"id":6620293,"name":"Yateley","timezone":{"dstOffset":1,"gmtOffset":0,"timeZoneId":"Europe/London"},"lat":51.34305,"lng":-0.82985,"population":20214},{"id":2655952,"name":"Bellshill","timezone":{"dstOffset":1,"gmtOffset":0,"timeZoneId":"Europe/London"},"lat":55.81667,"lng":-4.01667,"population":20201},{"id":2633771,"name":"Wisbech","timezone":{"dstOffset":1,"gmtOffset":0,"timeZoneId":"Europe/London"},"lat":52.66622,"lng":0.15938,"population":20200},{"id":2638568,"name":"Sandown","timezone":{"dstOffset":1,"gmtOffset":0,"timeZoneId":"Europe/London"},"lat":50.65158,"lng":-1.16103,"population":20155},{"id":2656847,"name":"Atherton","timezone":{"dstOffset":1,"gmtOffset":0,"timeZoneId":"Europe/London"},"lat":53.52371,"lng":-2.49354,"population":20149},{"id":2652544,"name":"Colne","timezone":{"dstOffset":1,"gmtOffset":0,"timeZoneId":"Europe/London"},"lat":53.85713,"lng":-2.16851,"population":20118},{"id":8299623,"name":"Orkney","timezone":{"dstOffset":1,"gmtOffset":0,"timeZoneId":"Europe/London"},"lat":58.98465,"lng":-2.95953,"population":20100},{"id":2653379,"name":"Chandlers Ford","timezone":{"dstOffset":1,"gmtOffset":0,"timeZoneId":"Europe/London"},"lat":51.01219,"lng":-1.38136,"population":20071},{"id":2640155,"name":"Polmont","timezone":{"dstOffset":1,"gmtOffset":0,"timeZoneId":"Europe/London"},"lat":55.9905,"lng":-3.70737,"population":20069},{"id":2653393,"name":"Chalfont St Peter","timezone":{"dstOffset":1,"gmtOffset":0,"timeZoneId":"Europe/London"},"lat":51.60885,"lng":-0.55618,"population":20059},{"id":2646317,"name":"Hythe","timezone":{"dstOffset":1,"gmtOffset":0,"timeZoneId":"Europe/London"},"lat":50.86004,"lng":-1.40162,"population":20036},{"id":2639998,"name":"Portslade","timezone":{"dstOffset":1,"gmtOffset":0,"timeZoneId":"Europe/London"},"lat":50.84286,"lng":-0.21608,"population":20000},{"id":2653123,"name":"Chislehurst","timezone":{"dstOffset":1,"gmtOffset":0,"timeZoneId":"Europe/London"},"lat":51.41709,"lng":0.06858,"population":20000},{"id":2645420,"name":"Kingswinford","timezone":{"dstOffset":1,"gmtOffset":0,"timeZoneId":"Europe/London"},"lat":52.49755,"lng":-2.16889,"population":20000},{"id":2636373,"name":"Swinton","timezone":{"dstOffset":1,"gmtOffset":0,"timeZoneId":"Europe/London"},"lat":53.5,"lng":-2.35,"population":20000},{"id":6620355,"name":"Bowthorpe","timezone":{"dstOffset":1,"gmtOffset":0,"timeZoneId":"Europe/London"},"lat":52.63884,"lng":1.21885,"population":20000},{"id":6947168,"name":"Kempston Hardwick","timezone":{"dstOffset":1,"gmtOffset":0,"timeZoneId":"Europe/London"},"lat":52.08956,"lng":-0.49908,"population":20000},{"id":2641589,"name":"Newquay","timezone":{"dstOffset":1,"gmtOffset":0,"timeZoneId":"Europe/London"},"lat":50.41563,"lng":-5.07521,"population":19998},{"id":2639958,"name":"Poulton le Fylde","timezone":{"dstOffset":1,"gmtOffset":0,"timeZoneId":"Europe/London"},"lat":53.83333,"lng":-2.98333,"population":19914},{"id":2639495,"name":"Renfrew","timezone":{"dstOffset":1,"gmtOffset":0,"timeZoneId":"Europe/London"},"lat":55.87197,"lng":-4.39253,"population":19894},{"id":2650802,"name":"Dumbarton","timezone":{"dstOffset":1,"gmtOffset":0,"timeZoneId":"Europe/London"},"lat":55.94433,"lng":-4.57061,"population":19878},{"id":2645831,"name":"Kempston","timezone":{"dstOffset":1,"gmtOffset":0,"timeZoneId":"Europe/London"},"lat":52.11599,"lng":-0.50044,"population":19873},{"id":2648945,"name":"Gainsborough","timezone":{"dstOffset":1,"gmtOffset":0,"timeZoneId":"Europe/London"},"lat":53.38333,"lng":-0.76667,"population":19871},{"id":2636767,"name":"Stourport On Severn","timezone":{"dstOffset":1,"gmtOffset":0,"timeZoneId":"Europe/London"},"lat":52.35,"lng":-2.26667,"population":19713},{"id":2657255,"name":"Antrim","timezone":{"dstOffset":1,"gmtOffset":0,"timeZoneId":"Europe/London"},"lat":54.7,"lng":-6.2,"population":19661},{"id":2647655,"name":"Hailsham","timezone":{"dstOffset":1,"gmtOffset":0,"timeZoneId":"Europe/London"},"lat":50.8622,"lng":0.25775,"population":19604},{"id":2645261,"name":"Kirkintilloch","timezone":{"dstOffset":1,"gmtOffset":0,"timeZoneId":"Europe/London"},"lat":55.93933,"lng":-4.15262,"population":19489},{"id":2648290,"name":"Gorseinon","timezone":{"dstOffset":1,"gmtOffset":0,"timeZoneId":"Europe/London"},"lat":51.66931,"lng":-4.04163,"population":19478},{"id":2634204,"name":"Weybridge","timezone":{"dstOffset":1,"gmtOffset":0,"timeZoneId":"Europe/London"},"lat":51.37178,"lng":-0.45975,"population":19463},{"id":2646042,"name":"Irlam","timezone":{"dstOffset":1,"gmtOffset":0,"timeZoneId":"Europe/London"},"lat":53.44253,"lng":-2.42323,"population":19442},{"id":2653229,"name":"Chessington","timezone":{"dstOffset":1,"gmtOffset":0,"timeZoneId":"Europe/London"},"lat":51.3624,"lng":-0.30427,"population":19433},{"id":2646558,"name":"Horsforth","timezone":{"dstOffset":1,"gmtOffset":0,"timeZoneId":"Europe/London"},"lat":53.8426,"lng":-1.63754,"population":19350},{"id":2652734,"name":"Clydach","timezone":{"dstOffset":1,"gmtOffset":0,"timeZoneId":"Europe/London"},"lat":51.68333,"lng":-3.9,"population":19307},{"id":2650815,"name":"Dukinfield","timezone":{"dstOffset":1,"gmtOffset":0,"timeZoneId":"Europe/London"},"lat":53.47497,"lng":-2.08809,"population":19306},{"id":2647985,"name":"Great Wyrley","timezone":{"dstOffset":1,"gmtOffset":0,"timeZoneId":"Europe/London"},"lat":52.66277,"lng":-2.01111,"population":19193},{"id":2644684,"name":"Leek","timezone":{"dstOffset":1,"gmtOffset":0,"timeZoneId":"Europe/London"},"lat":53.10434,"lng":-2.02207,"population":19186},{"id":2637916,"name":"Shoreham-by-Sea","timezone":{"dstOffset":1,"gmtOffset":0,"timeZoneId":"Europe/London"},"lat":50.83413,"lng":-0.27431,"population":19175},{"id":2640275,"name":"Pinner","timezone":{"dstOffset":1,"gmtOffset":0,"timeZoneId":"Europe/London"},"lat":51.59384,"lng":-0.38216,"population":19158},{"id":2648319,"name":"Goole","timezone":{"dstOffset":1,"gmtOffset":0,"timeZoneId":"Europe/London"},"lat":53.71667,"lng":-0.86667,"population":19158},{"id":2646653,"name":"Hook","timezone":{"dstOffset":1,"gmtOffset":0,"timeZoneId":"Europe/London"},"lat":51.36803,"lng":-0.3065,"population":18973},{"id":2642999,"name":"Marple","timezone":{"dstOffset":1,"gmtOffset":0,"timeZoneId":"Europe/London"},"lat":53.39452,"lng":-2.06292,"population":18886},{"id":2657471,"name":"Alloa","timezone":{"dstOffset":1,"gmtOffset":0,"timeZoneId":"Europe/London"},"lat":56.11586,"lng":-3.78997,"population":18885},{"id":2637435,"name":"South Elmsall","timezone":{"dstOffset":1,"gmtOffset":0,"timeZoneId":"Europe/London"},"lat":53.59709,"lng":-1.28034,"population":18835},{"id":2647209,"name":"Hebburn","timezone":{"dstOffset":1,"gmtOffset":0,"timeZoneId":"Europe/London"},"lat":54.97302,"lng":-1.51546,"population":18808},{"id":2642423,"name":"Mirfield","timezone":{"dstOffset":1,"gmtOffset":0,"timeZoneId":"Europe/London"},"lat":53.67343,"lng":-1.69636,"population":18800},{"id":2639926,"name":"Prestatyn","timezone":{"dstOffset":1,"gmtOffset":0,"timeZoneId":"Europe/London"},"lat":53.33748,"lng":-3.40776,"population":18701},{"id":2646542,"name":"Horwich","timezone":{"dstOffset":1,"gmtOffset":0,"timeZoneId":"Europe/London"},"lat":53.60126,"lng":-2.54975,"population":18696},{"id":2641319,"name":"Lancing","timezone":{"dstOffset":1,"gmtOffset":0,"timeZoneId":"Europe/London"},"lat":50.82882,"lng":-0.32247,"population":18692},{"id":2649622,"name":"Faversham","timezone":{"dstOffset":1,"gmtOffset":0,"timeZoneId":"Europe/London"},"lat":51.3148,"lng":0.88856,"population":18628},{"id":2639588,"name":"Rawmarsh","timezone":{"dstOffset":1,"gmtOffset":0,"timeZoneId":"Europe/London"},"lat":53.46062,"lng":-1.34437,"population":18616},{"id":2650309,"name":"Eastwood","timezone":{"dstOffset":1,"gmtOffset":0,"timeZoneId":"Europe/London"},"lat":53,"lng":-1.3,"population":18612},{"id":2650376,"name":"East Molesey","timezone":{"dstOffset":1,"gmtOffset":0,"timeZoneId":"Europe/London"},"lat":51.39872,"lng":-0.34916,"population":18565},{"id":2634340,"name":"Molesey","timezone":{"dstOffset":1,"gmtOffset":0,"timeZoneId":"Europe/London"},"lat":51.39985,"lng":-0.37997,"population":18565},{"id":2650004,"name":"Emsworth","timezone":{"dstOffset":1,"gmtOffset":0,"timeZoneId":"Europe/London"},"lat":50.84779,"lng":-0.93697,"population":18543},{"id":2637330,"name":"Southsea","timezone":{"dstOffset":1,"gmtOffset":0,"timeZoneId":"Europe/London"},"lat":50.79205,"lng":-1.08593,"population":18514},{"id":8299620,"name":"Lewis","timezone":{"dstOffset":1,"gmtOffset":0,"timeZoneId":"Europe/London"},"lat":58.21901,"lng":-6.38803,"population":18500},{"id":2654394,"name":"Buckley","timezone":{"dstOffset":1,"gmtOffset":0,"timeZoneId":"Europe/London"},"lat":53.16667,"lng":-3.08333,"population":18471},{"id":2643071,"name":"March","timezone":{"dstOffset":1,"gmtOffset":0,"timeZoneId":"Europe/London"},"lat":52.55131,"lng":0.08828,"population":18442},{"id":2644849,"name":"Larne","timezone":{"dstOffset":1,"gmtOffset":0,"timeZoneId":"Europe/London"},"lat":54.85,"lng":-5.81667,"population":18421},{"id":2654269,"name":"Burnham-on-Sea","timezone":{"dstOffset":1,"gmtOffset":0,"timeZoneId":"Europe/London"},"lat":51.23862,"lng":-2.9978,"population":18401},{"id":2657782,"name":"Aberystwyth","timezone":{"dstOffset":1,"gmtOffset":0,"timeZoneId":"Europe/London"},"lat":52.41548,"lng":-4.08292,"population":18392},{"id":2643144,"name":"Maltby","timezone":{"dstOffset":1,"gmtOffset":0,"timeZoneId":"Europe/London"},"lat":53.41667,"lng":-1.2,"population":18380},{"id":2650285,"name":"Ebbw Vale","timezone":{"dstOffset":1,"gmtOffset":0,"timeZoneId":"Europe/London"},"lat":51.77714,"lng":-3.20792,"population":18345},{"id":2643096,"name":"Mansfield Woodhouse","timezone":{"dstOffset":1,"gmtOffset":0,"timeZoneId":"Europe/London"},"lat":53.16495,"lng":-1.19384,"population":18330},{"id":2647837,"name":"Grove","timezone":{"dstOffset":1,"gmtOffset":0,"timeZoneId":"Europe/London"},"lat":51.60954,"lng":-1.42187,"population":18312},{"id":2647679,"name":"Hadleigh","timezone":{"dstOffset":1,"gmtOffset":0,"timeZoneId":"Europe/London"},"lat":51.55269,"lng":0.60983,"population":18300},{"id":6695247,"name":"Chapel Allerton","timezone":{"dstOffset":1,"gmtOffset":0,"timeZoneId":"Europe/London"},"lat":53.82901,"lng":-1.53834,"population":18206},{"id":2650470,"name":"Dereham","timezone":{"dstOffset":1,"gmtOffset":0,"timeZoneId":"Europe/London"},"lat":52.68333,"lng":0.93333,"population":18175},{"id":2654450,"name":"Brymbo","timezone":{"dstOffset":1,"gmtOffset":0,"timeZoneId":"Europe/London"},"lat":53.06667,"lng":-3.06667,"population":18111},{"id":2637355,"name":"South Ockendon","timezone":{"dstOffset":1,"gmtOffset":0,"timeZoneId":"Europe/London"},"lat":51.50799,"lng":0.28333,"population":18069},{"id":2634843,"name":"Waltham Abbey","timezone":{"dstOffset":1,"gmtOffset":0,"timeZoneId":"Europe/London"},"lat":51.687,"lng":-0.00421,"population":18069},{"id":2638600,"name":"Sandbach","timezone":{"dstOffset":1,"gmtOffset":0,"timeZoneId":"Europe/London"},"lat":53.14515,"lng":-2.36251,"population":18023},{"id":2647550,"name":"Hampton","timezone":{"dstOffset":1,"gmtOffset":0,"timeZoneId":"Europe/London"},"lat":51.41334,"lng":-0.36701,"population":18000},{"id":2651558,"name":"Dalserf","timezone":{"dstOffset":1,"gmtOffset":0,"timeZoneId":"Europe/London"},"lat":55.73333,"lng":-3.91667,"population":17985},{"id":6620360,"name":"Hedge End","timezone":{"dstOffset":1,"gmtOffset":0,"timeZoneId":"Europe/London"},"lat":50.91234,"lng":-1.30076,"population":17978},{"id":2637917,"name":"Shoreham","timezone":{"dstOffset":1,"gmtOffset":0,"timeZoneId":"Europe/London"},"lat":51.3334,"lng":0.17801,"population":17928},{"id":2643003,"name":"Marlow","timezone":{"dstOffset":1,"gmtOffset":0,"timeZoneId":"Europe/London"},"lat":51.56933,"lng":-0.77415,"population":17912},{"id":2656992,"name":"Ascot","timezone":{"dstOffset":1,"gmtOffset":0,"timeZoneId":"Europe/London"},"lat":51.41082,"lng":-0.6748,"population":17899},{"id":2634755,"name":"Warminster","timezone":{"dstOffset":1,"gmtOffset":0,"timeZoneId":"Europe/London"},"lat":51.20434,"lng":-2.17873,"population":17875},{"id":2654663,"name":"Brixham","timezone":{"dstOffset":1,"gmtOffset":0,"timeZoneId":"Europe/London"},"lat":50.39431,"lng":-3.51585,"population":17846},{"id":2643218,"name":"Maesteg","timezone":{"dstOffset":1,"gmtOffset":0,"timeZoneId":"Europe/London"},"lat":51.60926,"lng":-3.65823,"population":17829},{"id":2639189,"name":"Romsey","timezone":{"dstOffset":1,"gmtOffset":0,"timeZoneId":"Europe/London"},"lat":50.98906,"lng":-1.49989,"population":17773},{"id":2657812,"name":"Abergele","timezone":{"dstOffset":1,"gmtOffset":0,"timeZoneId":"Europe/London"},"lat":53.28436,"lng":-3.5822,"population":17769},{"id":2639668,"name":"Ramsbottom","timezone":{"dstOffset":1,"gmtOffset":0,"timeZoneId":"Europe/London"},"lat":53.64789,"lng":-2.31683,"population":17738},{"id":6690592,"name":"Amersham on the Hill","timezone":{"dstOffset":1,"gmtOffset":0,"timeZoneId":"Europe/London"},"lat":51.67468,"lng":-0.60742,"population":17719},{"id":2642204,"name":"Moreton","timezone":{"dstOffset":1,"gmtOffset":0,"timeZoneId":"Europe/London"},"lat":53.4,"lng":-3.11667,"population":17670},{"id":2655557,"name":"Bishopstoke","timezone":{"dstOffset":1,"gmtOffset":0,"timeZoneId":"Europe/London"},"lat":50.96643,"lng":-1.32832,"population":17667},{"id":2637235,"name":"Spennymoor","timezone":{"dstOffset":1,"gmtOffset":0,"timeZoneId":"Europe/London"},"lat":54.6988,"lng":-1.60229,"population":17655},{"id":6691927,"name":"Ferndown","timezone":{"dstOffset":1,"gmtOffset":0,"timeZoneId":"Europe/London"},"lat":50.80743,"lng":-1.89975,"population":17650},{"id":2640351,"name":"Peterhead","timezone":{"dstOffset":1,"gmtOffset":0,"timeZoneId":"Europe/London"},"lat":57.50584,"lng":-1.79806,"population":17627},{"id":2655708,"name":"Biddulph","timezone":{"dstOffset":1,"gmtOffset":0,"timeZoneId":"Europe/London"},"lat":53.11724,"lng":-2.17584,"population":17625},{"id":6690989,"name":"Bethnal Green","timezone":{"dstOffset":1,"gmtOffset":0,"timeZoneId":"Europe/London"},"lat":51.52718,"lng":-0.06109,"population":17590},{"id":2634777,"name":"Ware","timezone":{"dstOffset":1,"gmtOffset":0,"timeZoneId":"Europe/London"},"lat":51.81058,"lng":-0.02875,"population":17576},{"id":2647785,"name":"Guisborough","timezone":{"dstOffset":1,"gmtOffset":0,"timeZoneId":"Europe/London"},"lat":54.53478,"lng":-1.05606,"population":17569},{"id":2640037,"name":"Portishead","timezone":{"dstOffset":1,"gmtOffset":0,"timeZoneId":"Europe/London"},"lat":51.48199,"lng":-2.76973,"population":17512},{"id":6545243,"name":"Bayswater","timezone":{"dstOffset":1,"gmtOffset":0,"timeZoneId":"Europe/London"},"lat":51.51116,"lng":-0.18426,"population":17500},{"id":2635269,"name":"Tynemouth","timezone":{"dstOffset":1,"gmtOffset":0,"timeZoneId":"Europe/London"},"lat":55.01788,"lng":-1.42559,"population":17436},{"id":2654179,"name":"Bushey","timezone":{"dstOffset":1,"gmtOffset":0,"timeZoneId":"Europe/London"},"lat":51.64316,"lng":-0.36053,"population":17380},{"id":2648728,"name":"Gelligaer","timezone":{"dstOffset":1,"gmtOffset":0,"timeZoneId":"Europe/London"},"lat":51.66444,"lng":-3.25611,"population":17376},{"id":2648215,"name":"Grangemouth","timezone":{"dstOffset":1,"gmtOffset":0,"timeZoneId":"Europe/London"},"lat":56.01141,"lng":-3.72183,"population":17349},{"id":2647265,"name":"Haydock","timezone":{"dstOffset":1,"gmtOffset":0,"timeZoneId":"Europe/London"},"lat":53.46723,"lng":-2.68166,"population":17333},{"id":2641616,"name":"Newmarket","timezone":{"dstOffset":1,"gmtOffset":0,"timeZoneId":"Europe/London"},"lat":52.24467,"lng":0.40418,"population":17324},{"id":2656258,"name":"Barrhead","timezone":{"dstOffset":1,"gmtOffset":0,"timeZoneId":"Europe/London"},"lat":55.79916,"lng":-4.39285,"population":17285},{"id":2634672,"name":"Wath upon Dearne","timezone":{"dstOffset":1,"gmtOffset":0,"timeZoneId":"Europe/London"},"lat":53.50291,"lng":-1.3458,"population":17161},{"id":2637762,"name":"Skegness","timezone":{"dstOffset":1,"gmtOffset":0,"timeZoneId":"Europe/London"},"lat":53.14362,"lng":0.3363,"population":17072},{"id":2640861,"name":"Oswestry","timezone":{"dstOffset":1,"gmtOffset":0,"timeZoneId":"Europe/London"},"lat":52.86195,"lng":-3.05497,"population":17031},{"id":2640465,"name":"Penicuik","timezone":{"dstOffset":1,"gmtOffset":0,"timeZoneId":"Europe/London"},"lat":55.83166,"lng":-3.22423,"population":17011},{"id":2652204,"name":"West Cowes","timezone":{"dstOffset":1,"gmtOffset":0,"timeZoneId":"Europe/London"},"lat":50.76306,"lng":-1.29772,"population":17000},{"id":2649049,"name":"Frinton-on-Sea","timezone":{"dstOffset":1,"gmtOffset":0,"timeZoneId":"Europe/London"},"lat":51.83061,"lng":1.24424,"population":16941},{"id":8299619,"name":"Hayling Island","timezone":{"dstOffset":1,"gmtOffset":0,"timeZoneId":"Europe/London"},"lat":50.7838,"lng":-0.96869,"population":16887},{"id":2651101,"name":"Dorchester","timezone":{"dstOffset":1,"gmtOffset":0,"timeZoneId":"Europe/London"},"lat":50.71667,"lng":-2.43333,"population":16879},{"id":2639323,"name":"Ripon","timezone":{"dstOffset":1,"gmtOffset":0,"timeZoneId":"Europe/London"},"lat":54.13579,"lng":-1.52826,"population":16835},{"id":2656039,"name":"Bedlington","timezone":{"dstOffset":1,"gmtOffset":0,"timeZoneId":"Europe/London"},"lat":55.13061,"lng":-1.59319,"population":16831},{"id":2643696,"name":"Longfield","timezone":{"dstOffset":1,"gmtOffset":0,"timeZoneId":"Europe/London"},"lat":51.3969,"lng":0.30212,"population":16808},{"id":2635762,"name":"Tiverton","timezone":{"dstOffset":1,"gmtOffset":0,"timeZoneId":"Europe/London"},"lat":50.9,"lng":-3.48333,"population":16799},{"id":2639265,"name":"Rochford","timezone":{"dstOffset":1,"gmtOffset":0,"timeZoneId":"Europe/London"},"lat":51.58198,"lng":0.70673,"population":16739},{"id":2646979,"name":"High Blantyre","timezone":{"dstOffset":1,"gmtOffset":0,"timeZoneId":"Europe/London"},"lat":55.78438,"lng":-4.10007,"population":16739},{"id":2652689,"name":"Cobham","timezone":{"dstOffset":1,"gmtOffset":0,"timeZoneId":"Europe/London"},"lat":51.32997,"lng":-0.4113,"population":16724},{"id":2643553,"name":"Louth","timezone":{"dstOffset":1,"gmtOffset":0,"timeZoneId":"Europe/London"},"lat":53.36664,"lng":-0.00438,"population":16635},{"id":2634155,"name":"Whickham","timezone":{"dstOffset":1,"gmtOffset":0,"timeZoneId":"Europe/London"},"lat":54.94561,"lng":-1.67635,"population":16625},{"id":2655707,"name":"Bideford","timezone":{"dstOffset":1,"gmtOffset":0,"timeZoneId":"Europe/London"},"lat":51.01678,"lng":-4.20832,"population":16624},{"id":2657408,"name":"Alton","timezone":{"dstOffset":1,"gmtOffset":0,"timeZoneId":"Europe/London"},"lat":51.14931,"lng":-0.97469,"population":16584},{"id":2641913,"name":"Nailsea","timezone":{"dstOffset":1,"gmtOffset":0,"timeZoneId":"Europe/London"},"lat":51.43239,"lng":-2.75847,"population":16537},{"id":2652191,"name":"Cowley","timezone":{"dstOffset":1,"gmtOffset":0,"timeZoneId":"Europe/London"},"lat":51.73213,"lng":-1.20631,"population":16500},