[{"id":1819729,"name":"Hong Kong","timezone":{"dstOffset":8,"gmtOffset":8,"timeZoneId":"Asia/Hong_Kong"},"lat":22.28552,"lng":114.15769,"population":7012738},{"id":1819609,"name":"Kowloon","timezone":{"dstOffset":8,"gmtOffset":8,"timeZoneId":"Asia/Hong_Kong"},"lat":22.31667,"lng":114.18333,"population":2019533},{"id":1818209,"name":"Tsuen Wan","timezone":{"dstOffset":8,"gmtOffset":8,"timeZoneId":"Asia/Hong_Kong"},"lat":22.37066,"lng":114.10479,"population":288728},{"id":1818223,"name":"Yuen Long Kau Hui","timezone":{"dstOffset":8,"gmtOffset":8,"timeZoneId":"Asia/Hong_Kong"},"lat":22.45,"lng":114.03333,"population":141900},{"id":1818920,"name":"Shatin","timezone":{"dstOffset":8,"gmtOffset":8,"timeZoneId":"Asia/Hong_Kong"},"lat":22.38333,"lng":114.18333,"population":21559},{"id":1818446,"name":"Tuen Mun","timezone":{"dstOffset":8,"gmtOffset":8,"timeZoneId":"Asia/Hong_Kong"},"lat":22.39175,"lng":113.97157,"population":16940},{"id":1818673,"name":"Tai Po","timezone":{"dstOffset":8,"gmtOffset":8,"timeZoneId":"Asia/Hong_Kong"},"lat":22.45007,"lng":114.16877,"population":16302},{"id":1819050,"name":"Sai Kung","timezone":{"dstOffset":8,"gmtOffset":8,"timeZoneId":"Asia/Hong_Kong"},"lat":22.38333,"lng":114.26667,"population":11927},{"id":1818211,"name":"Yung Shue Wan","timezone":{"dstOffset":8,"gmtOffset":8,"timeZoneId":"Asia/Hong_Kong"},"lat":22.22623,"lng":114.11241,"population":6000},{"id":1818775,"name":"Sok Kwu Wan","timezone":{"dstOffset":8,"gmtOffset":8,"timeZoneId":"Asia/Hong_Kong"},"lat":22.20453,"lng":114.13159,"population":2100},{"id":1818684,"name":"Tai O","timezone":{"dstOffset":8,"gmtOffset":8,"timeZoneId":"Asia/Hong_Kong"},"lat":22.25515,"lng":113.86309,"population":2000},{"id":1818379,"name":"Wanchai","timezone":{"dstOffset":8,"gmtOffset":8,"timeZoneId":"Asia/Hong_Kong"},"lat":22.28142,"lng":114.17258,"population":0},{"id":1818953,"name":"Sham Shui Po","timezone":{"dstOffset":8,"gmtOffset":8,"timeZoneId":"Asia/Hong_Kong"},"lat":22.33023,"lng":114.15945,"population":0},{"id":1818304,"name":"Wong Tai Sin","timezone":{"dstOffset":8,"gmtOffset":8,"timeZoneId":"Asia/Hong_Kong"},"lat":22.35,"lng":114.18333,"population":0},{"id":8223932,"name":"Central","timezone":{"dstOffset":8,"gmtOffset":8,"timeZoneId":"Asia/Hong_Kong"},"lat":22.28299,"lng":114.15846,"population":0}]