[{"id":3600949,"name":"Tegucigalpa","timezone":{"dstOffset":-6,"gmtOffset":-6,"timeZoneId":"America/Tegucigalpa"},"lat":14.0818,"lng":-87.20681,"population":850848},{"id":3601782,"name":"San Pedro Sula","timezone":{"dstOffset":-6,"gmtOffset":-6,"timeZoneId":"America/Tegucigalpa"},"lat":15.50417,"lng":-88.025,"population":489466},{"id":3613533,"name":"Choloma","timezone":{"dstOffset":-6,"gmtOffset":-6,"timeZoneId":"America/Tegucigalpa"},"lat":15.61444,"lng":-87.95302,"population":139100},{"id":3608248,"name":"La Ceiba","timezone":{"dstOffset":-6,"gmtOffset":-6,"timeZoneId":"America/Tegucigalpa"},"lat":15.75971,"lng":-86.78221,"population":130218},{"id":3610613,"name":"El Progreso","timezone":{"dstOffset":-6,"gmtOffset":-6,"timeZoneId":"America/Tegucigalpa"},"lat":15.4,"lng":-87.8,"population":100810},{"id":3613528,"name":"Ciudad Choluteca","timezone":{"dstOffset":-6,"gmtOffset":-6,"timeZoneId":"America/Tegucigalpa"},"lat":13.30028,"lng":-87.19083,"population":75872},{"id":3613321,"name":"Comayagua","timezone":{"dstOffset":-6,"gmtOffset":-6,"timeZoneId":"America/Tegucigalpa"},"lat":14.45139,"lng":-87.6375,"population":58784},{"id":3600026,"name":"Puerto Cortez","timezone":{"dstOffset":-6,"gmtOffset":-6,"timeZoneId":"America/Tegucigalpa"},"lat":15.82562,"lng":-87.92968,"population":48013},{"id":3607511,"name":"La Lima","timezone":{"dstOffset":-6,"gmtOffset":-6,"timeZoneId":"America/Tegucigalpa"},"lat":15.43333,"lng":-87.91667,"population":45955},{"id":3612907,"name":"Danlí","timezone":{"dstOffset":-6,"gmtOffset":-6,"timeZoneId":"America/Tegucigalpa"},"lat":14.03333,"lng":-86.58333,"population":44799},{"id":3601311,"name":"Siguatepeque","timezone":{"dstOffset":-6,"gmtOffset":-6,"timeZoneId":"America/Tegucigalpa"},"lat":14.6,"lng":-87.83333,"population":43141},{"id":3608503,"name":"Juticalpa","timezone":{"dstOffset":-6,"gmtOffset":-6,"timeZoneId":"America/Tegucigalpa"},"lat":14.66667,"lng":-86.21944,"population":33686},{"id":3600327,"name":"Villanueva","timezone":{"dstOffset":-6,"gmtOffset":-6,"timeZoneId":"America/Tegucigalpa"},"lat":15.31667,"lng":-88,"population":31571},{"id":3600704,"name":"Tocoa","timezone":{"dstOffset":-6,"gmtOffset":-6,"timeZoneId":"America/Tegucigalpa"},"lat":15.68333,"lng":-86,"population":30785},{"id":3600931,"name":"Tela","timezone":{"dstOffset":-6,"gmtOffset":-6,"timeZoneId":"America/Tegucigalpa"},"lat":15.77425,"lng":-87.46731,"population":29325},{"id":3601494,"name":"Santa Rosa de Copán","timezone":{"dstOffset":-6,"gmtOffset":-6,"timeZoneId":"America/Tegucigalpa"},"lat":14.76667,"lng":-88.77917,"population":27753},{"id":3604251,"name":"Olanchito","timezone":{"dstOffset":-6,"gmtOffset":-6,"timeZoneId":"America/Tegucigalpa"},"lat":15.48131,"lng":-86.57415,"population":25969},{"id":3601977,"name":"San Lorenzo","timezone":{"dstOffset":-6,"gmtOffset":-6,"timeZoneId":"America/Tegucigalpa"},"lat":13.42417,"lng":-87.44722,"population":22289},{"id":3613394,"name":"Cofradía","timezone":{"dstOffset":-6,"gmtOffset":-6,"timeZoneId":"America/Tegucigalpa"},"lat":15.4,"lng":-88.15,"population":20353},{"id":3610965,"name":"El Paraíso","timezone":{"dstOffset":-6,"gmtOffset":-6,"timeZoneId":"America/Tegucigalpa"},"lat":13.86667,"lng":-86.55,"population":18779},{"id":3607254,"name":"La Paz","timezone":{"dstOffset":-6,"gmtOffset":-6,"timeZoneId":"America/Tegucigalpa"},"lat":14.31944,"lng":-87.67917,"population":17555},{"id":3600195,"name":"Yoro","timezone":{"dstOffset":-6,"gmtOffset":-6,"timeZoneId":"America/Tegucigalpa"},"lat":15.1375,"lng":-87.12778,"population":15774},{"id":3603330,"name":"Potrerillos","timezone":{"dstOffset":-6,"gmtOffset":-6,"timeZoneId":"America/Tegucigalpa"},"lat":15.23333,"lng":-87.96667,"population":15707},{"id":3601691,"name":"Santa Bárbara","timezone":{"dstOffset":-6,"gmtOffset":-6,"timeZoneId":"America/Tegucigalpa"},"lat":14.91944,"lng":-88.23611,"population":15119},{"id":3607986,"name":"La Entrada","timezone":{"dstOffset":-6,"gmtOffset":-6,"timeZoneId":"America/Tegucigalpa"},"lat":15.05,"lng":-88.73333,"population":14705},{"id":3604522,"name":"Nacaome","timezone":{"dstOffset":-6,"gmtOffset":-6,"timeZoneId":"America/Tegucigalpa"},"lat":13.53611,"lng":-87.4875,"population":13929},{"id":3608834,"name":"Intibucá","timezone":{"dstOffset":-6,"gmtOffset":-6,"timeZoneId":"America/Tegucigalpa"},"lat":14.31667,"lng":-88.16667,"population":13741},{"id":3601072,"name":"Talanga","timezone":{"dstOffset":-6,"gmtOffset":-6,"timeZoneId":"America/Tegucigalpa"},"lat":14.4,"lng":-87.08333,"population":13492},{"id":3609418,"name":"Guaimaca","timezone":{"dstOffset":-6,"gmtOffset":-6,"timeZoneId":"America/Tegucigalpa"},"lat":14.53333,"lng":-86.81667,"population":12899},{"id":3601517,"name":"Santa Rita","timezone":{"dstOffset":-6,"gmtOffset":-6,"timeZoneId":"America/Tegucigalpa"},"lat":15.16667,"lng":-87.28333,"population":12869},{"id":3604584,"name":"Morazán","timezone":{"dstOffset":-6,"gmtOffset":-6,"timeZoneId":"America/Tegucigalpa"},"lat":15.31667,"lng":-87.6,"population":11076},{"id":3601627,"name":"Santa Cruz de Yojoa","timezone":{"dstOffset":-6,"gmtOffset":-6,"timeZoneId":"America/Tegucigalpa"},"lat":14.98333,"lng":-87.9,"population":10230},{"id":3605005,"name":"Marcala","timezone":{"dstOffset":-6,"gmtOffset":-6,"timeZoneId":"America/Tegucigalpa"},"lat":14.15,"lng":-88.03333,"population":10054},{"id":3601403,"name":"Sabá","timezone":{"dstOffset":-6,"gmtOffset":-6,"timeZoneId":"America/Tegucigalpa"},"lat":15.46667,"lng":-86.25,"population":9666},{"id":3600591,"name":"Trujillo","timezone":{"dstOffset":-6,"gmtOffset":-6,"timeZoneId":"America/Tegucigalpa"},"lat":15.91667,"lng":-85.95417,"population":9646},{"id":3611150,"name":"El Negrito","timezone":{"dstOffset":-6,"gmtOffset":-6,"timeZoneId":"America/Tegucigalpa"},"lat":15.31667,"lng":-87.7,"population":9303},{"id":3614872,"name":"Baracoa","timezone":{"dstOffset":-6,"gmtOffset":-6,"timeZoneId":"America/Tegucigalpa"},"lat":15.76667,"lng":-87.85,"population":9202},{"id":3601888,"name":"San Marcos de Colón","timezone":{"dstOffset":-6,"gmtOffset":-6,"timeZoneId":"America/Tegucigalpa"},"lat":13.43333,"lng":-86.8,"population":8821},{"id":3604384,"name":"Nueva Ocotepeque","timezone":{"dstOffset":-6,"gmtOffset":-6,"timeZoneId":"America/Tegucigalpa"},"lat":14.43333,"lng":-89.18333,"population":8780},{"id":3603649,"name":"Pimienta Vieja","timezone":{"dstOffset":-6,"gmtOffset":-6,"timeZoneId":"America/Tegucigalpa"},"lat":15.23333,"lng":-87.96667,"population":8761},{"id":3609586,"name":"Gracias","timezone":{"dstOffset":-6,"gmtOffset":-6,"timeZoneId":"America/Tegucigalpa"},"lat":14.59028,"lng":-88.58194,"population":7909},{"id":3615509,"name":"Agua Blanca Sur","timezone":{"dstOffset":-6,"gmtOffset":-6,"timeZoneId":"America/Tegucigalpa"},"lat":15.25,"lng":-87.88333,"population":7592},{"id":3602736,"name":"Roatan Town","timezone":{"dstOffset":-6,"gmtOffset":-6,"timeZoneId":"America/Tegucigalpa"},"lat":16.31759,"lng":-86.53793,"population":7514},{"id":3606251,"name":"Las Vegas, Santa Barbara","timezone":{"dstOffset":-6,"gmtOffset":-6,"timeZoneId":"America/Tegucigalpa"},"lat":14.87649,"lng":-88.07473,"population":7487},{"id":3610060,"name":"El Triunfo","timezone":{"dstOffset":-6,"gmtOffset":-6,"timeZoneId":"America/Tegucigalpa"},"lat":13.11667,"lng":-87,"population":7182},{"id":3608715,"name":"Jesús de Otoro","timezone":{"dstOffset":-6,"gmtOffset":-6,"timeZoneId":"America/Tegucigalpa"},"lat":14.48333,"lng":-87.98333,"population":6988},{"id":3615250,"name":"La Alianza","timezone":{"dstOffset":-6,"gmtOffset":-6,"timeZoneId":"America/Tegucigalpa"},"lat":13.51222,"lng":-87.72444,"population":6923},{"id":3604686,"name":"Monjarás","timezone":{"dstOffset":-6,"gmtOffset":-6,"timeZoneId":"America/Tegucigalpa"},"lat":13.20056,"lng":-87.37417,"population":6772},{"id":3614319,"name":"Campamento","timezone":{"dstOffset":-6,"gmtOffset":-6,"timeZoneId":"America/Tegucigalpa"},"lat":14.55,"lng":-86.65,"population":6560},{"id":3601921,"name":"San Manuel","timezone":{"dstOffset":-6,"gmtOffset":-6,"timeZoneId":"America/Tegucigalpa"},"lat":15.33333,"lng":-87.91667,"population":6389},{"id":3613230,"name":"Copán","timezone":{"dstOffset":-6,"gmtOffset":-6,"timeZoneId":"America/Tegucigalpa"},"lat":14.83333,"lng":-89.15,"population":6336},{"id":3604835,"name":"Mezapa","timezone":{"dstOffset":-6,"gmtOffset":-6,"timeZoneId":"America/Tegucigalpa"},"lat":15.58333,"lng":-87.65,"population":6324},{"id":3606292,"name":"Las Trojes","timezone":{"dstOffset":-6,"gmtOffset":-6,"timeZoneId":"America/Tegucigalpa"},"lat":14.06667,"lng":-85.98333,"population":6253},{"id":3614970,"name":"Azacualpa","timezone":{"dstOffset":-6,"gmtOffset":-6,"timeZoneId":"America/Tegucigalpa"},"lat":15.34333,"lng":-88.55139,"population":5949},{"id":3600338,"name":"Villa de San Francisco","timezone":{"dstOffset":-6,"gmtOffset":-6,"timeZoneId":"America/Tegucigalpa"},"lat":14.16667,"lng":-86.96667,"population":5914},{"id":3601984,"name":"San Juan Pueblo","timezone":{"dstOffset":-6,"gmtOffset":-6,"timeZoneId":"America/Tegucigalpa"},"lat":15.58333,"lng":-87.23333,"population":5735},{"id":3601932,"name":"San Luis","timezone":{"dstOffset":-6,"gmtOffset":-6,"timeZoneId":"America/Tegucigalpa"},"lat":15.08333,"lng":-88.38333,"population":5733},{"id":3602281,"name":"San Francisco de la Paz","timezone":{"dstOffset":-6,"gmtOffset":-6,"timeZoneId":"America/Tegucigalpa"},"lat":14.9,"lng":-86.2,"population":5411},{"id":3600340,"name":"Villa de San Antonio","timezone":{"dstOffset":-6,"gmtOffset":-6,"timeZoneId":"America/Tegucigalpa"},"lat":14.31667,"lng":-87.61667,"population":5390},{"id":3615279,"name":"Ajuterique","timezone":{"dstOffset":-6,"gmtOffset":-6,"timeZoneId":"America/Tegucigalpa"},"lat":14.38333,"lng":-87.7,"population":5354},{"id":3601903,"name":"San Marcos","timezone":{"dstOffset":-6,"gmtOffset":-6,"timeZoneId":"America/Tegucigalpa"},"lat":14.4,"lng":-88.95,"population":5346},{"id":3609681,"name":"Florida","timezone":{"dstOffset":-6,"gmtOffset":-6,"timeZoneId":"America/Tegucigalpa"},"lat":15.03333,"lng":-88.83333,"population":5340},{"id":3607966,"name":"La Esperanza","timezone":{"dstOffset":-6,"gmtOffset":-6,"timeZoneId":"America/Tegucigalpa"},"lat":14.31111,"lng":-88.18056,"population":5318},{"id":3612929,"name":"Cuyamel","timezone":{"dstOffset":-6,"gmtOffset":-6,"timeZoneId":"America/Tegucigalpa"},"lat":15.66667,"lng":-88.2,"population":5022},{"id":3602444,"name":"San Antonio de Cortés","timezone":{"dstOffset":-6,"gmtOffset":-6,"timeZoneId":"America/Tegucigalpa"},"lat":15.11667,"lng":-88.03333,"population":4955},{"id":3603157,"name":"Puerto Lempira","timezone":{"dstOffset":-6,"gmtOffset":-6,"timeZoneId":"America/Tegucigalpa"},"lat":15.26667,"lng":-83.77222,"population":4856},{"id":3604229,"name":"Omoa","timezone":{"dstOffset":-6,"gmtOffset":-6,"timeZoneId":"America/Tegucigalpa"},"lat":15.76667,"lng":-88.03333,"population":4763},{"id":3613171,"name":"Corquín","timezone":{"dstOffset":-6,"gmtOffset":-6,"timeZoneId":"America/Tegucigalpa"},"lat":14.56667,"lng":-88.86667,"population":4752},{"id":3607540,"name":"La Libertad","timezone":{"dstOffset":-6,"gmtOffset":-6,"timeZoneId":"America/Tegucigalpa"},"lat":14.75,"lng":-87.61667,"population":4673},{"id":3600966,"name":"Taulabé","timezone":{"dstOffset":-6,"gmtOffset":-6,"timeZoneId":"America/Tegucigalpa"},"lat":14.7,"lng":-87.96667,"population":4660},{"id":3600422,"name":"Valle de Ángeles","timezone":{"dstOffset":-6,"gmtOffset":-6,"timeZoneId":"America/Tegucigalpa"},"lat":14.15,"lng":-87.03333,"population":4649},{"id":3601543,"name":"Santa María del Real","timezone":{"dstOffset":-6,"gmtOffset":-6,"timeZoneId":"America/Tegucigalpa"},"lat":14.76667,"lng":-85.95,"population":4587},{"id":3615069,"name":"Arizona","timezone":{"dstOffset":-6,"gmtOffset":-6,"timeZoneId":"America/Tegucigalpa"},"lat":15.63333,"lng":-87.31667,"population":4444},{"id":3600608,"name":"Trinidad","timezone":{"dstOffset":-6,"gmtOffset":-6,"timeZoneId":"America/Tegucigalpa"},"lat":15.13333,"lng":-88.23333,"population":4276},{"id":3600841,"name":"Teupasenti","timezone":{"dstOffset":-6,"gmtOffset":-6,"timeZoneId":"America/Tegucigalpa"},"lat":14.21667,"lng":-86.7,"population":4207},{"id":3607647,"name":"La Jutosa","timezone":{"dstOffset":-6,"gmtOffset":-6,"timeZoneId":"America/Tegucigalpa"},"lat":15.63333,"lng":-88,"population":4183},{"id":3600629,"name":"Tras Cerros","timezone":{"dstOffset":-6,"gmtOffset":-6,"timeZoneId":"America/Tegucigalpa"},"lat":15.3,"lng":-88.66667,"population":4174},{"id":3614663,"name":"Brus Laguna","timezone":{"dstOffset":-6,"gmtOffset":-6,"timeZoneId":"America/Tegucigalpa"},"lat":15.75,"lng":-84.48333,"population":4067},{"id":3607419,"name":"La Masica","timezone":{"dstOffset":-6,"gmtOffset":-6,"timeZoneId":"America/Tegucigalpa"},"lat":15.61667,"lng":-87.11667,"population":4022},{"id":3602097,"name":"San José de Colinas","timezone":{"dstOffset":-6,"gmtOffset":-6,"timeZoneId":"America/Tegucigalpa"},"lat":15.03333,"lng":-88.3,"population":3985},{"id":3604518,"name":"Naco","timezone":{"dstOffset":-6,"gmtOffset":-6,"timeZoneId":"America/Tegucigalpa"},"lat":15.38333,"lng":-88.18333,"population":3966},{"id":3601899,"name":"San Marcos","timezone":{"dstOffset":-6,"gmtOffset":-6,"timeZoneId":"America/Tegucigalpa"},"lat":15.3,"lng":-88.41667,"population":3923},{"id":3600139,"name":"Zambrano","timezone":{"dstOffset":-6,"gmtOffset":-6,"timeZoneId":"America/Tegucigalpa"},"lat":14.26667,"lng":-87.4,"population":3873},{"id":3606069,"name":"Lejamaní","timezone":{"dstOffset":-6,"gmtOffset":-6,"timeZoneId":"America/Tegucigalpa"},"lat":14.36667,"lng":-87.7,"population":3835},{"id":3604478,"name":"Naranjito","timezone":{"dstOffset":-6,"gmtOffset":-6,"timeZoneId":"America/Tegucigalpa"},"lat":14.95,"lng":-88.68333,"population":3813},{"id":3603627,"name":"Pinalejo","timezone":{"dstOffset":-6,"gmtOffset":-6,"timeZoneId":"America/Tegucigalpa"},"lat":15.38333,"lng":-88.4,"population":3767},{"id":3614705,"name":"Bonito Oriental","timezone":{"dstOffset":-6,"gmtOffset":-6,"timeZoneId":"America/Tegucigalpa"},"lat":15.74765,"lng":-85.73559,"population":3732},{"id":3607294,"name":"Langue","timezone":{"dstOffset":-6,"gmtOffset":-6,"timeZoneId":"America/Tegucigalpa"},"lat":13.62083,"lng":-87.6525,"population":3679},{"id":3601999,"name":"San Juan de Flores","timezone":{"dstOffset":-6,"gmtOffset":-6,"timeZoneId":"America/Tegucigalpa"},"lat":14.26667,"lng":-87.03333,"population":3633},{"id":3609389,"name":"Gualaco","timezone":{"dstOffset":-6,"gmtOffset":-6,"timeZoneId":"America/Tegucigalpa"},"lat":15.02521,"lng":-86.07076,"population":3601},{"id":3612813,"name":"Dulce Nombre","timezone":{"dstOffset":-6,"gmtOffset":-6,"timeZoneId":"America/Tegucigalpa"},"lat":14.85,"lng":-88.83333,"population":3589},{"id":3608500,"name":"Jutiquile","timezone":{"dstOffset":-6,"gmtOffset":-6,"timeZoneId":"America/Tegucigalpa"},"lat":14.71667,"lng":-86.08333,"population":3585},{"id":3601707,"name":"Santa Ana","timezone":{"dstOffset":-6,"gmtOffset":-6,"timeZoneId":"America/Tegucigalpa"},"lat":15.65,"lng":-87.06667,"population":3579},{"id":3603221,"name":"Pueblo Nuevo","timezone":{"dstOffset":-6,"gmtOffset":-6,"timeZoneId":"America/Tegucigalpa"},"lat":15.28333,"lng":-88.01667,"population":3556},{"id":3604795,"name":"Minas de Oro","timezone":{"dstOffset":-6,"gmtOffset":-6,"timeZoneId":"America/Tegucigalpa"},"lat":14.8,"lng":-87.35,"population":3554},{"id":3603856,"name":"Peña Blanca","timezone":{"dstOffset":-6,"gmtOffset":-6,"timeZoneId":"America/Tegucigalpa"},"lat":15.53333,"lng":-88.05,"population":3552},{"id":3601834,"name":"San Nicolás","timezone":{"dstOffset":-6,"gmtOffset":-6,"timeZoneId":"America/Tegucigalpa"},"lat":14.93333,"lng":-88.31667,"population":3522},{"id":3602952,"name":"Quimistán","timezone":{"dstOffset":-6,"gmtOffset":-6,"timeZoneId":"America/Tegucigalpa"},"lat":15.35,"lng":-88.4,"population":3517},{"id":3602758,"name":"Río Lindo","timezone":{"dstOffset":-6,"gmtOffset":-6,"timeZoneId":"America/Tegucigalpa"},"lat":15.03333,"lng":-87.98333,"population":3479},{"id":3602355,"name":"San Esteban","timezone":{"dstOffset":-6,"gmtOffset":-6,"timeZoneId":"America/Tegucigalpa"},"lat":15.21231,"lng":-85.76996,"population":3439},{"id":3615391,"name":"Agua Fría","timezone":{"dstOffset":-6,"gmtOffset":-6,"timeZoneId":"America/Tegucigalpa"},"lat":13.46889,"lng":-87.55111,"population":3196},{"id":3603805,"name":"Pespire","timezone":{"dstOffset":-6,"gmtOffset":-6,"timeZoneId":"America/Tegucigalpa"},"lat":13.59222,"lng":-87.36167,"population":3172},{"id":3610693,"name":"El Porvenir","timezone":{"dstOffset":-6,"gmtOffset":-6,"timeZoneId":"America/Tegucigalpa"},"lat":13.76167,"lng":-87.34583,"population":3153},{"id":3606048,"name":"Lepaera","timezone":{"dstOffset":-6,"gmtOffset":-6,"timeZoneId":"America/Tegucigalpa"},"lat":14.78333,"lng":-88.58333,"population":3137},{"id":3611572,"name":"Elíxir","timezone":{"dstOffset":-6,"gmtOffset":-6,"timeZoneId":"America/Tegucigalpa"},"lat":15.48333,"lng":-86.3,"population":3079},{"id":3600232,"name":"Yarumela","timezone":{"dstOffset":-6,"gmtOffset":-6,"timeZoneId":"America/Tegucigalpa"},"lat":14.33333,"lng":-87.63333,"population":3059},{"id":3606171,"name":"La Unión","timezone":{"dstOffset":-6,"gmtOffset":-6,"timeZoneId":"America/Tegucigalpa"},"lat":14.81667,"lng":-88.4,"population":3054},{"id":3614012,"name":"Casa Quemada","timezone":{"dstOffset":-6,"gmtOffset":-6,"timeZoneId":"America/Tegucigalpa"},"lat":15.11667,"lng":-88.08333,"population":3036},{"id":3609690,"name":"Flores","timezone":{"dstOffset":-6,"gmtOffset":-6,"timeZoneId":"America/Tegucigalpa"},"lat":14.28333,"lng":-87.56667,"population":3018},{"id":3606669,"name":"Las Lajas","timezone":{"dstOffset":-6,"gmtOffset":-6,"timeZoneId":"America/Tegucigalpa"},"lat":14.78333,"lng":-87.75,"population":3011},{"id":3610813,"name":"El Pino","timezone":{"dstOffset":-6,"gmtOffset":-6,"timeZoneId":"America/Tegucigalpa"},"lat":15.7,"lng":-86.93333,"population":3004},{"id":3600134,"name":"Zamora","timezone":{"dstOffset":-6,"gmtOffset":-6,"timeZoneId":"America/Tegucigalpa"},"lat":15.63333,"lng":-86.06667,"population":2999},{"id":3615065,"name":"Armenta","timezone":{"dstOffset":-6,"gmtOffset":-6,"timeZoneId":"America/Tegucigalpa"},"lat":15.5,"lng":-88.05,"population":2989},{"id":3604579,"name":"Morocelí","timezone":{"dstOffset":-6,"gmtOffset":-6,"timeZoneId":"America/Tegucigalpa"},"lat":14.11667,"lng":-86.86667,"population":2984},{"id":3612064,"name":"El Ciruelo","timezone":{"dstOffset":-6,"gmtOffset":-6,"timeZoneId":"America/Tegucigalpa"},"lat":15.3,"lng":-88.5,"population":2980},{"id":3610675,"name":"El Porvenir","timezone":{"dstOffset":-6,"gmtOffset":-6,"timeZoneId":"America/Tegucigalpa"},"lat":15.83333,"lng":-87.93333,"population":2940},{"id":3613015,"name":"Cucuyagua","timezone":{"dstOffset":-6,"gmtOffset":-6,"timeZoneId":"America/Tegucigalpa"},"lat":14.65,"lng":-88.86667,"population":2939},{"id":3615125,"name":"Arada","timezone":{"dstOffset":-6,"gmtOffset":-6,"timeZoneId":"America/Tegucigalpa"},"lat":14.85,"lng":-88.3,"population":2913},{"id":3600357,"name":"Victoria","timezone":{"dstOffset":-6,"gmtOffset":-6,"timeZoneId":"America/Tegucigalpa"},"lat":15.50381,"lng":-87.82625,"population":2884},{"id":3613189,"name":"Corocito","timezone":{"dstOffset":-6,"gmtOffset":-6,"timeZoneId":"America/Tegucigalpa"},"lat":15.75,"lng":-85.78333,"population":2855},{"id":3602603,"name":"Salamá","timezone":{"dstOffset":-6,"gmtOffset":-6,"timeZoneId":"America/Tegucigalpa"},"lat":14.83333,"lng":-86.58333,"population":2820},{"id":3608514,"name":"Jutiapa","timezone":{"dstOffset":-6,"gmtOffset":-6,"timeZoneId":"America/Tegucigalpa"},"lat":15.76667,"lng":-86.51667,"population":2815},{"id":3602301,"name":"San Francisco","timezone":{"dstOffset":-6,"gmtOffset":-6,"timeZoneId":"America/Tegucigalpa"},"lat":15.65,"lng":-87.05,"population":2806},{"id":3604270,"name":"Ojojona","timezone":{"dstOffset":-6,"gmtOffset":-6,"timeZoneId":"America/Tegucigalpa"},"lat":13.93389,"lng":-87.29583,"population":2790},{"id":3601159,"name":"Sulaco","timezone":{"dstOffset":-6,"gmtOffset":-6,"timeZoneId":"America/Tegucigalpa"},"lat":14.91667,"lng":-87.26667,"population":2760},{"id":3614835,"name":"Barra Patuca","timezone":{"dstOffset":-6,"gmtOffset":-6,"timeZoneId":"America/Tegucigalpa"},"lat":15.8,"lng":-84.28333,"population":2758},{"id":3603097,"name":"Quebrada de Arena","timezone":{"dstOffset":-6,"gmtOffset":-6,"timeZoneId":"America/Tegucigalpa"},"lat":15.76667,"lng":-85.91667,"population":2723},{"id":3609112,"name":"Güinope","timezone":{"dstOffset":-6,"gmtOffset":-6,"timeZoneId":"America/Tegucigalpa"},"lat":13.88333,"lng":-86.93333,"population":2716},{"id":3601519,"name":"Santa Rita, Copan","timezone":{"dstOffset":-6,"gmtOffset":-6,"timeZoneId":"America/Tegucigalpa"},"lat":14.86748,"lng":-89.1,"population":2704},{"id":3609667,"name":"French Harbor","timezone":{"dstOffset":-6,"gmtOffset":-6,"timeZoneId":"America/Tegucigalpa"},"lat":16.35,"lng":-86.43333,"population":2698},{"id":3607381,"name":"La Mina","timezone":{"dstOffset":-6,"gmtOffset":-6,"timeZoneId":"America/Tegucigalpa"},"lat":15.31667,"lng":-87.83333,"population":2690},{"id":3601039,"name":"Támara","timezone":{"dstOffset":-6,"gmtOffset":-6,"timeZoneId":"America/Tegucigalpa"},"lat":14.15,"lng":-87.33333,"population":2683},{"id":3608798,"name":"Jacaleapa","timezone":{"dstOffset":-6,"gmtOffset":-6,"timeZoneId":"America/Tegucigalpa"},"lat":14.01667,"lng":-86.66667,"population":2578},{"id":3610377,"name":"El Rosario","timezone":{"dstOffset":-6,"gmtOffset":-6,"timeZoneId":"America/Tegucigalpa"},"lat":14.8,"lng":-87.76667,"population":2575},{"id":3602561,"name":"Sambo Creek","timezone":{"dstOffset":-6,"gmtOffset":-6,"timeZoneId":"America/Tegucigalpa"},"lat":15.81667,"lng":-86.68333,"population":2532},{"id":3600642,"name":"Toyós","timezone":{"dstOffset":-6,"gmtOffset":-6,"timeZoneId":"America/Tegucigalpa"},"lat":15.55,"lng":-87.65,"population":2530},{"id":3607847,"name":"La Guacamaya","timezone":{"dstOffset":-6,"gmtOffset":-6,"timeZoneId":"America/Tegucigalpa"},"lat":15.25,"lng":-87.8,"population":2525},{"id":3609928,"name":"El Zapotal del Norte","timezone":{"dstOffset":-6,"gmtOffset":-6,"timeZoneId":"America/Tegucigalpa"},"lat":15.51667,"lng":-88.05,"population":2508},{"id":3601162,"name":"Sula","timezone":{"dstOffset":-6,"gmtOffset":-6,"timeZoneId":"America/Tegucigalpa"},"lat":15.25,"lng":-88.56667,"population":2502},{"id":3607983,"name":"La Ermita","timezone":{"dstOffset":-6,"gmtOffset":-6,"timeZoneId":"America/Tegucigalpa"},"lat":14.46667,"lng":-87.06667,"population":2495},{"id":3611144,"name":"El Níspero","timezone":{"dstOffset":-6,"gmtOffset":-6,"timeZoneId":"America/Tegucigalpa"},"lat":14.76667,"lng":-88.33333,"population":2474},{"id":3602786,"name":"Río Blanquito","timezone":{"dstOffset":-6,"gmtOffset":-6,"timeZoneId":"America/Tegucigalpa"},"lat":15.73333,"lng":-87.9,"population":2458},{"id":3601462,"name":"Santiago Puringla","timezone":{"dstOffset":-6,"gmtOffset":-6,"timeZoneId":"America/Tegucigalpa"},"lat":14.35,"lng":-87.9,"population":2433},{"id":3601436,"name":"San Vicente Centenario","timezone":{"dstOffset":-6,"gmtOffset":-6,"timeZoneId":"America/Tegucigalpa"},"lat":14.88333,"lng":-88.28333,"population":2430},{"id":3602287,"name":"San Francisco de Becerra","timezone":{"dstOffset":-6,"gmtOffset":-6,"timeZoneId":"America/Tegucigalpa"},"lat":14.63333,"lng":-86.1,"population":2411},{"id":3601282,"name":"Sinuapa","timezone":{"dstOffset":-6,"gmtOffset":-6,"timeZoneId":"America/Tegucigalpa"},"lat":14.45,"lng":-89.18333,"population":2389},{"id":3606159,"name":"La Unión","timezone":{"dstOffset":-6,"gmtOffset":-6,"timeZoneId":"America/Tegucigalpa"},"lat":15.71667,"lng":-87,"population":2382},{"id":3602205,"name":"San Jerónimo","timezone":{"dstOffset":-6,"gmtOffset":-6,"timeZoneId":"America/Tegucigalpa"},"lat":13.17667,"lng":-87.13639,"population":2381},{"id":3600165,"name":"Yuscarán","timezone":{"dstOffset":-6,"gmtOffset":-6,"timeZoneId":"America/Tegucigalpa"},"lat":13.94389,"lng":-86.85278,"population":2371},{"id":3608718,"name":"Jericó","timezone":{"dstOffset":-6,"gmtOffset":-6,"timeZoneId":"America/Tegucigalpa"},"lat":15.95,"lng":-85.96667,"population":2364},{"id":3614797,"name":"Belén Gualcho","timezone":{"dstOffset":-6,"gmtOffset":-6,"timeZoneId":"America/Tegucigalpa"},"lat":14.48333,"lng":-88.8,"population":2359},{"id":3604203,"name":"Orica","timezone":{"dstOffset":-6,"gmtOffset":-6,"timeZoneId":"America/Tegucigalpa"},"lat":14.7,"lng":-86.95,"population":2342},{"id":3602257,"name":"San Ignacio","timezone":{"dstOffset":-6,"gmtOffset":-6,"timeZoneId":"America/Tegucigalpa"},"lat":14.65,"lng":-87.03333,"population":2330},{"id":3604292,"name":"Ojo de Agua","timezone":{"dstOffset":-6,"gmtOffset":-6,"timeZoneId":"America/Tegucigalpa"},"lat":14.01667,"lng":-86.35,"population":2330},{"id":3609415,"name":"Guaimitas","timezone":{"dstOffset":-6,"gmtOffset":-6,"timeZoneId":"America/Tegucigalpa"},"lat":15.5,"lng":-87.71667,"population":2321},{"id":3600328,"name":"Villa Nueva","timezone":{"dstOffset":-6,"gmtOffset":-6,"timeZoneId":"America/Tegucigalpa"},"lat":14.03333,"lng":-87.13333,"population":2295},{"id":3601566,"name":"Santa Lucía","timezone":{"dstOffset":-6,"gmtOffset":-6,"timeZoneId":"America/Tegucigalpa"},"lat":14.1,"lng":-87.11667,"population":2288},{"id":3610676,"name":"El Porvenir","timezone":{"dstOffset":-6,"gmtOffset":-6,"timeZoneId":"America/Tegucigalpa"},"lat":15.75,"lng":-86.93333,"population":2269},{"id":3613175,"name":"Corozal","timezone":{"dstOffset":-6,"gmtOffset":-6,"timeZoneId":"America/Tegucigalpa"},"lat":15.8,"lng":-86.71667,"population":2261},{"id":3603028,"name":"Quebrada Seca","timezone":{"dstOffset":-6,"gmtOffset":-6,"timeZoneId":"America/Tegucigalpa"},"lat":15.66667,"lng":-87.95,"population":2248},{"id":3604614,"name":"Monterrey","timezone":{"dstOffset":-6,"gmtOffset":-6,"timeZoneId":"America/Tegucigalpa"},"lat":15.58333,"lng":-87.88333,"population":2234},{"id":3600605,"name":"Trinidad de Copán","timezone":{"dstOffset":-6,"gmtOffset":-6,"timeZoneId":"America/Tegucigalpa"},"lat":14.95,"lng":-88.75,"population":2232},{"id":3601833,"name":"San Nicolás","timezone":{"dstOffset":-6,"gmtOffset":-6,"timeZoneId":"America/Tegucigalpa"},"lat":15,"lng":-88.75,"population":2231},{"id":3610051,"name":"El Triunfo de la Cruz","timezone":{"dstOffset":-6,"gmtOffset":-6,"timeZoneId":"America/Tegucigalpa"},"lat":15.76667,"lng":-87.43333,"population":2190},{"id":3614218,"name":"Cane","timezone":{"dstOffset":-6,"gmtOffset":-6,"timeZoneId":"America/Tegucigalpa"},"lat":14.28333,"lng":-87.66667,"population":2190},{"id":3607003,"name":"La Sarrosa","timezone":{"dstOffset":-6,"gmtOffset":-6,"timeZoneId":"America/Tegucigalpa"},"lat":15.23333,"lng":-87.83333,"population":2188},{"id":3610789,"name":"El Plan","timezone":{"dstOffset":-6,"gmtOffset":-6,"timeZoneId":"America/Tegucigalpa"},"lat":15.28333,"lng":-87.96667,"population":2176},{"id":3600199,"name":"Yorito","timezone":{"dstOffset":-6,"gmtOffset":-6,"timeZoneId":"America/Tegucigalpa"},"lat":15.06667,"lng":-87.28333,"population":2169},{"id":3614249,"name":"Cañaveral","timezone":{"dstOffset":-6,"gmtOffset":-6,"timeZoneId":"America/Tegucigalpa"},"lat":14.98333,"lng":-88.01667,"population":2137},{"id":3607919,"name":"La Flecha","timezone":{"dstOffset":-6,"gmtOffset":-6,"timeZoneId":"America/Tegucigalpa"},"lat":15.28333,"lng":-88.48333,"population":2136},{"id":3615213,"name":"Amapala","timezone":{"dstOffset":-6,"gmtOffset":-6,"timeZoneId":"America/Tegucigalpa"},"lat":13.29222,"lng":-87.65389,"population":2136},{"id":3604389,"name":"Nueva Esperanza","timezone":{"dstOffset":-6,"gmtOffset":-6,"timeZoneId":"America/Tegucigalpa"},"lat":15.26667,"lng":-87.6,"population":2120},{"id":3603256,"name":"Protección","timezone":{"dstOffset":-6,"gmtOffset":-6,"timeZoneId":"America/Tegucigalpa"},"lat":15.03333,"lng":-88.65,"population":2101},{"id":3604375,"name":"Nuevo Chamelecón","timezone":{"dstOffset":-6,"gmtOffset":-6,"timeZoneId":"America/Tegucigalpa"},"lat":15.38333,"lng":-88.01667,"population":2098},{"id":3612810,"name":"Dulce Nombre de Culmí","timezone":{"dstOffset":-6,"gmtOffset":-6,"timeZoneId":"America/Tegucigalpa"},"lat":15.1,"lng":-85.53333,"population":2091},{"id":3606035,"name":"Lepaterique","timezone":{"dstOffset":-6,"gmtOffset":-6,"timeZoneId":"America/Tegucigalpa"},"lat":14.06667,"lng":-87.46667,"population":2090},{"id":3602680,"name":"Sabanagrande","timezone":{"dstOffset":-6,"gmtOffset":-6,"timeZoneId":"America/Tegucigalpa"},"lat":13.80778,"lng":-87.25917,"population":2056},{"id":3602823,"name":"Río Abajo","timezone":{"dstOffset":-6,"gmtOffset":-6,"timeZoneId":"America/Tegucigalpa"},"lat":14.16667,"lng":-87.21667,"population":2055},{"id":3610251,"name":"El Suyatal","timezone":{"dstOffset":-6,"gmtOffset":-6,"timeZoneId":"America/Tegucigalpa"},"lat":14.51667,"lng":-87.21667,"population":2027},{"id":3607948,"name":"La Esperanza","timezone":{"dstOffset":-6,"gmtOffset":-6,"timeZoneId":"America/Tegucigalpa"},"lat":15.63333,"lng":-85.76667,"population":2014},{"id":3613708,"name":"Chalmeca","timezone":{"dstOffset":-6,"gmtOffset":-6,"timeZoneId":"America/Tegucigalpa"},"lat":15.1,"lng":-88.68333,"population":2008},{"id":3600450,"name":"Vallecillo","timezone":{"dstOffset":-6,"gmtOffset":-6,"timeZoneId":"America/Tegucigalpa"},"lat":14.51667,"lng":-87.4,"population":1986},{"id":3608142,"name":"La Concepción","timezone":{"dstOffset":-6,"gmtOffset":-6,"timeZoneId":"America/Tegucigalpa"},"lat":14.7,"lng":-86.23333,"population":1985},{"id":3601936,"name":"San Luis","timezone":{"dstOffset":-6,"gmtOffset":-6,"timeZoneId":"America/Tegucigalpa"},"lat":14.75,"lng":-87.41667,"population":1967},{"id":3611267,"name":"El Mochito","timezone":{"dstOffset":-6,"gmtOffset":-6,"timeZoneId":"America/Tegucigalpa"},"lat":14.86667,"lng":-88.08333,"population":1950},{"id":3602272,"name":"San Francisco de Yojoa","timezone":{"dstOffset":-6,"gmtOffset":-6,"timeZoneId":"America/Tegucigalpa"},"lat":15.01667,"lng":-87.96667,"population":1946},{"id":3609293,"name":"Guanaja","timezone":{"dstOffset":-6,"gmtOffset":-6,"timeZoneId":"America/Tegucigalpa"},"lat":16.4,"lng":-85.9,"population":1942},{"id":3605000,"name":"Marcovia","timezone":{"dstOffset":-6,"gmtOffset":-6,"timeZoneId":"America/Tegucigalpa"},"lat":13.28806,"lng":-87.30972,"population":1928},{"id":3610046,"name":"El Tular","timezone":{"dstOffset":-6,"gmtOffset":-6,"timeZoneId":"America/Tegucigalpa"},"lat":13.46639,"lng":-87.51528,"population":1927},{"id":3611356,"name":"El Llano","timezone":{"dstOffset":-6,"gmtOffset":-6,"timeZoneId":"America/Tegucigalpa"},"lat":15.15,"lng":-87.88333,"population":1923},{"id":3611270,"name":"El Milagro","timezone":{"dstOffset":-6,"gmtOffset":-6,"timeZoneId":"America/Tegucigalpa"},"lat":15.4,"lng":-87.96667,"population":1917},{"id":3611088,"name":"El Ocote","timezone":{"dstOffset":-6,"gmtOffset":-6,"timeZoneId":"America/Tegucigalpa"},"lat":15.41667,"lng":-86.56667,"population":1908},{"id":3603130,"name":"Punuare","timezone":{"dstOffset":-6,"gmtOffset":-6,"timeZoneId":"America/Tegucigalpa"},"lat":14.73333,"lng":-85.96667,"population":1905},{"id":3602118,"name":"San José","timezone":{"dstOffset":-6,"gmtOffset":-6,"timeZoneId":"America/Tegucigalpa"},"lat":15.31667,"lng":-87.16667,"population":1897},{"id":3609775,"name":"Erandique","timezone":{"dstOffset":-6,"gmtOffset":-6,"timeZoneId":"America/Tegucigalpa"},"lat":14.23333,"lng":-88.46667,"population":1882},{"id":3602277,"name":"San Francisco del Valle","timezone":{"dstOffset":-6,"gmtOffset":-6,"timeZoneId":"America/Tegucigalpa"},"lat":14.43333,"lng":-88.95,"population":1878},{"id":3601784,"name":"San Pedro de Tutule","timezone":{"dstOffset":-6,"gmtOffset":-6,"timeZoneId":"America/Tegucigalpa"},"lat":14.25,"lng":-87.85,"population":1876},{"id":3615169,"name":"Antigua Ocotepeque","timezone":{"dstOffset":-6,"gmtOffset":-6,"timeZoneId":"America/Tegucigalpa"},"lat":14.4,"lng":-89.2,"population":1862},{"id":3611319,"name":"El Marañón","timezone":{"dstOffset":-6,"gmtOffset":-6,"timeZoneId":"America/Tegucigalpa"},"lat":15.4,"lng":-88.05,"population":1836},{"id":3601702,"name":"Santa Ana de Yusguare","timezone":{"dstOffset":-6,"gmtOffset":-6,"timeZoneId":"America/Tegucigalpa"},"lat":13.30056,"lng":-87.11389,"population":1823},{"id":3611718,"name":"El Guapinol","timezone":{"dstOffset":-6,"gmtOffset":-6,"timeZoneId":"America/Tegucigalpa"},"lat":13.76667,"lng":-87.46667,"population":1817},{"id":3615070,"name":"Arimís","timezone":{"dstOffset":-6,"gmtOffset":-6,"timeZoneId":"America/Tegucigalpa"},"lat":14.78333,"lng":-86,"population":1817},{"id":3608860,"name":"Ilama","timezone":{"dstOffset":-6,"gmtOffset":-6,"timeZoneId":"America/Tegucigalpa"},"lat":15.06667,"lng":-88.21667,"population":1811},{"id":3604503,"name":"Namasigüe","timezone":{"dstOffset":-6,"gmtOffset":-6,"timeZoneId":"America/Tegucigalpa"},"lat":13.20472,"lng":-87.13889,"population":1804},{"id":3607436,"name":"Lamaní","timezone":{"dstOffset":-6,"gmtOffset":-6,"timeZoneId":"America/Tegucigalpa"},"lat":14.2,"lng":-87.61667,"population":1791},{"id":3602092,"name":"San José de Copán","timezone":{"dstOffset":-6,"gmtOffset":-6,"timeZoneId":"America/Tegucigalpa"},"lat":14.9,"lng":-88.71667,"population":1789},{"id":3602190,"name":"San Jerónimo","timezone":{"dstOffset":-6,"gmtOffset":-6,"timeZoneId":"America/Tegucigalpa"},"lat":14.63333,"lng":-87.6,"population":1789},{"id":3615030,"name":"Atenas de San Cristóbal","timezone":{"dstOffset":-6,"gmtOffset":-6,"timeZoneId":"America/Tegucigalpa"},"lat":15.68333,"lng":-87.31667,"population":1783},{"id":3602546,"name":"San Agustín","timezone":{"dstOffset":-6,"gmtOffset":-6,"timeZoneId":"America/Tegucigalpa"},"lat":14.81667,"lng":-88.93333,"population":1777},{"id":3615358,"name":"Agualote","timezone":{"dstOffset":-6,"gmtOffset":-6,"timeZoneId":"America/Tegucigalpa"},"lat":15.33528,"lng":-88.55306,"population":1759},{"id":3612640,"name":"El Bálsamo","timezone":{"dstOffset":-6,"gmtOffset":-6,"timeZoneId":"America/Tegucigalpa"},"lat":15.06667,"lng":-87.46667,"population":1741},{"id":3602602,"name":"Salamá","timezone":{"dstOffset":-6,"gmtOffset":-6,"timeZoneId":"America/Tegucigalpa"},"lat":15.75,"lng":-85.96667,"population":1737},{"id":3608635,"name":"Jocón","timezone":{"dstOffset":-6,"gmtOffset":-6,"timeZoneId":"America/Tegucigalpa"},"lat":15.28333,"lng":-86.96667,"population":1731},{"id":3615090,"name":"Arenal","timezone":{"dstOffset":-6,"gmtOffset":-6,"timeZoneId":"America/Tegucigalpa"},"lat":15.35,"lng":-86.83333,"population":1722},{"id":3602474,"name":"San Antonio","timezone":{"dstOffset":-6,"gmtOffset":-6,"timeZoneId":"America/Tegucigalpa"},"lat":15.33333,"lng":-87.15,"population":1711},{"id":3609152,"name":"Guayape","timezone":{"dstOffset":-6,"gmtOffset":-6,"timeZoneId":"America/Tegucigalpa"},"lat":14.71667,"lng":-86.83333,"population":1703},{"id":3611128,"name":"El Obraje","timezone":{"dstOffset":-6,"gmtOffset":-6,"timeZoneId":"America/Tegucigalpa"},"lat":14,"lng":-86.43333,"population":1703},{"id":3615028,"name":"Atima","timezone":{"dstOffset":-6,"gmtOffset":-6,"timeZoneId":"America/Tegucigalpa"},"lat":14.93333,"lng":-88.48333,"population":1703},{"id":3604320,"name":"Ocote Paulino","timezone":{"dstOffset":-6,"gmtOffset":-6,"timeZoneId":"America/Tegucigalpa"},"lat":15.41667,"lng":-87.6,"population":1697},{"id":3601518,"name":"Santa Rita","timezone":{"dstOffset":-6,"gmtOffset":-6,"timeZoneId":"America/Tegucigalpa"},"lat":14.91667,"lng":-88.21667,"population":1687},{"id":3605436,"name":"Los Naranjos","timezone":{"dstOffset":-6,"gmtOffset":-6,"timeZoneId":"America/Tegucigalpa"},"lat":14.9,"lng":-88.05,"population":1684},{"id":3612160,"name":"El Chichicaste","timezone":{"dstOffset":-6,"gmtOffset":-6,"timeZoneId":"America/Tegucigalpa"},"lat":14.06667,"lng":-86.3,"population":1671},{"id":3607930,"name":"La Estancia","timezone":{"dstOffset":-6,"gmtOffset":-6,"timeZoneId":"America/Tegucigalpa"},"lat":15.28333,"lng":-87.55,"population":1668},{"id":3604189,"name":"Orocuina","timezone":{"dstOffset":-6,"gmtOffset":-6,"timeZoneId":"America/Tegucigalpa"},"lat":13.48167,"lng":-87.105,"population":1655},{"id":3610912,"name":"El Pedernal","timezone":{"dstOffset":-6,"gmtOffset":-6,"timeZoneId":"America/Tegucigalpa"},"lat":14.7,"lng":-87.11667,"population":1648},{"id":3600895,"name":"Tepusteca","timezone":{"dstOffset":-6,"gmtOffset":-6,"timeZoneId":"America/Tegucigalpa"},"lat":15.41667,"lng":-86.31667,"population":1638},{"id":3601993,"name":"San Juan de Opoa","timezone":{"dstOffset":-6,"gmtOffset":-6,"timeZoneId":"America/Tegucigalpa"},"lat":14.78333,"lng":-88.7,"population":1636},{"id":3602065,"name":"San José de Tarros","timezone":{"dstOffset":-6,"gmtOffset":-6,"timeZoneId":"America/Tegucigalpa"},"lat":15.3,"lng":-88.7,"population":1634},{"id":3612937,"name":"Cuyalí","timezone":{"dstOffset":-6,"gmtOffset":-6,"timeZoneId":"America/Tegucigalpa"},"lat":13.88333,"lng":-86.55,"population":1572},{"id":3613509,"name":"Chotepe","timezone":{"dstOffset":-6,"gmtOffset":-6,"timeZoneId":"America/Tegucigalpa"},"lat":15.41667,"lng":-87.98333,"population":1564},{"id":3614997,"name":"Ayapa","timezone":{"dstOffset":-6,"gmtOffset":-6,"timeZoneId":"America/Tegucigalpa"},"lat":15.1,"lng":-87.15,"population":1559},{"id":3607053,"name":"La Rosa","timezone":{"dstOffset":-6,"gmtOffset":-6,"timeZoneId":"America/Tegucigalpa"},"lat":15.35,"lng":-87.06667,"population":1552},{"id":3605837,"name":"Lomitas","timezone":{"dstOffset":-6,"gmtOffset":-6,"timeZoneId":"America/Tegucigalpa"},"lat":15.1,"lng":-87.21667,"population":1552},{"id":3601367,"name":"Sensenti","timezone":{"dstOffset":-6,"gmtOffset":-6,"timeZoneId":"America/Tegucigalpa"},"lat":14.48333,"lng":-88.93333,"population":1551},{"id":3607042,"name":"La Sabana","timezone":{"dstOffset":-6,"gmtOffset":-6,"timeZoneId":"America/Tegucigalpa"},"lat":15.36667,"lng":-87.93333,"population":1524},{"id":3605018,"name":"Marale","timezone":{"dstOffset":-6,"gmtOffset":-6,"timeZoneId":"America/Tegucigalpa"},"lat":14.88333,"lng":-87.15,"population":1523},{"id":3610487,"name":"El Rincón","timezone":{"dstOffset":-6,"gmtOffset":-6,"timeZoneId":"America/Tegucigalpa"},"lat":14.58333,"lng":-87.93333,"population":1522},{"id":3608828,"name":"Iralaya","timezone":{"dstOffset":-6,"gmtOffset":-6,"timeZoneId":"America/Tegucigalpa"},"lat":15,"lng":-83.23333,"population":1520},{"id":3607931,"name":"La Estancia","timezone":{"dstOffset":-6,"gmtOffset":-6,"timeZoneId":"America/Tegucigalpa"},"lat":15.05,"lng":-86.35,"population":1508},{"id":3615022,"name":"Auas","timezone":{"dstOffset":-6,"gmtOffset":-6,"timeZoneId":"America/Tegucigalpa"},"lat":15.48333,"lng":-84.33333,"population":1505},{"id":3604712,"name":"Mojimán","timezone":{"dstOffset":-6,"gmtOffset":-6,"timeZoneId":"America/Tegucigalpa"},"lat":15.26667,"lng":-87.6,"population":1498},{"id":3615067,"name":"Armenia","timezone":{"dstOffset":-6,"gmtOffset":-6,"timeZoneId":"America/Tegucigalpa"},"lat":15.46667,"lng":-86.36667,"population":1488},{"id":3607992,"name":"La Encarnación","timezone":{"dstOffset":-6,"gmtOffset":-6,"timeZoneId":"America/Tegucigalpa"},"lat":14.66667,"lng":-89.08333,"population":1484},{"id":3610558,"name":"El Rancho","timezone":{"dstOffset":-6,"gmtOffset":-6,"timeZoneId":"America/Tegucigalpa"},"lat":14.68333,"lng":-87.5,"population":1484},{"id":3600280,"name":"Wawina","timezone":{"dstOffset":-6,"gmtOffset":-6,"timeZoneId":"America/Tegucigalpa"},"lat":15.41667,"lng":-84.43333,"population":1481},{"id":3601733,"name":"San Sebastián","timezone":{"dstOffset":-6,"gmtOffset":-6,"timeZoneId":"America/Tegucigalpa"},"lat":14.25,"lng":-87.63333,"population":1471},{"id":3613286,"name":"Concepción de Guasistagua","timezone":{"dstOffset":-6,"gmtOffset":-6,"timeZoneId":"America/Tegucigalpa"},"lat":14.6,"lng":-87.65,"population":1470},{"id":3614893,"name":"Bálsamo Oriental","timezone":{"dstOffset":-6,"gmtOffset":-6,"timeZoneId":"America/Tegucigalpa"},"lat":15.48333,"lng":-86.33333,"population":1465},{"id":3602137,"name":"San José","timezone":{"dstOffset":-6,"gmtOffset":-6,"timeZoneId":"America/Tegucigalpa"},"lat":14.25,"lng":-87.95,"population":1463},{"id":3607797,"name":"Laguna Verde","timezone":{"dstOffset":-6,"gmtOffset":-6,"timeZoneId":"America/Tegucigalpa"},"lat":15.2,"lng":-88.16667,"population":1460},{"id":3600662,"name":"Tornabé","timezone":{"dstOffset":-6,"gmtOffset":-6,"timeZoneId":"America/Tegucigalpa"},"lat":15.75,"lng":-87.55,"population":1452},{"id":3602396,"name":"San Buenaventura","timezone":{"dstOffset":-6,"gmtOffset":-6,"timeZoneId":"America/Tegucigalpa"},"lat":15.01667,"lng":-88,"population":1452},{"id":3605222,"name":"Lucerna","timezone":{"dstOffset":-6,"gmtOffset":-6,"timeZoneId":"America/Tegucigalpa"},"lat":14.55,"lng":-88.93333,"population":1452},{"id":3600271,"name":"Yaguacire","timezone":{"dstOffset":-6,"gmtOffset":-6,"timeZoneId":"America/Tegucigalpa"},"lat":14.01667,"lng":-87.21667,"population":1449},{"id":3607538,"name":"La Libertad","timezone":{"dstOffset":-6,"gmtOffset":-6,"timeZoneId":"America/Tegucigalpa"},"lat":14.8,"lng":-88.58333,"population":1444},{"id":3612949,"name":"Cusuna","timezone":{"dstOffset":-6,"gmtOffset":-6,"timeZoneId":"America/Tegucigalpa"},"lat":15.85,"lng":-85.23333,"population":1441},{"id":3611352,"name":"El Lolo","timezone":{"dstOffset":-6,"gmtOffset":-6,"timeZoneId":"America/Tegucigalpa"},"lat":14.11667,"lng":-87.26667,"population":1438},{"id":3610118,"name":"El Tigre","timezone":{"dstOffset":-6,"gmtOffset":-6,"timeZoneId":"America/Tegucigalpa"},"lat":14.93333,"lng":-87.98333,"population":1435},{"id":3609342,"name":"Gualjoco","timezone":{"dstOffset":-6,"gmtOffset":-6,"timeZoneId":"America/Tegucigalpa"},"lat":14.95,"lng":-88.23333,"population":1432},{"id":3602077,"name":"San José del Boquerón","timezone":{"dstOffset":-6,"gmtOffset":-6,"timeZoneId":"America/Tegucigalpa"},"lat":15.48333,"lng":-87.86667,"population":1432},{"id":3601664,"name":"Santa Cruz","timezone":{"dstOffset":-6,"gmtOffset":-6,"timeZoneId":"America/Tegucigalpa"},"lat":13.86667,"lng":-86.63333,"population":1430},{"id":3605258,"name":"Los Tangos","timezone":{"dstOffset":-6,"gmtOffset":-6,"timeZoneId":"America/Tegucigalpa"},"lat":15.15,"lng":-88.68333,"population":1424},{"id":3607644,"name":"La Labor","timezone":{"dstOffset":-6,"gmtOffset":-6,"timeZoneId":"America/Tegucigalpa"},"lat":14.48333,"lng":-89,"population":1416},{"id":3604181,"name":"Oropolí","timezone":{"dstOffset":-6,"gmtOffset":-6,"timeZoneId":"America/Tegucigalpa"},"lat":13.81667,"lng":-86.81667,"population":1412},{"id":3602777,"name":"Río Chiquito","timezone":{"dstOffset":-6,"gmtOffset":-6,"timeZoneId":"America/Tegucigalpa"},"lat":15.63333,"lng":-88.25,"population":1405},{"id":3603035,"name":"Quebradas","timezone":{"dstOffset":-6,"gmtOffset":-6,"timeZoneId":"America/Tegucigalpa"},"lat":14.5,"lng":-87.35,"population":1405},{"id":3611699,"name":"El Guayabito","timezone":{"dstOffset":-6,"gmtOffset":-6,"timeZoneId":"America/Tegucigalpa"},"lat":14.83333,"lng":-86.03333,"population":1404},{"id":3603137,"name":"Punta Ocote","timezone":{"dstOffset":-6,"gmtOffset":-6,"timeZoneId":"America/Tegucigalpa"},"lat":15.2,"lng":-87.28333,"population":1399},{"id":3604395,"name":"Nueva Armenia","timezone":{"dstOffset":-6,"gmtOffset":-6,"timeZoneId":"America/Tegucigalpa"},"lat":15.79556,"lng":-86.49845,"population":1392},{"id":3610318,"name":"El Sauce","timezone":{"dstOffset":-6,"gmtOffset":-6,"timeZoneId":"America/Tegucigalpa"},"lat":14.5285,"lng":-87.66571,"population":1389},{"id":3603169,"name":"Puerto Alto","timezone":{"dstOffset":-6,"gmtOffset":-6,"timeZoneId":"America/Tegucigalpa"},"lat":15.7,"lng":-87.86667,"population":1385},{"id":3608692,"name":"Jícaro Galán","timezone":{"dstOffset":-6,"gmtOffset":-6,"timeZoneId":"America/Tegucigalpa"},"lat":13.53167,"lng":-87.43889,"population":1370},{"id":3601179,"name":"Subirana","timezone":{"dstOffset":-6,"gmtOffset":-6,"timeZoneId":"America/Tegucigalpa"},"lat":15.2,"lng":-87.45,"population":1362},{"id":3601608,"name":"Santa Elena","timezone":{"dstOffset":-6,"gmtOffset":-6,"timeZoneId":"America/Tegucigalpa"},"lat":15.38333,"lng":-88.13333,"population":1361},{"id":3609608,"name":"Goascorán","timezone":{"dstOffset":-6,"gmtOffset":-6,"timeZoneId":"America/Tegucigalpa"},"lat":13.58333,"lng":-87.61667,"population":1350},{"id":3604263,"name":"Ojos de Agua","timezone":{"dstOffset":-6,"gmtOffset":-6,"timeZoneId":"America/Tegucigalpa"},"lat":14.7,"lng":-88.81667,"population":1340},{"id":3609742,"name":"Esquías","timezone":{"dstOffset":-6,"gmtOffset":-6,"timeZoneId":"America/Tegucigalpa"},"lat":14.73333,"lng":-87.36667,"population":1339},{"id":3610687,"name":"El Porvenir","timezone":{"dstOffset":-6,"gmtOffset":-6,"timeZoneId":"America/Tegucigalpa"},"lat":14.58333,"lng":-87.88333,"population":1337},{"id":3603343,"name":"Potrerillos","timezone":{"dstOffset":-6,"gmtOffset":-6,"timeZoneId":"America/Tegucigalpa"},"lat":14.55,"lng":-87.86667,"population":1334},{"id":3604184,"name":"Oropéndolas","timezone":{"dstOffset":-6,"gmtOffset":-6,"timeZoneId":"America/Tegucigalpa"},"lat":15.01667,"lng":-87.93333,"population":1333},{"id":3609673,"name":"Francia","timezone":{"dstOffset":-6,"gmtOffset":-6,"timeZoneId":"America/Tegucigalpa"},"lat":15.85,"lng":-85.58333,"population":1331},{"id":3602284,"name":"San Francisco de Coray","timezone":{"dstOffset":-6,"gmtOffset":-6,"timeZoneId":"America/Tegucigalpa"},"lat":13.66139,"lng":-87.53278,"population":1330},{"id":3610610,"name":"El Puente","timezone":{"dstOffset":-6,"gmtOffset":-6,"timeZoneId":"America/Tegucigalpa"},"lat":13.28333,"lng":-87.11667,"population":1325},{"id":3605382,"name":"Los Planes","timezone":{"dstOffset":-6,"gmtOffset":-6,"timeZoneId":"America/Tegucigalpa"},"lat":14.05,"lng":-88.01667,"population":1320},{"id":3614343,"name":"Camalote","timezone":{"dstOffset":-6,"gmtOffset":-6,"timeZoneId":"America/Tegucigalpa"},"lat":15.33333,"lng":-88.33333,"population":1319},{"id":3606097,"name":"La Virtud","timezone":{"dstOffset":-6,"gmtOffset":-6,"timeZoneId":"America/Tegucigalpa"},"lat":14.05,"lng":-88.7,"population":1315},{"id":3606185,"name":"La Trinidad","timezone":{"dstOffset":-6,"gmtOffset":-6,"timeZoneId":"America/Tegucigalpa"},"lat":15.1,"lng":-87.2,"population":1314},{"id":3601836,"name":"San Nicolás","timezone":{"dstOffset":-6,"gmtOffset":-6,"timeZoneId":"America/Tegucigalpa"},"lat":14.55,"lng":-86.25,"population":1313},{"id":3606250,"name":"Las Vegas","timezone":{"dstOffset":-6,"gmtOffset":-6,"timeZoneId":"America/Tegucigalpa"},"lat":15.01667,"lng":-87.45,"population":1308},{"id":3601951,"name":"San Lucas","timezone":{"dstOffset":-6,"gmtOffset":-6,"timeZoneId":"America/Tegucigalpa"},"lat":13.73333,"lng":-86.95,"population":1307},{"id":3602368,"name":"San Diego","timezone":{"dstOffset":-6,"gmtOffset":-6,"timeZoneId":"America/Tegucigalpa"},"lat":14.05,"lng":-86.46667,"population":1306},{"id":3601496,"name":"Santa Rosa de Aguán","timezone":{"dstOffset":-6,"gmtOffset":-6,"timeZoneId":"America/Tegucigalpa"},"lat":15.95,"lng":-85.71667,"population":1304},{"id":3613402,"name":"Cofradía","timezone":{"dstOffset":-6,"gmtOffset":-6,"timeZoneId":"America/Tegucigalpa"},"lat":14.21667,"lng":-87.18333,"population":1301},{"id":3609231,"name":"Guarizama","timezone":{"dstOffset":-6,"gmtOffset":-6,"timeZoneId":"America/Tegucigalpa"},"lat":14.91667,"lng":-86.33333,"population":1300},{"id":3600057,"name":"Zopilotepe","timezone":{"dstOffset":-6,"gmtOffset":-6,"timeZoneId":"America/Tegucigalpa"},"lat":14.6,"lng":-86.26667,"population":1300},{"id":3611481,"name":"El Juncal","timezone":{"dstOffset":-6,"gmtOffset":-6,"timeZoneId":"America/Tegucigalpa"},"lat":15.45,"lng":-86.43333,"population":1286},{"id":3611933,"name":"El Cubolero","timezone":{"dstOffset":-6,"gmtOffset":-6,"timeZoneId":"America/Tegucigalpa"},"lat":13.46667,"lng":-87.66667,"population":1286},{"id":3607146,"name":"La Playona","timezone":{"dstOffset":-6,"gmtOffset":-6,"timeZoneId":"America/Tegucigalpa"},"lat":15.11667,"lng":-88.98333,"population":1285},{"id":3600626,"name":"Travesía","timezone":{"dstOffset":-6,"gmtOffset":-6,"timeZoneId":"America/Tegucigalpa"},"lat":15.86667,"lng":-87.9,"population":1283},{"id":3611040,"name":"El Olivar","timezone":{"dstOffset":-6,"gmtOffset":-6,"timeZoneId":"America/Tegucigalpa"},"lat":15.08333,"lng":-87.88333,"population":1279},{"id":3614805,"name":"Bejuco","timezone":{"dstOffset":-6,"gmtOffset":-6,"timeZoneId":"America/Tegucigalpa"},"lat":15.13333,"lng":-87.93333,"population":1276},{"id":3613263,"name":"Concordia","timezone":{"dstOffset":-6,"gmtOffset":-6,"timeZoneId":"America/Tegucigalpa"},"lat":14.61667,"lng":-86.65,"population":1272},{"id":3600969,"name":"Taujica","timezone":{"dstOffset":-6,"gmtOffset":-6,"timeZoneId":"America/Tegucigalpa"},"lat":15.7,"lng":-85.91667,"population":1271},{"id":3605053,"name":"Mangulile","timezone":{"dstOffset":-6,"gmtOffset":-6,"timeZoneId":"America/Tegucigalpa"},"lat":15.06667,"lng":-86.8,"population":1263},{"id":3614975,"name":"Azacualpa","timezone":{"dstOffset":-6,"gmtOffset":-6,"timeZoneId":"America/Tegucigalpa"},"lat":14.71667,"lng":-88.1,"population":1258},{"id":3615011,"name":"Auka","timezone":{"dstOffset":-6,"gmtOffset":-6,"timeZoneId":"America/Tegucigalpa"},"lat":14.93333,"lng":-83.83333,"population":1254},{"id":3601874,"name":"San Matías","timezone":{"dstOffset":-6,"gmtOffset":-6,"timeZoneId":"America/Tegucigalpa"},"lat":13.98333,"lng":-86.63333,"population":1251},{"id":3609453,"name":"Guacamaya","timezone":{"dstOffset":-6,"gmtOffset":-6,"timeZoneId":"America/Tegucigalpa"},"lat":15.01667,"lng":-88.15,"population":1250},{"id":3604414,"name":"Nombre de Jesús","timezone":{"dstOffset":-6,"gmtOffset":-6,"timeZoneId":"America/Tegucigalpa"},"lat":15.35,"lng":-86.68333,"population":1250},{"id":3608656,"name":"Jiquinlaca","timezone":{"dstOffset":-6,"gmtOffset":-6,"timeZoneId":"America/Tegucigalpa"},"lat":14,"lng":-88.35,"population":1248},{"id":3603920,"name":"Paujiles","timezone":{"dstOffset":-6,"gmtOffset":-6,"timeZoneId":"America/Tegucigalpa"},"lat":15.1,"lng":-87.35,"population":1244},{"id":3607838,"name":"La Guama","timezone":{"dstOffset":-6,"gmtOffset":-6,"timeZoneId":"America/Tegucigalpa"},"lat":14.88333,"lng":-87.93333,"population":1242},{"id":3613900,"name":"Ceguaca","timezone":{"dstOffset":-6,"gmtOffset":-6,"timeZoneId":"America/Tegucigalpa"},"lat":14.8,"lng":-88.2,"population":1239},{"id":3603998,"name":"Paptalaya","timezone":{"dstOffset":-6,"gmtOffset":-6,"timeZoneId":"America/Tegucigalpa"},"lat":15.5,"lng":-84.31667,"population":1227},{"id":3601563,"name":"Santa Lucía","timezone":{"dstOffset":-6,"gmtOffset":-6,"timeZoneId":"America/Tegucigalpa"},"lat":14.41667,"lng":-89.2,"population":1224},{"id":3611719,"name":"El Guantillo","timezone":{"dstOffset":-6,"gmtOffset":-6,"timeZoneId":"America/Tegucigalpa"},"lat":14.6,"lng":-87.3,"population":1223},{"id":3603167,"name":"Puerto Castilla","timezone":{"dstOffset":-6,"gmtOffset":-6,"timeZoneId":"America/Tegucigalpa"},"lat":16.01667,"lng":-85.96667,"population":1220},{"id":3607830,"name":"La Guata","timezone":{"dstOffset":-6,"gmtOffset":-6,"timeZoneId":"America/Tegucigalpa"},"lat":15.08333,"lng":-86.38333,"population":1217},{"id":3603041,"name":"Quebrada Larga","timezone":{"dstOffset":-6,"gmtOffset":-6,"timeZoneId":"America/Tegucigalpa"},"lat":14.1,"lng":-86.36667,"population":1217},{"id":3612784,"name":"El Achiotal","timezone":{"dstOffset":-6,"gmtOffset":-6,"timeZoneId":"America/Tegucigalpa"},"lat":14.08333,"lng":-88.75,"population":1210},{"id":3602769,"name":"Río Esteban","timezone":{"dstOffset":-6,"gmtOffset":-6,"timeZoneId":"America/Tegucigalpa"},"lat":15.83333,"lng":-86.3,"population":1208},{"id":3608631,"name":"Joconal","timezone":{"dstOffset":-6,"gmtOffset":-6,"timeZoneId":"America/Tegucigalpa"},"lat":15.35444,"lng":-88.63556,"population":1206},{"id":3611987,"name":"Corpus","timezone":{"dstOffset":-6,"gmtOffset":-6,"timeZoneId":"America/Tegucigalpa"},"lat":13.28889,"lng":-87.03472,"population":1199},{"id":3611986,"name":"El Corpus","timezone":{"dstOffset":-6,"gmtOffset":-6,"timeZoneId":"America/Tegucigalpa"},"lat":14.7,"lng":-88.91667,"population":1193},{"id":3603136,"name":"Punta Piedra","timezone":{"dstOffset":-6,"gmtOffset":-6,"timeZoneId":"America/Tegucigalpa"},"lat":15.9,"lng":-85.28333,"population":1188},{"id":3600254,"name":"Yamaranguila","timezone":{"dstOffset":-6,"gmtOffset":-6,"timeZoneId":"America/Tegucigalpa"},"lat":14.28333,"lng":-88.25,"population":1187},{"id":3611844,"name":"El Escanito","timezone":{"dstOffset":-6,"gmtOffset":-6,"timeZoneId":"America/Tegucigalpa"},"lat":14.66667,"lng":-87.1,"population":1184},{"id":3601672,"name":"Santa Cruz","timezone":{"dstOffset":-6,"gmtOffset":-6,"timeZoneId":"America/Tegucigalpa"},"lat":13.25806,"lng":-87.34833,"population":1174},{"id":3611133,"name":"El Obraje","timezone":{"dstOffset":-6,"gmtOffset":-6,"timeZoneId":"America/Tegucigalpa"},"lat":13.15417,"lng":-87.13083,"population":1172},{"id":3613847,"name":"Cerro Blanco","timezone":{"dstOffset":-6,"gmtOffset":-6,"timeZoneId":"America/Tegucigalpa"},"lat":14.66667,"lng":-87.78333,"population":1169},{"id":3612801,"name":"Duyure","timezone":{"dstOffset":-6,"gmtOffset":-6,"timeZoneId":"America/Tegucigalpa"},"lat":13.63333,"lng":-86.81667,"population":1164},{"id":3613145,"name":"Correderos","timezone":{"dstOffset":-6,"gmtOffset":-6,"timeZoneId":"America/Tegucigalpa"},"lat":15.41667,"lng":-88.45,"population":1162},{"id":3615108,"name":"Araulí","timezone":{"dstOffset":-6,"gmtOffset":-6,"timeZoneId":"America/Tegucigalpa"},"lat":13.95,"lng":-86.55,"population":1160},{"id":3608522,"name":"Jutiapa","timezone":{"dstOffset":-6,"gmtOffset":-6,"timeZoneId":"America/Tegucigalpa"},"lat":13.98333,"lng":-86.4,"population":1153},{"id":3602473,"name":"San Antonio","timezone":{"dstOffset":-6,"gmtOffset":-6,"timeZoneId":"America/Tegucigalpa"},"lat":15.6,"lng":-87.15,"population":1151},{"id":3604949,"name":"Mata de Plátano","timezone":{"dstOffset":-6,"gmtOffset":-6,"timeZoneId":"America/Tegucigalpa"},"lat":14.6,"lng":-87.28333,"population":1151},{"id":3614328,"name":"Camasca","timezone":{"dstOffset":-6,"gmtOffset":-6,"timeZoneId":"America/Tegucigalpa"},"lat":14,"lng":-88.38333,"population":1150},{"id":3604265,"name":"Ojos de Agua","timezone":{"dstOffset":-6,"gmtOffset":-6,"timeZoneId":"America/Tegucigalpa"},"lat":14.6,"lng":-87.93333,"population":1146},{"id":3605729,"name":"Los Caminos","timezone":{"dstOffset":-6,"gmtOffset":-6,"timeZoneId":"America/Tegucigalpa"},"lat":14.95,"lng":-87.96667,"population":1146},{"id":3612138,"name":"El Chimbo","timezone":{"dstOffset":-6,"gmtOffset":-6,"timeZoneId":"America/Tegucigalpa"},"lat":14.13333,"lng":-87.11667,"population":1145},{"id":3613105,"name":"Coyoles Central","timezone":{"dstOffset":-6,"gmtOffset":-6,"timeZoneId":"America/Tegucigalpa"},"lat":15.4,"lng":-86.66667,"population":1144},{"id":3610866,"name":"El Perico","timezone":{"dstOffset":-6,"gmtOffset":-6,"timeZoneId":"America/Tegucigalpa"},"lat":15.08333,"lng":-88.1,"population":1141},{"id":3606319,"name":"Las Tejeras","timezone":{"dstOffset":-6,"gmtOffset":-6,"timeZoneId":"America/Tegucigalpa"},"lat":14.8,"lng":-88.6,"population":1140},{"id":3607731,"name":"La Huesa","timezone":{"dstOffset":-6,"gmtOffset":-6,"timeZoneId":"America/Tegucigalpa"},"lat":15.58333,"lng":-87.88333,"population":1139},{"id":3607802,"name":"Laguna Seca","timezone":{"dstOffset":-6,"gmtOffset":-6,"timeZoneId":"America/Tegucigalpa"},"lat":14.7,"lng":-86.1,"population":1131},{"id":3614583,"name":"Buenos Aires","timezone":{"dstOffset":-6,"gmtOffset":-6,"timeZoneId":"America/Tegucigalpa"},"lat":15.03333,"lng":-88.96667,"population":1131},{"id":3602169,"name":"San Joaquín","timezone":{"dstOffset":-6,"gmtOffset":-6,"timeZoneId":"America/Tegucigalpa"},"lat":15.05,"lng":-88.9,"population":1130},{"id":3610232,"name":"El Tablón","timezone":{"dstOffset":-6,"gmtOffset":-6,"timeZoneId":"America/Tegucigalpa"},"lat":14.03333,"lng":-87.16667,"population":1121},{"id":3607030,"name":"Las Ánimas","timezone":{"dstOffset":-6,"gmtOffset":-6,"timeZoneId":"America/Tegucigalpa"},"lat":14.25,"lng":-86.56667,"population":1117},{"id":3600951,"name":"Teguajinal","timezone":{"dstOffset":-6,"gmtOffset":-6,"timeZoneId":"America/Tegucigalpa"},"lat":15.36667,"lng":-86.6,"population":1117},{"id":3602984,"name":"Quezailica","timezone":{"dstOffset":-6,"gmtOffset":-6,"timeZoneId":"America/Tegucigalpa"},"lat":14.88333,"lng":-88.73333,"population":1115},{"id":3601302,"name":"Silca","timezone":{"dstOffset":-6,"gmtOffset":-6,"timeZoneId":"America/Tegucigalpa"},"lat":14.83333,"lng":-86.53333,"population":1112},{"id":3601925,"name":"San Luis de Planes","timezone":{"dstOffset":-6,"gmtOffset":-6,"timeZoneId":"America/Tegucigalpa"},"lat":14.98333,"lng":-88.13333,"population":1111},{"id":3608743,"name":"Jamalteca","timezone":{"dstOffset":-6,"gmtOffset":-6,"timeZoneId":"America/Tegucigalpa"},"lat":14.7,"lng":-87.58333,"population":1107},{"id":3612838,"name":"Dolores","timezone":{"dstOffset":-6,"gmtOffset":-6,"timeZoneId":"America/Tegucigalpa"},"lat":14.86667,"lng":-88.83333,"population":1107},{"id":3600236,"name":"Yaruchel","timezone":{"dstOffset":-6,"gmtOffset":-6,"timeZoneId":"America/Tegucigalpa"},"lat":14.53333,"lng":-88.81667,"population":1105},{"id":3615332,"name":"Aguas del Padre","timezone":{"dstOffset":-6,"gmtOffset":-6,"timeZoneId":"America/Tegucigalpa"},"lat":14.56667,"lng":-87.88333,"population":1104},{"id":3603267,"name":"Prieta","timezone":{"dstOffset":-6,"gmtOffset":-6,"timeZoneId":"America/Tegucigalpa"},"lat":15.5806,"lng":-86.13664,"population":1103},{"id":3614113,"name":"Carbajales","timezone":{"dstOffset":-6,"gmtOffset":-6,"timeZoneId":"America/Tegucigalpa"},"lat":15.51667,"lng":-86.35,"population":1102},{"id":3603326,"name":"Potrerillos","timezone":{"dstOffset":-6,"gmtOffset":-6,"timeZoneId":"America/Tegucigalpa"},"lat":15.63333,"lng":-88.3,"population":1102},{"id":3610555,"name":"El Rancho","timezone":{"dstOffset":-6,"gmtOffset":-6,"timeZoneId":"America/Tegucigalpa"},"lat":15.66667,"lng":-87.95,"population":1101},{"id":3612581,"name":"El Benque","timezone":{"dstOffset":-6,"gmtOffset":-6,"timeZoneId":"America/Tegucigalpa"},"lat":14.03333,"lng":-86.46667,"population":1101},{"id":3600421,"name":"Valle de Ángeles","timezone":{"dstOffset":-6,"gmtOffset":-6,"timeZoneId":"America/Tegucigalpa"},"lat":14.5,"lng":-87.63333,"population":1101},{"id":3605042,"name":"Manto","timezone":{"dstOffset":-6,"gmtOffset":-6,"timeZoneId":"America/Tegucigalpa"},"lat":14.91667,"lng":-86.38333,"population":1098},{"id":3602852,"name":"Reitoca","timezone":{"dstOffset":-6,"gmtOffset":-6,"timeZoneId":"America/Tegucigalpa"},"lat":13.82583,"lng":-87.46528,"population":1094},{"id":3604386,"name":"Nueva Jalapa","timezone":{"dstOffset":-6,"gmtOffset":-6,"timeZoneId":"America/Tegucigalpa"},"lat":14.91667,"lng":-88.33333,"population":1094},{"id":3613805,"name":"Cerro Grande","timezone":{"dstOffset":-6,"gmtOffset":-6,"timeZoneId":"America/Tegucigalpa"},"lat":13.81667,"lng":-87.25,"population":1093},{"id":3610278,"name":"El Socorro","timezone":{"dstOffset":-6,"gmtOffset":-6,"timeZoneId":"America/Tegucigalpa"},"lat":14.63333,"lng":-87.91667,"population":1092},{"id":3602070,"name":"San José del Potrero","timezone":{"dstOffset":-6,"gmtOffset":-6,"timeZoneId":"America/Tegucigalpa"},"lat":14.83333,"lng":-87.28333,"population":1091},{"id":3610139,"name":"El Terrero","timezone":{"dstOffset":-6,"gmtOffset":-6,"timeZoneId":"America/Tegucigalpa"},"lat":14.06667,"lng":-87.06667,"population":1087},{"id":3606075,"name":"La Zumbadora","timezone":{"dstOffset":-6,"gmtOffset":-6,"timeZoneId":"America/Tegucigalpa"},"lat":15.01667,"lng":-88.9,"population":1086},{"id":3606901,"name":"San José de Las Conchas","timezone":{"dstOffset":-6,"gmtOffset":-6,"timeZoneId":"America/Tegucigalpa"},"lat":13.32528,"lng":-87.39556,"population":1084},{"id":3611720,"name":"El Guante","timezone":{"dstOffset":-6,"gmtOffset":-6,"timeZoneId":"America/Tegucigalpa"},"lat":14.55,"lng":-87.1,"population":1082},{"id":3615557,"name":"Agua Azul","timezone":{"dstOffset":-6,"gmtOffset":-6,"timeZoneId":"America/Tegucigalpa"},"lat":14.91667,"lng":-87.96667,"population":1079},{"id":3615473,"name":"Agua Caliente","timezone":{"dstOffset":-6,"gmtOffset":-6,"timeZoneId":"America/Tegucigalpa"},"lat":14.88333,"lng":-88.81667,"population":1075},{"id":3602359,"name":"Sandy Bay","timezone":{"dstOffset":-6,"gmtOffset":-6,"timeZoneId":"America/Tegucigalpa"},"lat":16.32923,"lng":-86.56446,"population":1072},{"id":3615115,"name":"Aramecina","timezone":{"dstOffset":-6,"gmtOffset":-6,"timeZoneId":"America/Tegucigalpa"},"lat":13.74222,"lng":-87.71028,"population":1071},{"id":3602066,"name":"San José de Río Tinto","timezone":{"dstOffset":-6,"gmtOffset":-6,"timeZoneId":"America/Tegucigalpa"},"lat":14.93333,"lng":-85.7,"population":1071},{"id":3600598,"name":"Trojas","timezone":{"dstOffset":-6,"gmtOffset":-6,"timeZoneId":"America/Tegucigalpa"},"lat":15.35,"lng":-86.7,"population":1068},{"id":3603799,"name":"Petoa","timezone":{"dstOffset":-6,"gmtOffset":-6,"timeZoneId":"America/Tegucigalpa"},"lat":15.26667,"lng":-88.28333,"population":1067},{"id":3605873,"name":"Loma Alta","timezone":{"dstOffset":-6,"gmtOffset":-6,"timeZoneId":"America/Tegucigalpa"},"lat":15.39667,"lng":-88.55972,"population":1067},{"id":3602094,"name":"San José de Comayagua","timezone":{"dstOffset":-6,"gmtOffset":-6,"timeZoneId":"America/Tegucigalpa"},"lat":14.73333,"lng":-88.03333,"population":1066},{"id":3602286,"name":"San Francisco de Cones","timezone":{"dstOffset":-6,"gmtOffset":-6,"timeZoneId":"America/Tegucigalpa"},"lat":14.51667,"lng":-88.9,"population":1066},{"id":3601780,"name":"San Pedro Zacapa","timezone":{"dstOffset":-6,"gmtOffset":-6,"timeZoneId":"America/Tegucigalpa"},"lat":14.75,"lng":-88.11667,"population":1065},{"id":3614914,"name":"Baja Mar","timezone":{"dstOffset":-6,"gmtOffset":-6,"timeZoneId":"America/Tegucigalpa"},"lat":15.88333,"lng":-87.85,"population":1064},{"id":3608377,"name":"La Brea","timezone":{"dstOffset":-6,"gmtOffset":-6,"timeZoneId":"America/Tegucigalpa"},"lat":15.8,"lng":-85.96667,"population":1055},{"id":3602785,"name":"Río Bonito","timezone":{"dstOffset":-6,"gmtOffset":-6,"timeZoneId":"America/Tegucigalpa"},"lat":14.76667,"lng":-87.88333,"population":1054},{"id":3603224,"name":"Pueblo Nuevo","timezone":{"dstOffset":-6,"gmtOffset":-6,"timeZoneId":"America/Tegucigalpa"},"lat":15,"lng":-88.75,"population":1053},{"id":3601719,"name":"Santa Ana","timezone":{"dstOffset":-6,"gmtOffset":-6,"timeZoneId":"America/Tegucigalpa"},"lat":13.93167,"lng":-87.27139,"population":1052},{"id":3614789,"name":"Berlín","timezone":{"dstOffset":-6,"gmtOffset":-6,"timeZoneId":"America/Tegucigalpa"},"lat":14.83333,"lng":-88.5,"population":1050},{"id":3613281,"name":"Concepción del Sur","timezone":{"dstOffset":-6,"gmtOffset":-6,"timeZoneId":"America/Tegucigalpa"},"lat":14.8,"lng":-88.16667,"population":1049},{"id":3601992,"name":"San Juan de Planes","timezone":{"dstOffset":-6,"gmtOffset":-6,"timeZoneId":"America/Tegucigalpa"},"lat":14.93333,"lng":-88.78333,"population":1048},{"id":3602184,"name":"San Jerónimo","timezone":{"dstOffset":-6,"gmtOffset":-6,"timeZoneId":"America/Tegucigalpa"},"lat":14.96667,"lng":-88.86667,"population":1046},{"id":3600382,"name":"Veracruz","timezone":{"dstOffset":-6,"gmtOffset":-6,"timeZoneId":"America/Tegucigalpa"},"lat":14.91667,"lng":-88.78333,"population":1045},{"id":3615556,"name":"Agua Azul Rancho","timezone":{"dstOffset":-6,"gmtOffset":-6,"timeZoneId":"America/Tegucigalpa"},"lat":14.9,"lng":-87.95,"population":1043},{"id":3600997,"name":"Taragual","timezone":{"dstOffset":-6,"gmtOffset":-6,"timeZoneId":"America/Tegucigalpa"},"lat":14.75,"lng":-88.48333,"population":1043},{"id":3613906,"name":"Cedros","timezone":{"dstOffset":-6,"gmtOffset":-6,"timeZoneId":"America/Tegucigalpa"},"lat":14.6,"lng":-87.11667,"population":1041},{"id":3600906,"name":"Tepanguare","timezone":{"dstOffset":-6,"gmtOffset":-6,"timeZoneId":"America/Tegucigalpa"},"lat":14.33333,"lng":-87.75,"population":1040},{"id":3605491,"name":"Los Llanitos","timezone":{"dstOffset":-6,"gmtOffset":-6,"timeZoneId":"America/Tegucigalpa"},"lat":13.28694,"lng":-87.33444,"population":1040},{"id":3611995,"name":"El Corozal","timezone":{"dstOffset":-6,"gmtOffset":-6,"timeZoneId":"America/Tegucigalpa"},"lat":15.06667,"lng":-88.61667,"population":1039},{"id":3611069,"name":"El Ocotón","timezone":{"dstOffset":-6,"gmtOffset":-6,"timeZoneId":"America/Tegucigalpa"},"lat":15.03333,"lng":-88.88333,"population":1038},{"id":3614381,"name":"Callejones","timezone":{"dstOffset":-6,"gmtOffset":-6,"timeZoneId":"America/Tegucigalpa"},"lat":15.16667,"lng":-88.65,"population":1033},{"id":3602436,"name":"San Antonio de la Cuesta","timezone":{"dstOffset":-6,"gmtOffset":-6,"timeZoneId":"America/Tegucigalpa"},"lat":14.63333,"lng":-87.6,"population":1033},{"id":3601402,"name":"Savannah Bight","timezone":{"dstOffset":-6,"gmtOffset":-6,"timeZoneId":"America/Tegucigalpa"},"lat":16.45,"lng":-85.85,"population":1031},{"id":3614011,"name":"Casa Quemada","timezone":{"dstOffset":-6,"gmtOffset":-6,"timeZoneId":"America/Tegucigalpa"},"lat":15.26667,"lng":-88.55,"population":1030},{"id":3615582,"name":"Agalteca","timezone":{"dstOffset":-6,"gmtOffset":-6,"timeZoneId":"America/Tegucigalpa"},"lat":14.45,"lng":-87.26667,"population":1029},{"id":3611842,"name":"El Escaño de Tepale","timezone":{"dstOffset":-6,"gmtOffset":-6,"timeZoneId":"America/Tegucigalpa"},"lat":14.75,"lng":-87.06667,"population":1026},{"id":3602337,"name":"San Fernando","timezone":{"dstOffset":-6,"gmtOffset":-6,"timeZoneId":"America/Tegucigalpa"},"lat":14.68333,"lng":-89.11667,"population":1026},{"id":3610082,"name":"El Tránsito","timezone":{"dstOffset":-6,"gmtOffset":-6,"timeZoneId":"America/Tegucigalpa"},"lat":14.38333,"lng":-88.91667,"population":1025},{"id":3605950,"name":"Liure","timezone":{"dstOffset":-6,"gmtOffset":-6,"timeZoneId":"America/Tegucigalpa"},"lat":13.53583,"lng":-87.09194,"population":1022},{"id":3604911,"name":"Mateo","timezone":{"dstOffset":-6,"gmtOffset":-6,"timeZoneId":"America/Tegucigalpa"},"lat":14.08333,"lng":-87.31667,"population":1021},{"id":3613547,"name":"Chivana","timezone":{"dstOffset":-6,"gmtOffset":-6,"timeZoneId":"America/Tegucigalpa"},"lat":15.75,"lng":-87.98333,"population":1018},{"id":3612734,"name":"El Agua Dulcita","timezone":{"dstOffset":-6,"gmtOffset":-6,"timeZoneId":"America/Tegucigalpa"},"lat":14.7,"lng":-87.75,"population":1017},{"id":3610365,"name":"El Rusio","timezone":{"dstOffset":-6,"gmtOffset":-6,"timeZoneId":"America/Tegucigalpa"},"lat":14.46667,"lng":-86.36667,"population":1016},{"id":3613285,"name":"Concepción de la Barranca","timezone":{"dstOffset":-6,"gmtOffset":-6,"timeZoneId":"America/Tegucigalpa"},"lat":15.16667,"lng":-88.71667,"population":1014},{"id":3613371,"name":"Cololaca","timezone":{"dstOffset":-6,"gmtOffset":-6,"timeZoneId":"America/Tegucigalpa"},"lat":14.3,"lng":-88.88333,"population":1014},{"id":3812188,"name":"Texíguat","timezone":{"dstOffset":-6,"gmtOffset":-6,"timeZoneId":"America/Tegucigalpa"},"lat":13.64972,"lng":-87.0225,"population":1012},{"id":3602428,"name":"San Antonio del Norte","timezone":{"dstOffset":-6,"gmtOffset":-6,"timeZoneId":"America/Tegucigalpa"},"lat":13.88444,"lng":-87.70306,"population":1002},{"id":3608112,"name":"La Criba","timezone":{"dstOffset":-6,"gmtOffset":-6,"timeZoneId":"America/Tegucigalpa"},"lat":13.45361,"lng":-87.41333,"population":1001}]