[{"id":3718426,"name":"Port-au-Prince","timezone":{"dstOffset":-4,"gmtOffset":-5,"timeZoneId":"America/Port-au-Prince"},"lat":18.53917,"lng":-72.335,"population":1234742},{"id":3728338,"name":"Carrefour","timezone":{"dstOffset":-4,"gmtOffset":-5,"timeZoneId":"America/Port-au-Prince"},"lat":18.54114,"lng":-72.39922,"population":442156},{"id":3726786,"name":"Delmas 73","timezone":{"dstOffset":-4,"gmtOffset":-5,"timeZoneId":"America/Port-au-Prince"},"lat":18.54472,"lng":-72.30278,"population":382920},{"id":3719028,"name":"Pétionville","timezone":{"dstOffset":-4,"gmtOffset":-5,"timeZoneId":"America/Port-au-Prince"},"lat":18.5125,"lng":-72.28528,"population":283052},{"id":3718420,"name":"Port-de-Paix","timezone":{"dstOffset":-4,"gmtOffset":-5,"timeZoneId":"America/Port-au-Prince"},"lat":19.9389,"lng":-72.83257,"population":250000},{"id":3727135,"name":"Croix des Bouquets","timezone":{"dstOffset":-4,"gmtOffset":-5,"timeZoneId":"America/Port-au-Prince"},"lat":18.57512,"lng":-72.22302,"population":229127},{"id":3723779,"name":"Jacmel","timezone":{"dstOffset":-4,"gmtOffset":-5,"timeZoneId":"America/Port-au-Prince"},"lat":18.23427,"lng":-72.53539,"population":137966},{"id":3728474,"name":"Cap-Haïtien","timezone":{"dstOffset":-4,"gmtOffset":-5,"timeZoneId":"America/Port-au-Prince"},"lat":19.75938,"lng":-72.19815,"population":134815},{"id":3722286,"name":"Léogâne","timezone":{"dstOffset":-4,"gmtOffset":-5,"timeZoneId":"America/Port-au-Prince"},"lat":18.50959,"lng":-72.63147,"population":134190},{"id":3728097,"name":"Les Cayes","timezone":{"dstOffset":-4,"gmtOffset":-5,"timeZoneId":"America/Port-au-Prince"},"lat":18.19331,"lng":-73.74601,"population":125799},{"id":3718962,"name":"Tigwav","timezone":{"dstOffset":-4,"gmtOffset":-5,"timeZoneId":"America/Port-au-Prince"},"lat":18.4294,"lng":-72.86297,"population":117504},{"id":3723593,"name":"Jérémie","timezone":{"dstOffset":-4,"gmtOffset":-5,"timeZoneId":"America/Port-au-Prince"},"lat":18.65,"lng":-74.11667,"population":97503},{"id":3720824,"name":"Miragoâne","timezone":{"dstOffset":-4,"gmtOffset":-5,"timeZoneId":"America/Port-au-Prince"},"lat":18.44232,"lng":-73.08758,"population":89202},{"id":3724696,"name":"Gonaïves","timezone":{"dstOffset":-4,"gmtOffset":-5,"timeZoneId":"America/Port-au-Prince"},"lat":19.44749,"lng":-72.68903,"population":84961},{"id":3717588,"name":"Saint-Marc","timezone":{"dstOffset":-4,"gmtOffset":-5,"timeZoneId":"America/Port-au-Prince"},"lat":19.10819,"lng":-72.69379,"population":66226},{"id":3716667,"name":"Thomazeau","timezone":{"dstOffset":-4,"gmtOffset":-5,"timeZoneId":"America/Port-au-Prince"},"lat":18.65094,"lng":-72.09191,"population":52017},{"id":3724337,"name":"Grangwav","timezone":{"dstOffset":-4,"gmtOffset":-5,"timeZoneId":"America/Port-au-Prince"},"lat":18.4262,"lng":-72.76653,"population":49288},{"id":3716044,"name":"Verrettes","timezone":{"dstOffset":-4,"gmtOffset":-5,"timeZoneId":"America/Port-au-Prince"},"lat":19.05043,"lng":-72.46172,"population":48724},{"id":3723440,"name":"Kenscoff","timezone":{"dstOffset":-4,"gmtOffset":-5,"timeZoneId":"America/Port-au-Prince"},"lat":18.44773,"lng":-72.28485,"population":42175},{"id":3717546,"name":"Saint-Raphaël","timezone":{"dstOffset":-4,"gmtOffset":-5,"timeZoneId":"America/Port-au-Prince"},"lat":19.43799,"lng":-72.19794,"population":37739},{"id":3740016,"name":"Ti Port-de-Paix","timezone":{"dstOffset":-4,"gmtOffset":-5,"timeZoneId":"America/Port-au-Prince"},"lat":19.93333,"lng":-72.83333,"population":34657},{"id":3722124,"name":"Lenbe","timezone":{"dstOffset":-4,"gmtOffset":-5,"timeZoneId":"America/Port-au-Prince"},"lat":19.70409,"lng":-72.40027,"population":32645},{"id":3724233,"name":"Gressier","timezone":{"dstOffset":-4,"gmtOffset":-5,"timeZoneId":"America/Port-au-Prince"},"lat":18.55,"lng":-72.51667,"population":25947},{"id":3723841,"name":"Hinche","timezone":{"dstOffset":-4,"gmtOffset":-5,"timeZoneId":"America/Port-au-Prince"},"lat":19.15,"lng":-72.01667,"population":18590},{"id":3725276,"name":"Fond Parisien","timezone":{"dstOffset":-4,"gmtOffset":-5,"timeZoneId":"America/Port-au-Prince"},"lat":18.50583,"lng":-71.97667,"population":18256},{"id":3726674,"name":"Désarmes","timezone":{"dstOffset":-4,"gmtOffset":-5,"timeZoneId":"America/Port-au-Prince"},"lat":18.9916,"lng":-72.38528,"population":15594},{"id":3726540,"name":"Dessalines","timezone":{"dstOffset":-4,"gmtOffset":-5,"timeZoneId":"America/Port-au-Prince"},"lat":19.26163,"lng":-72.51349,"population":12288},{"id":3717600,"name":"Saint-Louis du Nord","timezone":{"dstOffset":-4,"gmtOffset":-5,"timeZoneId":"America/Port-au-Prince"},"lat":19.93264,"lng":-72.72167,"population":11849},{"id":3725170,"name":"Fort Liberté","timezone":{"dstOffset":-4,"gmtOffset":-5,"timeZoneId":"America/Port-au-Prince"},"lat":19.66273,"lng":-71.83798,"population":11465},{"id":3716224,"name":"Trou du Nord","timezone":{"dstOffset":-4,"gmtOffset":-5,"timeZoneId":"America/Port-au-Prince"},"lat":19.61448,"lng":-72.02076,"population":10569},{"id":3719436,"name":"Ouanaminthe","timezone":{"dstOffset":-4,"gmtOffset":-5,"timeZoneId":"America/Port-au-Prince"},"lat":19.54807,"lng":-71.72397,"population":10118},{"id":3720811,"name":"Mirebalais","timezone":{"dstOffset":-4,"gmtOffset":-5,"timeZoneId":"America/Port-au-Prince"},"lat":18.83333,"lng":-72.10528,"population":9082},{"id":3724439,"name":"Grande Rivière du Nord","timezone":{"dstOffset":-4,"gmtOffset":-5,"timeZoneId":"America/Port-au-Prince"},"lat":19.57648,"lng":-72.16576,"population":8836},{"id":3722253,"name":"Les Anglais","timezone":{"dstOffset":-4,"gmtOffset":-5,"timeZoneId":"America/Port-au-Prince"},"lat":18.3054,"lng":-74.21968,"population":8247},{"id":3722579,"name":"Lascahobas","timezone":{"dstOffset":-4,"gmtOffset":-5,"timeZoneId":"America/Port-au-Prince"},"lat":18.82902,"lng":-71.93299,"population":7574},{"id":3727327,"name":"Cornillon","timezone":{"dstOffset":-4,"gmtOffset":-5,"timeZoneId":"America/Port-au-Prince"},"lat":18.67429,"lng":-71.9515,"population":7572},{"id":3724145,"name":"Gros Morne","timezone":{"dstOffset":-4,"gmtOffset":-5,"timeZoneId":"America/Port-au-Prince"},"lat":19.66825,"lng":-72.67761,"population":7294},{"id":3731132,"name":"Anse à Galets","timezone":{"dstOffset":-4,"gmtOffset":-5,"timeZoneId":"America/Port-au-Prince"},"lat":18.83104,"lng":-72.86077,"population":7178},{"id":3718834,"name":"Pignon","timezone":{"dstOffset":-4,"gmtOffset":-5,"timeZoneId":"America/Port-au-Prince"},"lat":19.33512,"lng":-72.11252,"population":6731},{"id":3727055,"name":"Dame-Marie","timezone":{"dstOffset":-4,"gmtOffset":-5,"timeZoneId":"America/Port-au-Prince"},"lat":18.56107,"lng":-74.42167,"population":6036},{"id":3720854,"name":"Milot","timezone":{"dstOffset":-4,"gmtOffset":-5,"timeZoneId":"America/Port-au-Prince"},"lat":19.6057,"lng":-72.20989,"population":5534},{"id":3723618,"name":"Jean-Rabel","timezone":{"dstOffset":-4,"gmtOffset":-5,"timeZoneId":"America/Port-au-Prince"},"lat":19.85333,"lng":-73.19167,"population":5419},{"id":3731095,"name":"Aquin","timezone":{"dstOffset":-4,"gmtOffset":-5,"timeZoneId":"America/Port-au-Prince"},"lat":18.28333,"lng":-73.4,"population":5246},{"id":3721711,"name":"Mayisad","timezone":{"dstOffset":-4,"gmtOffset":-5,"timeZoneId":"America/Port-au-Prince"},"lat":19.17334,"lng":-72.13456,"population":5204},{"id":3726263,"name":"Dondon","timezone":{"dstOffset":-4,"gmtOffset":-5,"timeZoneId":"America/Port-au-Prince"},"lat":19.5262,"lng":-72.24032,"population":5029},{"id":3716669,"name":"Thomassique","timezone":{"dstOffset":-4,"gmtOffset":-5,"timeZoneId":"America/Port-au-Prince"},"lat":19.08058,"lng":-71.83887,"population":4857},{"id":3731105,"name":"Anse Rouge","timezone":{"dstOffset":-4,"gmtOffset":-5,"timeZoneId":"America/Port-au-Prince"},"lat":19.63314,"lng":-73.05573,"population":4437},{"id":3722339,"name":"Le Borgne","timezone":{"dstOffset":-4,"gmtOffset":-5,"timeZoneId":"America/Port-au-Prince"},"lat":19.84187,"lng":-72.5206,"population":4288},{"id":3718826,"name":"Pilate","timezone":{"dstOffset":-4,"gmtOffset":-5,"timeZoneId":"America/Port-au-Prince"},"lat":19.66667,"lng":-72.55,"population":4227},{"id":3718666,"name":"Plaisance","timezone":{"dstOffset":-4,"gmtOffset":-5,"timeZoneId":"America/Port-au-Prince"},"lat":19.5969,"lng":-72.46477,"population":4152},{"id":3731087,"name":"Arcahaie","timezone":{"dstOffset":-4,"gmtOffset":-5,"timeZoneId":"America/Port-au-Prince"},"lat":19.81667,"lng":-72.91667,"population":4119},{"id":3728964,"name":"Cabaret","timezone":{"dstOffset":-4,"gmtOffset":-5,"timeZoneId":"America/Port-au-Prince"},"lat":18.73583,"lng":-72.4175,"population":3951},{"id":3727902,"name":"Chardonnière","timezone":{"dstOffset":-4,"gmtOffset":-5,"timeZoneId":"America/Port-au-Prince"},"lat":18.27484,"lng":-74.16613,"population":3930},{"id":3718431,"name":"Port-à-Piment","timezone":{"dstOffset":-4,"gmtOffset":-5,"timeZoneId":"America/Port-au-Prince"},"lat":18.24963,"lng":-74.0971,"population":3819},{"id":3722110,"name":"Limonade","timezone":{"dstOffset":-4,"gmtOffset":-5,"timeZoneId":"America/Port-au-Prince"},"lat":19.66775,"lng":-72.12284,"population":3810},{"id":3725519,"name":"Ferrier","timezone":{"dstOffset":-4,"gmtOffset":-5,"timeZoneId":"America/Port-au-Prince"},"lat":19.6141,"lng":-71.77785,"population":3804},{"id":3716663,"name":"Thomonde","timezone":{"dstOffset":-4,"gmtOffset":-5,"timeZoneId":"America/Port-au-Prince"},"lat":19.01568,"lng":-71.96076,"population":3696},{"id":3731233,"name":"Acul du Nord","timezone":{"dstOffset":-4,"gmtOffset":-5,"timeZoneId":"America/Port-au-Prince"},"lat":19.67804,"lng":-72.31763,"population":3454},{"id":3720765,"name":"Môle Saint-Nicolas","timezone":{"dstOffset":-4,"gmtOffset":-5,"timeZoneId":"America/Port-au-Prince"},"lat":19.807,"lng":-73.37605,"population":3224},{"id":3718411,"name":"Port Margot","timezone":{"dstOffset":-4,"gmtOffset":-5,"timeZoneId":"America/Port-au-Prince"},"lat":19.751,"lng":-72.42787,"population":3070},{"id":3716619,"name":"Tiburon","timezone":{"dstOffset":-4,"gmtOffset":-5,"timeZoneId":"America/Port-au-Prince"},"lat":18.32589,"lng":-74.39598,"population":3054},{"id":3728054,"name":"Cerca la Source","timezone":{"dstOffset":-4,"gmtOffset":-5,"timeZoneId":"America/Port-au-Prince"},"lat":19.16271,"lng":-71.7904,"population":2792},{"id":3725222,"name":"Fond Verrettes","timezone":{"dstOffset":-4,"gmtOffset":-5,"timeZoneId":"America/Port-au-Prince"},"lat":18.39248,"lng":-71.85447,"population":2789},{"id":3727398,"name":"Corail","timezone":{"dstOffset":-4,"gmtOffset":-5,"timeZoneId":"America/Port-au-Prince"},"lat":18.56585,"lng":-73.89464,"population":2782},{"id":3725364,"name":"Fond des Blancs","timezone":{"dstOffset":-4,"gmtOffset":-5,"timeZoneId":"America/Port-au-Prince"},"lat":18.28194,"lng":-73.13218,"population":2653},{"id":3730363,"name":"Belle-Anse","timezone":{"dstOffset":-4,"gmtOffset":-5,"timeZoneId":"America/Port-au-Prince"},"lat":18.23801,"lng":-72.062,"population":2611},{"id":3718707,"name":"Plaine du Nord","timezone":{"dstOffset":-4,"gmtOffset":-5,"timeZoneId":"America/Port-au-Prince"},"lat":19.67477,"lng":-72.26761,"population":2492},{"id":3716679,"name":"Thiote","timezone":{"dstOffset":-4,"gmtOffset":-5,"timeZoneId":"America/Port-au-Prince"},"lat":18.24147,"lng":-71.84077,"population":2461},{"id":3727287,"name":"Côtes-de-Fer","timezone":{"dstOffset":-4,"gmtOffset":-5,"timeZoneId":"America/Port-au-Prince"},"lat":18.18847,"lng":-73.00203,"population":2393},{"id":3718924,"name":"Phaéton","timezone":{"dstOffset":-4,"gmtOffset":-5,"timeZoneId":"America/Port-au-Prince"},"lat":19.67417,"lng":-71.89722,"population":2297},{"id":3722239,"name":"Les Irois","timezone":{"dstOffset":-4,"gmtOffset":-5,"timeZoneId":"America/Port-au-Prince"},"lat":18.4049,"lng":-74.4528,"population":2265},{"id":3721280,"name":"Marmelade","timezone":{"dstOffset":-4,"gmtOffset":-5,"timeZoneId":"America/Port-au-Prince"},"lat":19.51602,"lng":-72.35871,"population":2184},{"id":3718938,"name":"Petit Trou de Nippes","timezone":{"dstOffset":-4,"gmtOffset":-5,"timeZoneId":"America/Port-au-Prince"},"lat":18.52535,"lng":-73.50815,"population":2130},{"id":3728386,"name":"Carice","timezone":{"dstOffset":-4,"gmtOffset":-5,"timeZoneId":"America/Port-au-Prince"},"lat":19.37587,"lng":-71.83128,"population":2104},{"id":3720667,"name":"Mont Organisé","timezone":{"dstOffset":-4,"gmtOffset":-5,"timeZoneId":"America/Port-au-Prince"},"lat":19.40658,"lng":-71.78076,"population":2104},{"id":3727297,"name":"Coteaux","timezone":{"dstOffset":-4,"gmtOffset":-5,"timeZoneId":"America/Port-au-Prince"},"lat":18.20599,"lng":-74.03954,"population":2065},{"id":3729548,"name":"Bombardopolis","timezone":{"dstOffset":-4,"gmtOffset":-5,"timeZoneId":"America/Port-au-Prince"},"lat":19.69312,"lng":-73.33296,"population":1974},{"id":3716403,"name":"Torbeck","timezone":{"dstOffset":-4,"gmtOffset":-5,"timeZoneId":"America/Port-au-Prince"},"lat":18.16667,"lng":-73.81194,"population":1918},{"id":3719099,"name":"Perches","timezone":{"dstOffset":-4,"gmtOffset":-5,"timeZoneId":"America/Port-au-Prince"},"lat":19.5206,"lng":-71.92054,"population":1889},{"id":3726728,"name":"Dérac","timezone":{"dstOffset":-4,"gmtOffset":-5,"timeZoneId":"America/Port-au-Prince"},"lat":19.65,"lng":-71.81667,"population":1855},{"id":3727944,"name":"Chantal","timezone":{"dstOffset":-4,"gmtOffset":-5,"timeZoneId":"America/Port-au-Prince"},"lat":18.2011,"lng":-73.88948,"population":1848},{"id":3720455,"name":"Moron","timezone":{"dstOffset":-4,"gmtOffset":-5,"timeZoneId":"America/Port-au-Prince"},"lat":18.55757,"lng":-74.25765,"population":1830},{"id":3718975,"name":"Petite Rivière de Nippes","timezone":{"dstOffset":-4,"gmtOffset":-5,"timeZoneId":"America/Port-au-Prince"},"lat":18.47611,"lng":-73.23495,"population":1794},{"id":3724432,"name":"Grande Saline","timezone":{"dstOffset":-4,"gmtOffset":-5,"timeZoneId":"America/Port-au-Prince"},"lat":19.26513,"lng":-72.76897,"population":1787},{"id":3731126,"name":"Anse-à-Pitre","timezone":{"dstOffset":-4,"gmtOffset":-5,"timeZoneId":"America/Port-au-Prince"},"lat":18.05,"lng":-71.75,"population":1736},{"id":3731123,"name":"Anse-à-Veau","timezone":{"dstOffset":-4,"gmtOffset":-5,"timeZoneId":"America/Port-au-Prince"},"lat":18.5011,"lng":-73.3449,"population":1731},{"id":3721313,"name":"Marigot","timezone":{"dstOffset":-4,"gmtOffset":-5,"timeZoneId":"America/Port-au-Prince"},"lat":18.23231,"lng":-72.31428,"population":1698},{"id":3730800,"name":"Baradères","timezone":{"dstOffset":-4,"gmtOffset":-5,"timeZoneId":"America/Port-au-Prince"},"lat":18.48041,"lng":-73.63759,"population":1666},{"id":3717916,"name":"Roche-à-Bateau","timezone":{"dstOffset":-4,"gmtOffset":-5,"timeZoneId":"America/Port-au-Prince"},"lat":18.18095,"lng":-74.00104,"population":1662},{"id":3730932,"name":"Baie de Henne","timezone":{"dstOffset":-4,"gmtOffset":-5,"timeZoneId":"America/Port-au-Prince"},"lat":19.6657,"lng":-73.20888,"population":1660},{"id":3730937,"name":"Bahon","timezone":{"dstOffset":-4,"gmtOffset":-5,"timeZoneId":"America/Port-au-Prince"},"lat":19.46667,"lng":-72.11667,"population":1618},{"id":3728093,"name":"Cayes Jacmel","timezone":{"dstOffset":-4,"gmtOffset":-5,"timeZoneId":"America/Port-au-Prince"},"lat":18.23073,"lng":-72.39417,"population":1609},{"id":3728428,"name":"Caracol","timezone":{"dstOffset":-4,"gmtOffset":-5,"timeZoneId":"America/Port-au-Prince"},"lat":19.68925,"lng":-72.01422,"population":1549},{"id":3719008,"name":"Petite Anse","timezone":{"dstOffset":-4,"gmtOffset":-5,"timeZoneId":"America/Port-au-Prince"},"lat":19.62972,"lng":-73.15444,"population":1539},{"id":3717596,"name":"Saint-Louis du Sud","timezone":{"dstOffset":-4,"gmtOffset":-5,"timeZoneId":"America/Port-au-Prince"},"lat":18.26323,"lng":-73.54502,"population":1528},{"id":3725663,"name":"Ennery","timezone":{"dstOffset":-4,"gmtOffset":-5,"timeZoneId":"America/Port-au-Prince"},"lat":19.48333,"lng":-72.48333,"population":1511},{"id":3727984,"name":"Chambellan","timezone":{"dstOffset":-4,"gmtOffset":-5,"timeZoneId":"America/Port-au-Prince"},"lat":18.56667,"lng":-74.31667,"population":1397},{"id":3718199,"name":"Ranquitte","timezone":{"dstOffset":-4,"gmtOffset":-5,"timeZoneId":"America/Port-au-Prince"},"lat":19.41667,"lng":-72.08333,"population":1391},{"id":3718278,"name":"Quartier Morin","timezone":{"dstOffset":-4,"gmtOffset":-5,"timeZoneId":"America/Port-au-Prince"},"lat":19.69667,"lng":-72.15694,"population":1299},{"id":3731257,"name":"Abricots","timezone":{"dstOffset":-4,"gmtOffset":-5,"timeZoneId":"America/Port-au-Prince"},"lat":18.63125,"lng":-74.3417,"population":1245},{"id":3725416,"name":"Fond Bassin Bleu","timezone":{"dstOffset":-4,"gmtOffset":-5,"timeZoneId":"America/Port-au-Prince"},"lat":19.8,"lng":-72.8,"population":1184},{"id":3728122,"name":"Cavaillon","timezone":{"dstOffset":-4,"gmtOffset":-5,"timeZoneId":"America/Port-au-Prince"},"lat":18.29928,"lng":-73.65551,"population":1023}]