[{"id":593116,"name":"Vilnius","timezone":{"dstOffset":3,"gmtOffset":2,"timeZoneId":"Europe/Vilnius"},"lat":54.68916,"lng":25.2798,"population":542366},{"id":598316,"name":"Kaunas","timezone":{"dstOffset":3,"gmtOffset":2,"timeZoneId":"Europe/Vilnius"},"lat":54.9,"lng":23.9,"population":374643},{"id":598098,"name":"Klaipėda","timezone":{"dstOffset":3,"gmtOffset":2,"timeZoneId":"Europe/Vilnius"},"lat":55.71722,"lng":21.1175,"population":192307},{"id":594739,"name":"Šiauliai","timezone":{"dstOffset":3,"gmtOffset":2,"timeZoneId":"Europe/Vilnius"},"lat":55.93333,"lng":23.31667,"population":130587},{"id":596128,"name":"Panevezys","timezone":{"dstOffset":3,"gmtOffset":2,"timeZoneId":"Europe/Vilnius"},"lat":55.73333,"lng":24.35,"population":117395},{"id":601084,"name":"Alytus","timezone":{"dstOffset":3,"gmtOffset":2,"timeZoneId":"Europe/Vilnius"},"lat":54.4,"lng":24.05,"population":70747},{"id":6618486,"name":"Dainava (Kaunas)","timezone":{"dstOffset":3,"gmtOffset":2,"timeZoneId":"Europe/Vilnius"},"lat":54.91525,"lng":23.96831,"population":70000},{"id":9610008,"name":"Eiguliai","timezone":{"dstOffset":3,"gmtOffset":2,"timeZoneId":"Europe/Vilnius"},"lat":54.93133,"lng":23.93243,"population":61700},{"id":597231,"name":"Marijampolė","timezone":{"dstOffset":3,"gmtOffset":2,"timeZoneId":"Europe/Vilnius"},"lat":54.56667,"lng":23.35,"population":47613},{"id":597188,"name":"Mažeikiai","timezone":{"dstOffset":3,"gmtOffset":2,"timeZoneId":"Europe/Vilnius"},"lat":56.31667,"lng":22.33333,"population":41309},{"id":9610004,"name":"Šilainiai","timezone":{"dstOffset":3,"gmtOffset":2,"timeZoneId":"Europe/Vilnius"},"lat":54.92911,"lng":23.88599,"population":40600},{"id":596479,"name":"Fabijoniškės","timezone":{"dstOffset":3,"gmtOffset":2,"timeZoneId":"Europe/Vilnius"},"lat":54.73333,"lng":25.24167,"population":39759},{"id":598818,"name":"Jonava","timezone":{"dstOffset":3,"gmtOffset":2,"timeZoneId":"Europe/Vilnius"},"lat":55.08333,"lng":24.28333,"population":34993},{"id":593672,"name":"Utena","timezone":{"dstOffset":3,"gmtOffset":2,"timeZoneId":"Europe/Vilnius"},"lat":55.5,"lng":25.6,"population":33240},{"id":10062599,"name":"Pašilaičiai","timezone":{"dstOffset":3,"gmtOffset":2,"timeZoneId":"Europe/Vilnius"},"lat":54.73429,"lng":25.21912,"population":33056},{"id":598272,"name":"Kėdainiai","timezone":{"dstOffset":3,"gmtOffset":2,"timeZoneId":"Europe/Vilnius"},"lat":55.28833,"lng":23.97472,"population":31980},{"id":10062602,"name":"Šeškinė","timezone":{"dstOffset":3,"gmtOffset":2,"timeZoneId":"Europe/Vilnius"},"lat":54.70972,"lng":25.25053,"population":31333},{"id":10062605,"name":"Lazdynai","timezone":{"dstOffset":3,"gmtOffset":2,"timeZoneId":"Europe/Vilnius"},"lat":54.66815,"lng":25.20684,"population":31097},{"id":593926,"name":"Telšiai","timezone":{"dstOffset":3,"gmtOffset":2,"timeZoneId":"Europe/Vilnius"},"lat":55.98139,"lng":22.24722,"population":30098},{"id":593063,"name":"Visaginas","timezone":{"dstOffset":3,"gmtOffset":2,"timeZoneId":"Europe/Vilnius"},"lat":55.6,"lng":26.41667,"population":28348},{"id":593959,"name":"Tauragė","timezone":{"dstOffset":3,"gmtOffset":2,"timeZoneId":"Europe/Vilnius"},"lat":55.25222,"lng":22.28972,"population":27662},{"id":10062601,"name":"Justiniškės","timezone":{"dstOffset":3,"gmtOffset":2,"timeZoneId":"Europe/Vilnius"},"lat":54.71664,"lng":25.2174,"population":27462},{"id":593733,"name":"Ukmerge","timezone":{"dstOffset":3,"gmtOffset":2,"timeZoneId":"Europe/Vilnius"},"lat":55.25,"lng":24.75,"population":25886},{"id":601138,"name":"Aleksotas","timezone":{"dstOffset":3,"gmtOffset":2,"timeZoneId":"Europe/Vilnius"},"lat":54.88333,"lng":23.9,"population":24270},{"id":595689,"name":"Plungė","timezone":{"dstOffset":3,"gmtOffset":2,"timeZoneId":"Europe/Vilnius"},"lat":55.91139,"lng":21.84417,"population":23381},{"id":10062607,"name":"Naujamiestis","timezone":{"dstOffset":3,"gmtOffset":2,"timeZoneId":"Europe/Vilnius"},"lat":54.67951,"lng":25.26855,"population":23232},{"id":597989,"name":"Kretinga","timezone":{"dstOffset":3,"gmtOffset":2,"timeZoneId":"Europe/Vilnius"},"lat":55.87583,"lng":21.25083,"population":22236},{"id":594656,"name":"Šilutė","timezone":{"dstOffset":3,"gmtOffset":2,"timeZoneId":"Europe/Vilnius"},"lat":55.34889,"lng":21.48306,"population":21760},{"id":10062606,"name":"Vilkpėdė","timezone":{"dstOffset":3,"gmtOffset":2,"timeZoneId":"Europe/Vilnius"},"lat":54.66969,"lng":25.2477,"population":21346},{"id":595449,"name":"Radviliškis","timezone":{"dstOffset":3,"gmtOffset":2,"timeZoneId":"Europe/Vilnius"},"lat":55.81667,"lng":23.53333,"population":20339},{"id":10062600,"name":"Pilaitė","timezone":{"dstOffset":3,"gmtOffset":2,"timeZoneId":"Europe/Vilnius"},"lat":54.69981,"lng":25.18393,"population":20320},{"id":596238,"name":"Palanga","timezone":{"dstOffset":3,"gmtOffset":2,"timeZoneId":"Europe/Vilnius"},"lat":55.9175,"lng":21.06861,"population":17796},{"id":599757,"name":"Druskininkai","timezone":{"dstOffset":3,"gmtOffset":2,"timeZoneId":"Europe/Vilnius"},"lat":54.01667,"lng":23.96667,"population":17791},{"id":599506,"name":"Gargždai","timezone":{"dstOffset":3,"gmtOffset":2,"timeZoneId":"Europe/Vilnius"},"lat":55.71278,"lng":21.40333,"population":16433},{"id":595213,"name":"Rokiškis","timezone":{"dstOffset":3,"gmtOffset":2,"timeZoneId":"Europe/Vilnius"},"lat":55.96667,"lng":25.58333,"population":16255},{"id":600438,"name":"Biržai","timezone":{"dstOffset":3,"gmtOffset":2,"timeZoneId":"Europe/Vilnius"},"lat":56.2,"lng":24.75,"population":14911},{"id":597769,"name":"Kuršėnai","timezone":{"dstOffset":3,"gmtOffset":2,"timeZoneId":"Europe/Vilnius"},"lat":55.985,"lng":22.91889,"population":13914},{"id":599504,"name":"Garliava","timezone":{"dstOffset":3,"gmtOffset":2,"timeZoneId":"Europe/Vilnius"},"lat":54.81667,"lng":23.86667,"population":13809},{"id":599602,"name":"Elektrėnai","timezone":{"dstOffset":3,"gmtOffset":2,"timeZoneId":"Europe/Vilnius"},"lat":54.78544,"lng":24.66302,"population":13721},{"id":598655,"name":"Jurbarkas","timezone":{"dstOffset":3,"gmtOffset":2,"timeZoneId":"Europe/Vilnius"},"lat":55.07778,"lng":22.76639,"population":13102},{"id":593153,"name":"Vilkaviškis","timezone":{"dstOffset":3,"gmtOffset":2,"timeZoneId":"Europe/Vilnius"},"lat":54.65167,"lng":23.03222,"population":13011},{"id":595378,"name":"Raseiniai","timezone":{"dstOffset":3,"gmtOffset":2,"timeZoneId":"Europe/Vilnius"},"lat":55.37361,"lng":23.12167,"population":12523},{"id":600994,"name":"Anykščiai","timezone":{"dstOffset":3,"gmtOffset":2,"timeZoneId":"Europe/Vilnius"},"lat":55.52557,"lng":25.10264,"population":11958},{"id":596719,"name":"Naujoji Akmenė","timezone":{"dstOffset":3,"gmtOffset":2,"timeZoneId":"Europe/Vilnius"},"lat":56.31667,"lng":22.9,"population":11922},{"id":597532,"name":"Lentvaris","timezone":{"dstOffset":3,"gmtOffset":2,"timeZoneId":"Europe/Vilnius"},"lat":54.65,"lng":25.05,"population":11588},{"id":599161,"name":"Grigiškės","timezone":{"dstOffset":3,"gmtOffset":2,"timeZoneId":"Europe/Vilnius"},"lat":54.68333,"lng":25.08333,"population":11555},{"id":595596,"name":"Prienai","timezone":{"dstOffset":3,"gmtOffset":2,"timeZoneId":"Europe/Vilnius"},"lat":54.63333,"lng":23.95,"population":11352},{"id":598796,"name":"Joniškis","timezone":{"dstOffset":3,"gmtOffset":2,"timeZoneId":"Europe/Vilnius"},"lat":56.24028,"lng":23.61528,"population":11113},{"id":598257,"name":"Kelmė","timezone":{"dstOffset":3,"gmtOffset":2,"timeZoneId":"Europe/Vilnius"},"lat":55.63389,"lng":22.93417,"population":10626},{"id":10062609,"name":"Rasos","timezone":{"dstOffset":3,"gmtOffset":2,"timeZoneId":"Europe/Vilnius"},"lat":54.67877,"lng":25.31173,"population":10597},{"id":593406,"name":"Varėna","timezone":{"dstOffset":3,"gmtOffset":2,"timeZoneId":"Europe/Vilnius"},"lat":54.21667,"lng":24.56667,"population":10304},{"id":598567,"name":"Kaišiadorys","timezone":{"dstOffset":3,"gmtOffset":2,"timeZoneId":"Europe/Vilnius"},"lat":54.86667,"lng":24.45,"population":9867},{"id":595997,"name":"Pasvalys","timezone":{"dstOffset":3,"gmtOffset":2,"timeZoneId":"Europe/Vilnius"},"lat":56.05944,"lng":24.40361,"population":8510},{"id":597806,"name":"Kupiškis","timezone":{"dstOffset":3,"gmtOffset":2,"timeZoneId":"Europe/Vilnius"},"lat":55.83333,"lng":24.96667,"population":8263},{"id":592891,"name":"Zarasai","timezone":{"dstOffset":3,"gmtOffset":2,"timeZoneId":"Europe/Vilnius"},"lat":55.73333,"lng":26.25,"population":8095},{"id":594488,"name":"Skuodas","timezone":{"dstOffset":3,"gmtOffset":2,"timeZoneId":"Europe/Vilnius"},"lat":56.26667,"lng":21.53333,"population":7726},{"id":594607,"name":"Širvintos","timezone":{"dstOffset":3,"gmtOffset":2,"timeZoneId":"Europe/Vilnius"},"lat":55.05,"lng":24.95,"population":7321},{"id":598286,"name":"Kazlų Rūda","timezone":{"dstOffset":3,"gmtOffset":2,"timeZoneId":"Europe/Vilnius"},"lat":54.76667,"lng":23.5,"population":7247},{"id":596867,"name":"Molėtai","timezone":{"dstOffset":3,"gmtOffset":2,"timeZoneId":"Europe/Vilnius"},"lat":55.23333,"lng":25.41667,"population":7243},{"id":595016,"name":"Šalčininkai","timezone":{"dstOffset":3,"gmtOffset":2,"timeZoneId":"Europe/Vilnius"},"lat":54.3,"lng":25.38333,"population":6891},{"id":594067,"name":"Švenčionėliai","timezone":{"dstOffset":3,"gmtOffset":2,"timeZoneId":"Europe/Vilnius"},"lat":55.16667,"lng":26,"population":6790},{"id":595044,"name":"Šakiai","timezone":{"dstOffset":3,"gmtOffset":2,"timeZoneId":"Europe/Vilnius"},"lat":54.95472,"lng":23.03583,"population":6613},{"id":598998,"name":"Ignalina","timezone":{"dstOffset":3,"gmtOffset":2,"timeZoneId":"Europe/Vilnius"},"lat":55.35,"lng":26.16667,"population":6421},{"id":596473,"name":"Pabradė","timezone":{"dstOffset":3,"gmtOffset":2,"timeZoneId":"Europe/Vilnius"},"lat":55,"lng":25.78333,"population":6375},{"id":597729,"name":"Kybartai","timezone":{"dstOffset":3,"gmtOffset":2,"timeZoneId":"Europe/Vilnius"},"lat":54.63858,"lng":22.76316,"population":6355},{"id":596664,"name":"Nemenčinė","timezone":{"dstOffset":3,"gmtOffset":2,"timeZoneId":"Europe/Vilnius"},"lat":54.85,"lng":25.48333,"population":6062},{"id":594693,"name":"Šilalė","timezone":{"dstOffset":3,"gmtOffset":2,"timeZoneId":"Europe/Vilnius"},"lat":55.49056,"lng":22.18139,"population":6026},{"id":596260,"name":"Pakruojis","timezone":{"dstOffset":3,"gmtOffset":2,"timeZoneId":"Europe/Vilnius"},"lat":55.96667,"lng":23.86667,"population":5964},{"id":594064,"name":"Švenčionys","timezone":{"dstOffset":3,"gmtOffset":2,"timeZoneId":"Europe/Vilnius"},"lat":55.15,"lng":26.16667,"population":5538},{"id":593871,"name":"Trakai","timezone":{"dstOffset":3,"gmtOffset":2,"timeZoneId":"Europe/Vilnius"},"lat":54.63333,"lng":24.93333,"population":5530},{"id":593191,"name":"Vievis","timezone":{"dstOffset":3,"gmtOffset":2,"timeZoneId":"Europe/Vilnius"},"lat":54.76667,"lng":24.8,"population":5269},{"id":597596,"name":"Lazdijai","timezone":{"dstOffset":3,"gmtOffset":2,"timeZoneId":"Europe/Vilnius"},"lat":54.23333,"lng":23.51667,"population":4975},{"id":598512,"name":"Kalvarija","timezone":{"dstOffset":3,"gmtOffset":2,"timeZoneId":"Europe/Vilnius"},"lat":54.4,"lng":23.23333,"population":4875},{"id":594585,"name":"Skaidiškės","timezone":{"dstOffset":3,"gmtOffset":2,"timeZoneId":"Europe/Vilnius"},"lat":54.61667,"lng":25.38333,"population":4457},{"id":592778,"name":"Žiežmariai","timezone":{"dstOffset":3,"gmtOffset":2,"timeZoneId":"Europe/Vilnius"},"lat":54.8,"lng":24.45,"population":4060},{"id":599614,"name":"Eišiškės","timezone":{"dstOffset":3,"gmtOffset":2,"timeZoneId":"Europe/Vilnius"},"lat":54.16667,"lng":25,"population":3809},{"id":595284,"name":"Rietavas","timezone":{"dstOffset":3,"gmtOffset":2,"timeZoneId":"Europe/Vilnius"},"lat":55.71944,"lng":21.93111,"population":3737},{"id":600962,"name":"Ariogala","timezone":{"dstOffset":3,"gmtOffset":2,"timeZoneId":"Europe/Vilnius"},"lat":55.26667,"lng":23.46667,"population":3653},{"id":594861,"name":"Šeduva","timezone":{"dstOffset":3,"gmtOffset":2,"timeZoneId":"Europe/Vilnius"},"lat":55.76667,"lng":23.76667,"population":3321},{"id":593303,"name":"Venta","timezone":{"dstOffset":3,"gmtOffset":2,"timeZoneId":"Europe/Vilnius"},"lat":56.2,"lng":22.7,"population":3270},{"id":600443,"name":"Birštonas","timezone":{"dstOffset":3,"gmtOffset":2,"timeZoneId":"Europe/Vilnius"},"lat":54.61667,"lng":24.03333,"population":3181},{"id":601182,"name":"Akmenė","timezone":{"dstOffset":3,"gmtOffset":2,"timeZoneId":"Europe/Vilnius"},"lat":56.25,"lng":22.75,"population":3026},{"id":9610015,"name":"Akademija (Kaunas)","timezone":{"dstOffset":3,"gmtOffset":2,"timeZoneId":"Europe/Vilnius"},"lat":54.8964,"lng":23.82411,"population":2807},{"id":593746,"name":"Tytuvėnėliai","timezone":{"dstOffset":3,"gmtOffset":2,"timeZoneId":"Europe/Vilnius"},"lat":55.61667,"lng":23.18333,"population":2775},{"id":595160,"name":"Rūdiškės","timezone":{"dstOffset":3,"gmtOffset":2,"timeZoneId":"Europe/Vilnius"},"lat":54.51667,"lng":24.83333,"population":2616},{"id":594943,"name":"Sargėnai","timezone":{"dstOffset":3,"gmtOffset":2,"timeZoneId":"Europe/Vilnius"},"lat":54.95,"lng":23.88333,"population":2495},{"id":595087,"name":"Rusnė","timezone":{"dstOffset":3,"gmtOffset":2,"timeZoneId":"Europe/Vilnius"},"lat":55.29639,"lng":21.37583,"population":2484},{"id":596643,"name":"Neringa","timezone":{"dstOffset":3,"gmtOffset":2,"timeZoneId":"Europe/Vilnius"},"lat":55.37194,"lng":21.06472,"population":2380},{"id":596399,"name":"Pagėgiai","timezone":{"dstOffset":3,"gmtOffset":2,"timeZoneId":"Europe/Vilnius"},"lat":55.13806,"lng":21.90889,"population":2363},{"id":593144,"name":"Vilkija","timezone":{"dstOffset":3,"gmtOffset":2,"timeZoneId":"Europe/Vilnius"},"lat":55.05,"lng":23.58333,"population":2289},{"id":593218,"name":"Viekšniai","timezone":{"dstOffset":3,"gmtOffset":2,"timeZoneId":"Europe/Vilnius"},"lat":56.23333,"lng":22.51667,"population":2212},{"id":592942,"name":"Žagarė","timezone":{"dstOffset":3,"gmtOffset":2,"timeZoneId":"Europe/Vilnius"},"lat":56.35917,"lng":23.25,"population":2201},{"id":599579,"name":"Ežerėlis","timezone":{"dstOffset":3,"gmtOffset":2,"timeZoneId":"Europe/Vilnius"},"lat":54.88333,"lng":23.61667,"population":2051},{"id":594050,"name":"Šventoji","timezone":{"dstOffset":3,"gmtOffset":2,"timeZoneId":"Europe/Vilnius"},"lat":56.03333,"lng":21.08333,"population":2000},{"id":598690,"name":"Juodupė","timezone":{"dstOffset":3,"gmtOffset":2,"timeZoneId":"Europe/Vilnius"},"lat":56.08333,"lng":25.61667,"population":1989},{"id":594562,"name":"Skaudvilė","timezone":{"dstOffset":3,"gmtOffset":2,"timeZoneId":"Europe/Vilnius"},"lat":55.41667,"lng":22.61667,"population":1976},{"id":597904,"name":"Kudirkos Naumiestis","timezone":{"dstOffset":3,"gmtOffset":2,"timeZoneId":"Europe/Vilnius"},"lat":54.77306,"lng":22.86306,"population":1961},{"id":594639,"name":"Simnas","timezone":{"dstOffset":3,"gmtOffset":2,"timeZoneId":"Europe/Vilnius"},"lat":54.4,"lng":23.65,"population":1864},{"id":599420,"name":"Gelgaudiškis","timezone":{"dstOffset":3,"gmtOffset":2,"timeZoneId":"Europe/Vilnius"},"lat":55.07917,"lng":22.97583,"population":1839},{"id":595020,"name":"Salantai","timezone":{"dstOffset":3,"gmtOffset":2,"timeZoneId":"Europe/Vilnius"},"lat":56.06667,"lng":21.56667,"population":1829},{"id":597440,"name":"Linkuva","timezone":{"dstOffset":3,"gmtOffset":2,"timeZoneId":"Europe/Vilnius"},"lat":56.08556,"lng":23.9725,"population":1719},{"id":595598,"name":"Priekulė","timezone":{"dstOffset":3,"gmtOffset":2,"timeZoneId":"Europe/Vilnius"},"lat":55.55361,"lng":21.32667,"population":1710},{"id":593338,"name":"Veisiejai","timezone":{"dstOffset":3,"gmtOffset":2,"timeZoneId":"Europe/Vilnius"},"lat":54.1,"lng":23.7,"population":1654},{"id":596612,"name":"Nida","timezone":{"dstOffset":3,"gmtOffset":2,"timeZoneId":"Europe/Vilnius"},"lat":55.30806,"lng":21.00667,"population":1650},{"id":595387,"name":"Ramygala","timezone":{"dstOffset":3,"gmtOffset":2,"timeZoneId":"Europe/Vilnius"},"lat":55.51667,"lng":24.3,"population":1637},{"id":595393,"name":"Ramučiai","timezone":{"dstOffset":3,"gmtOffset":2,"timeZoneId":"Europe/Vilnius"},"lat":54.95,"lng":24.03333,"population":1583},{"id":597881,"name":"Kulautuva","timezone":{"dstOffset":3,"gmtOffset":2,"timeZoneId":"Europe/Vilnius"},"lat":54.93333,"lng":23.6,"population":1401},{"id":598392,"name":"Karmėlava","timezone":{"dstOffset":3,"gmtOffset":2,"timeZoneId":"Europe/Vilnius"},"lat":54.96667,"lng":24.06667,"population":1395},{"id":598854,"name":"Jieznas","timezone":{"dstOffset":3,"gmtOffset":2,"timeZoneId":"Europe/Vilnius"},"lat":54.6,"lng":24.16667,"population":1390},{"id":9610406,"name":"Mastaiciai","timezone":{"dstOffset":3,"gmtOffset":2,"timeZoneId":"Europe/Vilnius"},"lat":54.81998,"lng":23.84462,"population":1339},{"id":592828,"name":"Žemaičių Naumiestis","timezone":{"dstOffset":3,"gmtOffset":2,"timeZoneId":"Europe/Vilnius"},"lat":55.35917,"lng":21.70222,"population":1284},{"id":593086,"name":"Virbalis","timezone":{"dstOffset":3,"gmtOffset":2,"timeZoneId":"Europe/Vilnius"},"lat":54.62667,"lng":22.81694,"population":1281},{"id":600040,"name":"Daugai","timezone":{"dstOffset":3,"gmtOffset":2,"timeZoneId":"Europe/Vilnius"},"lat":54.36667,"lng":24.33333,"population":1279},{"id":596544,"name":"Obeliai","timezone":{"dstOffset":3,"gmtOffset":2,"timeZoneId":"Europe/Vilnius"},"lat":55.96667,"lng":25.15,"population":1247},{"id":593378,"name":"Varniai","timezone":{"dstOffset":3,"gmtOffset":2,"timeZoneId":"Europe/Vilnius"},"lat":55.74056,"lng":22.36444,"population":1227},{"id":594867,"name":"Seda","timezone":{"dstOffset":3,"gmtOffset":2,"timeZoneId":"Europe/Vilnius"},"lat":56.16667,"lng":22.1,"population":1224},{"id":593561,"name":"Vabalninkas","timezone":{"dstOffset":3,"gmtOffset":2,"timeZoneId":"Europe/Vilnius"},"lat":55.96667,"lng":24.75,"population":1177},{"id":595726,"name":"Plateliai","timezone":{"dstOffset":3,"gmtOffset":2,"timeZoneId":"Europe/Vilnius"},"lat":56.05,"lng":21.81667,"population":1100},{"id":600688,"name":"Baltoji Vokė","timezone":{"dstOffset":3,"gmtOffset":2,"timeZoneId":"Europe/Vilnius"},"lat":54.6,"lng":25.2,"population":1071},{"id":600896,"name":"Aukštadvaris","timezone":{"dstOffset":3,"gmtOffset":2,"timeZoneId":"Europe/Vilnius"},"lat":54.58333,"lng":24.53333,"population":1031},{"id":599727,"name":"Dūkštas","timezone":{"dstOffset":3,"gmtOffset":2,"timeZoneId":"Europe/Vilnius"},"lat":55.53333,"lng":26.33333,"population":1021}]