[{"id":2210247,"name":"Tripoli","timezone":{"dstOffset":2,"gmtOffset":2,"timeZoneId":"Africa/Tripoli"},"lat":32.87519,"lng":13.18746,"population":1150989},{"id":88319,"name":"Benghazi","timezone":{"dstOffset":2,"gmtOffset":2,"timeZoneId":"Africa/Tripoli"},"lat":32.11486,"lng":20.06859,"population":650629},{"id":2214846,"name":"Misratah","timezone":{"dstOffset":2,"gmtOffset":2,"timeZoneId":"Africa/Tripoli"},"lat":32.37535,"lng":15.09254,"population":386120},{"id":2210221,"name":"Tarhuna","timezone":{"dstOffset":2,"gmtOffset":2,"timeZoneId":"Africa/Tripoli"},"lat":32.43502,"lng":13.6332,"population":210697},{"id":2219905,"name":"Al Khums","timezone":{"dstOffset":2,"gmtOffset":2,"timeZoneId":"Africa/Tripoli"},"lat":32.64861,"lng":14.26191,"population":201943},{"id":2218970,"name":"Az Zāwīyah","timezone":{"dstOffset":2,"gmtOffset":2,"timeZoneId":"Africa/Tripoli"},"lat":32.7571,"lng":12.72764,"population":200000},{"id":2216885,"name":"Zawiya","timezone":{"dstOffset":2,"gmtOffset":2,"timeZoneId":"Africa/Tripoli"},"lat":32.75222,"lng":12.72778,"population":186123},{"id":89113,"name":"Ajdabiya","timezone":{"dstOffset":2,"gmtOffset":2,"timeZoneId":"Africa/Tripoli"},"lat":30.75545,"lng":20.22626,"population":134358},{"id":2212775,"name":"Sabha","timezone":{"dstOffset":2,"gmtOffset":2,"timeZoneId":"Africa/Tripoli"},"lat":27.03766,"lng":14.42832,"population":130000},{"id":2210554,"name":"Sirte","timezone":{"dstOffset":2,"gmtOffset":2,"timeZoneId":"Africa/Tripoli"},"lat":31.20892,"lng":16.58866,"population":128123},{"id":2219960,"name":"Al Jadīd","timezone":{"dstOffset":2,"gmtOffset":2,"timeZoneId":"Africa/Tripoli"},"lat":27.05,"lng":14.4,"population":126386},{"id":81302,"name":"Tobruk","timezone":{"dstOffset":2,"gmtOffset":2,"timeZoneId":"Africa/Tripoli"},"lat":32.08361,"lng":23.97639,"population":121052},{"id":2208485,"name":"Zliten","timezone":{"dstOffset":2,"gmtOffset":2,"timeZoneId":"Africa/Tripoli"},"lat":32.46738,"lng":14.56874,"population":109972},{"id":2212771,"name":"Şabrātah","timezone":{"dstOffset":2,"gmtOffset":2,"timeZoneId":"Africa/Tripoli"},"lat":32.79335,"lng":12.48845,"population":102038},{"id":2210394,"name":"Tagiura","timezone":{"dstOffset":2,"gmtOffset":2,"timeZoneId":"Africa/Tripoli"},"lat":32.88167,"lng":13.35056,"population":100000},{"id":88903,"name":"Al Marj","timezone":{"dstOffset":2,"gmtOffset":2,"timeZoneId":"Africa/Tripoli"},"lat":32.48798,"lng":20.83174,"population":85315},{"id":2217362,"name":"Gharyan","timezone":{"dstOffset":2,"gmtOffset":2,"timeZoneId":"Africa/Tripoli"},"lat":32.17222,"lng":13.02028,"population":85219},{"id":87205,"name":"Darnah","timezone":{"dstOffset":2,"gmtOffset":2,"timeZoneId":"Africa/Tripoli"},"lat":32.76704,"lng":22.63669,"population":78782},{"id":89055,"name":"Al Bayḑā’","timezone":{"dstOffset":2,"gmtOffset":2,"timeZoneId":"Africa/Tripoli"},"lat":32.76272,"lng":21.75506,"population":74594},{"id":2208791,"name":"Yafran","timezone":{"dstOffset":2,"gmtOffset":2,"timeZoneId":"Africa/Tripoli"},"lat":32.06329,"lng":12.52859,"population":67638},{"id":2218840,"name":"Banī Walīd","timezone":{"dstOffset":2,"gmtOffset":2,"timeZoneId":"Africa/Tripoli"},"lat":31.75662,"lng":13.99422,"population":46350},{"id":88562,"name":"At Tāj","timezone":{"dstOffset":2,"gmtOffset":2,"timeZoneId":"Africa/Tripoli"},"lat":24.20487,"lng":23.2857,"population":46050},{"id":2208425,"name":"Zuwārah","timezone":{"dstOffset":2,"gmtOffset":2,"timeZoneId":"Africa/Tripoli"},"lat":32.9312,"lng":12.08199,"population":45000},{"id":2214603,"name":"Murzuk","timezone":{"dstOffset":2,"gmtOffset":2,"timeZoneId":"Africa/Tripoli"},"lat":25.91552,"lng":13.91839,"population":43732},{"id":2219235,"name":"Ubari","timezone":{"dstOffset":2,"gmtOffset":2,"timeZoneId":"Africa/Tripoli"},"lat":26.59206,"lng":12.78049,"population":42975},{"id":2218478,"name":"Brak","timezone":{"dstOffset":2,"gmtOffset":2,"timeZoneId":"Africa/Tripoli"},"lat":27.54956,"lng":14.27138,"population":39444},{"id":2218963,"name":"Az Zintān","timezone":{"dstOffset":2,"gmtOffset":2,"timeZoneId":"Africa/Tripoli"},"lat":31.92231,"lng":12.25195,"population":33000},{"id":89087,"name":"Al Abyār","timezone":{"dstOffset":2,"gmtOffset":2,"timeZoneId":"Africa/Tripoli"},"lat":32.19,"lng":20.59653,"population":32563},{"id":2209055,"name":"Waddān","timezone":{"dstOffset":2,"gmtOffset":2,"timeZoneId":"Africa/Tripoli"},"lat":29.1614,"lng":16.13904,"population":27590},{"id":2214433,"name":"Nālūt","timezone":{"dstOffset":2,"gmtOffset":2,"timeZoneId":"Africa/Tripoli"},"lat":31.86848,"lng":10.9812,"population":26256},{"id":2214827,"name":"Mizdah","timezone":{"dstOffset":2,"gmtOffset":2,"timeZoneId":"Africa/Tripoli"},"lat":31.44514,"lng":12.98013,"population":26107},{"id":2210560,"name":"Şurmān","timezone":{"dstOffset":2,"gmtOffset":2,"timeZoneId":"Africa/Tripoli"},"lat":32.75668,"lng":12.57159,"population":25235},{"id":88835,"name":"Al Qubbah","timezone":{"dstOffset":2,"gmtOffset":2,"timeZoneId":"Africa/Tripoli"},"lat":32.76162,"lng":22.24237,"population":24631},{"id":2217351,"name":"Ghāt","timezone":{"dstOffset":2,"gmtOffset":2,"timeZoneId":"Africa/Tripoli"},"lat":24.96472,"lng":10.17278,"population":24347},{"id":2215163,"name":"Masallātah","timezone":{"dstOffset":2,"gmtOffset":2,"timeZoneId":"Africa/Tripoli"},"lat":32.61667,"lng":14,"population":23702},{"id":88834,"name":"Tūkrah","timezone":{"dstOffset":2,"gmtOffset":2,"timeZoneId":"Africa/Tripoli"},"lat":32.53414,"lng":20.57911,"population":23164},{"id":88380,"name":"Az Zuwaytīnah","timezone":{"dstOffset":2,"gmtOffset":2,"timeZoneId":"Africa/Tripoli"},"lat":30.9522,"lng":20.12022,"population":21015},{"id":2216645,"name":"Hūn","timezone":{"dstOffset":2,"gmtOffset":2,"timeZoneId":"Africa/Tripoli"},"lat":29.12684,"lng":15.94772,"population":18878},{"id":2208655,"name":"Zalţan","timezone":{"dstOffset":2,"gmtOffset":2,"timeZoneId":"Africa/Tripoli"},"lat":32.94701,"lng":11.86647,"population":17700},{"id":88962,"name":"Al Jawf","timezone":{"dstOffset":2,"gmtOffset":2,"timeZoneId":"Africa/Tripoli"},"lat":24.1989,"lng":23.29093,"population":17320},{"id":81604,"name":"Sulūq","timezone":{"dstOffset":2,"gmtOffset":2,"timeZoneId":"Africa/Tripoli"},"lat":31.66818,"lng":20.25205,"population":15543},{"id":2215210,"name":"Al Burayqah","timezone":{"dstOffset":2,"gmtOffset":2,"timeZoneId":"Africa/Tripoli"},"lat":30.40624,"lng":19.57386,"population":13780},{"id":80509,"name":"Bardīyah","timezone":{"dstOffset":2,"gmtOffset":2,"timeZoneId":"Africa/Tripoli"},"lat":31.75615,"lng":25.08653,"population":9149},{"id":2217440,"name":"Ghadames","timezone":{"dstOffset":2,"gmtOffset":2,"timeZoneId":"Africa/Tripoli"},"lat":30.13366,"lng":9.50072,"population":7000},{"id":88533,"name":"Awjilah","timezone":{"dstOffset":2,"gmtOffset":2,"timeZoneId":"Africa/Tripoli"},"lat":29.10806,"lng":21.28694,"population":6610},{"id":2216432,"name":"Giado","timezone":{"dstOffset":2,"gmtOffset":2,"timeZoneId":"Africa/Tripoli"},"lat":31.95815,"lng":12.02034,"population":6013},{"id":8354477,"name":"Qasr Abu Hadi","timezone":{"dstOffset":2,"gmtOffset":2,"timeZoneId":"Africa/Tripoli"},"lat":31.05926,"lng":16.65905,"population":4890},{"id":2220309,"name":"Idrī","timezone":{"dstOffset":2,"gmtOffset":2,"timeZoneId":"Africa/Tripoli"},"lat":27.5,"lng":13.26667,"population":4611},{"id":2219739,"name":"Al Qaţrūn","timezone":{"dstOffset":2,"gmtOffset":2,"timeZoneId":"Africa/Tripoli"},"lat":24.95139,"lng":14.64861,"population":4500},{"id":2220139,"name":"Al ‘Azīzīyah","timezone":{"dstOffset":2,"gmtOffset":2,"timeZoneId":"Africa/Tripoli"},"lat":32.53194,"lng":13.0175,"population":4000},{"id":86049,"name":"Gialo","timezone":{"dstOffset":2,"gmtOffset":2,"timeZoneId":"Africa/Tripoli"},"lat":29.03333,"lng":21.55,"population":3334},{"id":88967,"name":"Al Jaghbūb","timezone":{"dstOffset":2,"gmtOffset":2,"timeZoneId":"Africa/Tripoli"},"lat":29.74262,"lng":24.51676,"population":2768},{"id":2215282,"name":"Marādah","timezone":{"dstOffset":2,"gmtOffset":2,"timeZoneId":"Africa/Tripoli"},"lat":29.23333,"lng":19.21667,"population":2229}]