[{"id":2553604,"name":"White House","timezone":{"dstOffset":1,"gmtOffset":0,"timeZoneId":"Africa/Casablanca"},"lat":33.58831,"lng":-7.61138,"population":3144909},{"id":2538475,"name":"Rabat","timezone":{"dstOffset":1,"gmtOffset":0,"timeZoneId":"Africa/Casablanca"},"lat":34.01325,"lng":-6.83255,"population":1655753},{"id":2548885,"name":"Fes","timezone":{"dstOffset":1,"gmtOffset":0,"timeZoneId":"Africa/Casablanca"},"lat":34.03715,"lng":-4.9998,"population":964891},{"id":2537763,"name":"Salé","timezone":{"dstOffset":1,"gmtOffset":0,"timeZoneId":"Africa/Casablanca"},"lat":34.0531,"lng":-6.79846,"population":903485},{"id":2542997,"name":"Marrakesh","timezone":{"dstOffset":1,"gmtOffset":0,"timeZoneId":"Africa/Casablanca"},"lat":31.63416,"lng":-7.99994,"population":839296},{"id":2561668,"name":"Santa Cruz","timezone":{"dstOffset":1,"gmtOffset":0,"timeZoneId":"Africa/Casablanca"},"lat":30.42018,"lng":-9.59815,"population":698310},{"id":2530335,"name":"Tangier","timezone":{"dstOffset":1,"gmtOffset":0,"timeZoneId":"Africa/Casablanca"},"lat":35.76727,"lng":-5.79975,"population":688356},{"id":2542715,"name":"Meknes","timezone":{"dstOffset":1,"gmtOffset":0,"timeZoneId":"Africa/Casablanca"},"lat":33.89352,"lng":-5.54727,"population":545705},{"id":2540483,"name":"Oujda","timezone":{"dstOffset":1,"gmtOffset":0,"timeZoneId":"Africa/Casablanca"},"lat":34.68052,"lng":-1.90764,"population":405253},{"id":2558545,"name":"Al Hoceima","timezone":{"dstOffset":1,"gmtOffset":0,"timeZoneId":"Africa/Casablanca"},"lat":35.25165,"lng":-3.93723,"population":395644},{"id":2544571,"name":"Kenitra","timezone":{"dstOffset":1,"gmtOffset":0,"timeZoneId":"Africa/Casablanca"},"lat":34.26101,"lng":-6.5802,"population":366570},{"id":2528910,"name":"Tétouan","timezone":{"dstOffset":1,"gmtOffset":0,"timeZoneId":"Africa/Casablanca"},"lat":35.57845,"lng":-5.36837,"population":326261},{"id":2537881,"name":"Safi","timezone":{"dstOffset":1,"gmtOffset":0,"timeZoneId":"Africa/Casablanca"},"lat":32.29939,"lng":-9.23718,"population":288163},{"id":2462881,"name":"Laâyoune / El Aaiún","timezone":{"dstOffset":1,"gmtOffset":0,"timeZoneId":"Africa/Casablanca"},"lat":27.1418,"lng":-13.18797,"population":196331},{"id":2542051,"name":"Mohammedia","timezone":{"dstOffset":1,"gmtOffset":0,"timeZoneId":"Africa/Casablanca"},"lat":33.68607,"lng":-7.38298,"population":187708},{"id":2544248,"name":"Khouribga","timezone":{"dstOffset":1,"gmtOffset":0,"timeZoneId":"Africa/Casablanca"},"lat":32.88108,"lng":-6.9063,"population":167673},{"id":2555745,"name":"Beni Mellal","timezone":{"dstOffset":1,"gmtOffset":0,"timeZoneId":"Africa/Casablanca"},"lat":32.33725,"lng":-6.34984,"population":166399},{"id":2550078,"name":"Mazaghan","timezone":{"dstOffset":1,"gmtOffset":0,"timeZoneId":"Africa/Casablanca"},"lat":33.25492,"lng":-8.50602,"population":147549},{"id":2529317,"name":"Taza","timezone":{"dstOffset":1,"gmtOffset":0,"timeZoneId":"Africa/Casablanca"},"lat":34.21,"lng":-4.01,"population":141890},{"id":2541479,"name":"Nador","timezone":{"dstOffset":1,"gmtOffset":0,"timeZoneId":"Africa/Casablanca"},"lat":35.16813,"lng":-2.93352,"population":129260},{"id":2537406,"name":"Settat","timezone":{"dstOffset":1,"gmtOffset":0,"timeZoneId":"Africa/Casablanca"},"lat":33.00103,"lng":-7.61662,"population":119082},{"id":2543549,"name":"Larache","timezone":{"dstOffset":1,"gmtOffset":0,"timeZoneId":"Africa/Casablanca"},"lat":35.19321,"lng":-6.15572,"population":109294},{"id":2544001,"name":"Ksar el Kebir","timezone":{"dstOffset":1,"gmtOffset":0,"timeZoneId":"Africa/Casablanca"},"lat":35.00174,"lng":-5.90534,"population":108753},{"id":2558470,"name":"Khemisset","timezone":{"dstOffset":1,"gmtOffset":0,"timeZoneId":"Africa/Casablanca"},"lat":33.82404,"lng":-6.06627,"population":106991},{"id":2548526,"name":"Guelmim","timezone":{"dstOffset":1,"gmtOffset":0,"timeZoneId":"Africa/Casablanca"},"lat":28.98696,"lng":-10.05738,"population":98229},{"id":2556272,"name":"Berrechid","timezone":{"dstOffset":1,"gmtOffset":0,"timeZoneId":"Africa/Casablanca"},"lat":33.26553,"lng":-7.58754,"population":93954},{"id":2540689,"name":"Oued Zem","timezone":{"dstOffset":1,"gmtOffset":0,"timeZoneId":"Africa/Casablanca"},"lat":32.8627,"lng":-6.57359,"population":84910},{"id":2548830,"name":"Fkih Ben Salah","timezone":{"dstOffset":1,"gmtOffset":0,"timeZoneId":"Africa/Casablanca"},"lat":32.50093,"lng":-6.69062,"population":84072},{"id":2530048,"name":"Taourirt","timezone":{"dstOffset":1,"gmtOffset":0,"timeZoneId":"Africa/Casablanca"},"lat":34.4073,"lng":-2.89732,"population":82518},{"id":2555467,"name":"Berkane","timezone":{"dstOffset":1,"gmtOffset":0,"timeZoneId":"Africa/Casablanca"},"lat":34.92,"lng":-2.32,"population":80721},{"id":2532945,"name":"Sidi Slimane","timezone":{"dstOffset":1,"gmtOffset":0,"timeZoneId":"Africa/Casablanca"},"lat":34.26478,"lng":-5.92598,"population":79437},{"id":2463447,"name":"Dakhla","timezone":{"dstOffset":1,"gmtOffset":0,"timeZoneId":"Africa/El_Aaiun"},"lat":23.68477,"lng":-15.95798,"population":75000},{"id":2533191,"name":"Sidi Kacem","timezone":{"dstOffset":1,"gmtOffset":0,"timeZoneId":"Africa/Casablanca"},"lat":34.22149,"lng":-5.70775,"population":74755},{"id":2544333,"name":"Khenifra","timezone":{"dstOffset":1,"gmtOffset":0,"timeZoneId":"Africa/Casablanca"},"lat":32.9391,"lng":-5.6686,"population":73906},{"id":2529649,"name":"Taroudant","timezone":{"dstOffset":1,"gmtOffset":0,"timeZoneId":"Africa/Casablanca"},"lat":30.47028,"lng":-8.87695,"population":71133},{"id":2549263,"name":"Mogador","timezone":{"dstOffset":1,"gmtOffset":0,"timeZoneId":"Africa/Casablanca"},"lat":31.5125,"lng":-9.77,"population":70634},{"id":2528659,"name":"Tiflet","timezone":{"dstOffset":1,"gmtOffset":0,"timeZoneId":"Africa/Casablanca"},"lat":33.89469,"lng":-6.3065,"population":70010},{"id":2539134,"name":"Oulad Teïma","timezone":{"dstOffset":1,"gmtOffset":0,"timeZoneId":"Africa/Casablanca"},"lat":30.39467,"lng":-9.20897,"population":66832},{"id":2537545,"name":"Sefrou","timezone":{"dstOffset":1,"gmtOffset":0,"timeZoneId":"Africa/Casablanca"},"lat":33.83186,"lng":-4.828,"population":65150},{"id":2526488,"name":"Youssoufia","timezone":{"dstOffset":1,"gmtOffset":0,"timeZoneId":"Africa/Casablanca"},"lat":32.24634,"lng":-8.52941,"population":64910},{"id":2530241,"name":"Tan-Tan","timezone":{"dstOffset":1,"gmtOffset":0,"timeZoneId":"Africa/Casablanca"},"lat":28.43799,"lng":-11.10321,"population":61924},{"id":2540810,"name":"Ouazzane","timezone":{"dstOffset":1,"gmtOffset":0,"timeZoneId":"Africa/Casablanca"},"lat":34.79711,"lng":-5.58224,"population":58684},{"id":2548489,"name":"Guercif","timezone":{"dstOffset":1,"gmtOffset":0,"timeZoneId":"Africa/Casablanca"},"lat":34.22568,"lng":-3.35361,"population":57544},{"id":2540850,"name":"Ouarzazate","timezone":{"dstOffset":1,"gmtOffset":0,"timeZoneId":"Africa/Casablanca"},"lat":30.91894,"lng":-6.89341,"population":57245},{"id":2527645,"name":"Tirhanimîne","timezone":{"dstOffset":1,"gmtOffset":0,"timeZoneId":"Africa/Casablanca"},"lat":35.23619,"lng":-3.95453,"population":55827},{"id":8542188,"name":"Dakhla","timezone":{"dstOffset":1,"gmtOffset":0,"timeZoneId":"Africa/Casablanca"},"lat":30.41071,"lng":-9.55572,"population":55618},{"id":2527089,"name":"Tiznit","timezone":{"dstOffset":1,"gmtOffset":0,"timeZoneId":"Africa/Casablanca"},"lat":29.69742,"lng":-9.73162,"population":55092},{"id":2556464,"name":"Azrou","timezone":{"dstOffset":1,"gmtOffset":0,"timeZoneId":"Africa/Casablanca"},"lat":33.43443,"lng":-5.22126,"population":48249},{"id":2542227,"name":"Midelt","timezone":{"dstOffset":1,"gmtOffset":0,"timeZoneId":"Africa/Casablanca"},"lat":32.6852,"lng":-4.74512,"population":45159},{"id":2562055,"name":"Skhirat","timezone":{"dstOffset":1,"gmtOffset":0,"timeZoneId":"Africa/Casablanca"},"lat":33.84984,"lng":-7.04037,"population":44850},{"id":2532394,"name":"Souq Larb’a al Gharb","timezone":{"dstOffset":1,"gmtOffset":0,"timeZoneId":"Africa/Casablanca"},"lat":34.68664,"lng":-6.00272,"population":44059},{"id":2545017,"name":"Jerada","timezone":{"dstOffset":1,"gmtOffset":0,"timeZoneId":"Africa/Casablanca"},"lat":34.31,"lng":-2.16,"population":43696},{"id":2461874,"name":"Smara","timezone":{"dstOffset":1,"gmtOffset":0,"timeZoneId":"Africa/El_Aaiun"},"lat":26.73841,"lng":-11.67194,"population":42056},{"id":2544720,"name":"Kasba Tadla","timezone":{"dstOffset":1,"gmtOffset":0,"timeZoneId":"Africa/Casablanca"},"lat":32.5977,"lng":-6.26844,"population":41199},{"id":2536074,"name":"Sidi Bennour","timezone":{"dstOffset":1,"gmtOffset":0,"timeZoneId":"Africa/Casablanca"},"lat":32.65236,"lng":-8.42769,"population":40044},{"id":2542987,"name":"Martil","timezone":{"dstOffset":1,"gmtOffset":0,"timeZoneId":"Africa/Casablanca"},"lat":35.61662,"lng":-5.27522,"population":39738},{"id":2556657,"name":"Azamor","timezone":{"dstOffset":1,"gmtOffset":0,"timeZoneId":"Africa/Casablanca"},"lat":33.28952,"lng":-8.3425,"population":37140},{"id":2527915,"name":"Tinghir","timezone":{"dstOffset":1,"gmtOffset":0,"timeZoneId":"Africa/Casablanca"},"lat":31.51472,"lng":-5.53278,"population":36795},{"id":2553455,"name":"Chefchaouene","timezone":{"dstOffset":1,"gmtOffset":0,"timeZoneId":"Africa/Casablanca"},"lat":35.16878,"lng":-5.2636,"population":36280},{"id":2550806,"name":"El Aïoun","timezone":{"dstOffset":1,"gmtOffset":0,"timeZoneId":"Africa/Casablanca"},"lat":34.58319,"lng":-2.50612,"population":35196},{"id":2526452,"name":"Zagora","timezone":{"dstOffset":1,"gmtOffset":0,"timeZoneId":"Africa/Casablanca"},"lat":30.33241,"lng":-5.8384,"population":35154},{"id":2530155,"name":"Taounate","timezone":{"dstOffset":1,"gmtOffset":0,"timeZoneId":"Africa/Casablanca"},"lat":34.53661,"lng":-4.64009,"population":32802},{"id":2532822,"name":"Sidi Yahia el Gharb","timezone":{"dstOffset":1,"gmtOffset":0,"timeZoneId":"Africa/Casablanca"},"lat":34.30652,"lng":-6.30618,"population":32202},{"id":2526435,"name":"Zaïo","timezone":{"dstOffset":1,"gmtOffset":0,"timeZoneId":"Africa/Casablanca"},"lat":34.94282,"lng":-2.7329,"population":30008},{"id":2557055,"name":"Asilah","timezone":{"dstOffset":1,"gmtOffset":0,"timeZoneId":"Africa/Casablanca"},"lat":35.46522,"lng":-6.03415,"population":28861},{"id":2550252,"name":"El Hajeb","timezone":{"dstOffset":1,"gmtOffset":0,"timeZoneId":"Africa/Casablanca"},"lat":33.68786,"lng":-5.371,"population":28126},{"id":2542866,"name":"Mechrá Belqsiri","timezone":{"dstOffset":1,"gmtOffset":0,"timeZoneId":"Africa/Casablanca"},"lat":34.57396,"lng":-5.95372,"population":27802},{"id":2553751,"name":"Bouznika","timezone":{"dstOffset":1,"gmtOffset":0,"timeZoneId":"Africa/Casablanca"},"lat":33.78942,"lng":-7.15968,"population":27283},{"id":2545985,"name":"Imzoûrene","timezone":{"dstOffset":1,"gmtOffset":0,"timeZoneId":"Africa/Casablanca"},"lat":35.15,"lng":-3.86,"population":26650},{"id":2531480,"name":"Tahala","timezone":{"dstOffset":1,"gmtOffset":0,"timeZoneId":"Africa/Casablanca"},"lat":34.04845,"lng":-4.42795,"population":25761},{"id":2534515,"name":"Sidi Ifni","timezone":{"dstOffset":1,"gmtOffset":0,"timeZoneId":"Africa/Casablanca"},"lat":29.37975,"lng":-10.17299,"population":20000},{"id":2561124,"name":"Ahfir","timezone":{"dstOffset":1,"gmtOffset":0,"timeZoneId":"Africa/Casablanca"},"lat":34.95368,"lng":-2.10027,"population":19611},{"id":6546693,"name":"Boujniba","timezone":{"dstOffset":1,"gmtOffset":0,"timeZoneId":"Africa/Casablanca"},"lat":32.90046,"lng":-6.77464,"population":15041},{"id":2543394,"name":"Ifrane","timezone":{"dstOffset":1,"gmtOffset":0,"timeZoneId":"Africa/Casablanca"},"lat":31.70217,"lng":-6.3494,"population":13000},{"id":2541210,"name":"Nouaseur","timezone":{"dstOffset":1,"gmtOffset":0,"timeZoneId":"Africa/Casablanca"},"lat":33.3802,"lng":-7.62105,"population":12696},{"id":2548851,"name":"Figuig (Centre)","timezone":{"dstOffset":1,"gmtOffset":0,"timeZoneId":"Africa/Casablanca"},"lat":32.10891,"lng":-1.22855,"population":12516},{"id":2565267,"name":"Mhamid","timezone":{"dstOffset":1,"gmtOffset":0,"timeZoneId":"Africa/Casablanca"},"lat":29.82,"lng":-5.72,"population":10000},{"id":9645313,"name":"Gueltat Zemmour","timezone":{"dstOffset":1,"gmtOffset":0,"timeZoneId":"Africa/Casablanca"},"lat":25.14276,"lng":-12.37168,"population":6740},{"id":2529923,"name":"Tarfaya","timezone":{"dstOffset":1,"gmtOffset":0,"timeZoneId":"Africa/Casablanca"},"lat":27.9392,"lng":-12.92604,"population":5615},{"id":2531877,"name":"Tafraout","timezone":{"dstOffset":1,"gmtOffset":0,"timeZoneId":"Africa/Casablanca"},"lat":29.72449,"lng":-8.9747,"population":4924},{"id":2532918,"name":"Sidi Smaïl","timezone":{"dstOffset":1,"gmtOffset":0,"timeZoneId":"Africa/Casablanca"},"lat":32.82268,"lng":-8.5081,"population":4279},{"id":8739768,"name":"Mosquée","timezone":{"dstOffset":1,"gmtOffset":0,"timeZoneId":"Africa/Casablanca"},"lat":34.80622,"lng":-2.41297,"population":3150},{"id":2526359,"name":"Zouiat ech Cheïkh","timezone":{"dstOffset":1,"gmtOffset":0,"timeZoneId":"Africa/Casablanca"},"lat":32.64562,"lng":-5.91783,"population":2000},{"id":9645312,"name":"Akhfennir","timezone":{"dstOffset":1,"gmtOffset":0,"timeZoneId":"Africa/Casablanca"},"lat":28.09455,"lng":-12.05157,"population":1583},{"id":2526981,"name":"Tmourghout","timezone":{"dstOffset":1,"gmtOffset":0,"timeZoneId":"Africa/Casablanca"},"lat":33.9065,"lng":-4.02696,"population":1250},{"id":2596325,"name":"Jebel Tiskaouine","timezone":{"dstOffset":1,"gmtOffset":0,"timeZoneId":"Africa/Casablanca"},"lat":31.02722,"lng":-5.11643,"population":1197},{"id":2539139,"name":"Oulad Tayeb","timezone":{"dstOffset":1,"gmtOffset":0,"timeZoneId":"Africa/Casablanca"},"lat":33.94633,"lng":-4.99509,"population":500},{"id":2537965,"name":"Rouadi","timezone":{"dstOffset":1,"gmtOffset":0,"timeZoneId":"Africa/Casablanca"},"lat":35.14119,"lng":-4.13631,"population":0},{"id":2538028,"name":"Rislane","timezone":{"dstOffset":1,"gmtOffset":0,"timeZoneId":"Africa/Casablanca"},"lat":34.76987,"lng":-2.46034,"population":0},{"id":2538099,"name":"Ghouazi","timezone":{"dstOffset":1,"gmtOffset":0,"timeZoneId":"Africa/Casablanca"},"lat":34.47737,"lng":-5.30235,"population":0},{"id":2538332,"name":"Reggada","timezone":{"dstOffset":1,"gmtOffset":0,"timeZoneId":"Africa/Casablanca"},"lat":29.58016,"lng":-9.70086,"population":0},{"id":2538385,"name":"Ratba","timezone":{"dstOffset":1,"gmtOffset":0,"timeZoneId":"Africa/Casablanca"},"lat":34.77772,"lng":-4.9399,"population":0},{"id":2538652,"name":"Ourtzagh","timezone":{"dstOffset":1,"gmtOffset":0,"timeZoneId":"Africa/Casablanca"},"lat":34.53477,"lng":-4.96878,"population":0},{"id":2538898,"name":"Oulmes","timezone":{"dstOffset":1,"gmtOffset":0,"timeZoneId":"Africa/Casablanca"},"lat":33.42585,"lng":-6.00137,"population":0},{"id":2539936,"name":"Oulad Daoud","timezone":{"dstOffset":1,"gmtOffset":0,"timeZoneId":"Africa/Casablanca"},"lat":34.40438,"lng":-4.69342,"population":0},{"id":2540207,"name":"Oulad Ayad","timezone":{"dstOffset":1,"gmtOffset":0,"timeZoneId":"Africa/Casablanca"},"lat":32.2,"lng":-6.8,"population":0},{"id":2540554,"name":"Ouijjane","timezone":{"dstOffset":1,"gmtOffset":0,"timeZoneId":"Africa/Casablanca"},"lat":29.62778,"lng":-9.53959,"population":0},{"id":2540698,"name":"Oued Laou","timezone":{"dstOffset":1,"gmtOffset":0,"timeZoneId":"Africa/Casablanca"},"lat":35.4484,"lng":-5.09627,"population":0},{"id":2540716,"name":"Oued Amlil","timezone":{"dstOffset":1,"gmtOffset":0,"timeZoneId":"Africa/Casablanca"},"lat":34.2,"lng":-4.28,"population":0},{"id":2541779,"name":"Moulay Yacoub","timezone":{"dstOffset":1,"gmtOffset":0,"timeZoneId":"Africa/Casablanca"},"lat":34.08793,"lng":-5.18171,"population":0},{"id":2541830,"name":"Moulay Brahim","timezone":{"dstOffset":1,"gmtOffset":0,"timeZoneId":"Africa/Casablanca"},"lat":31.28785,"lng":-7.9683,"population":0},{"id":2541840,"name":"Moulay Bouchta","timezone":{"dstOffset":1,"gmtOffset":0,"timeZoneId":"Africa/Casablanca"},"lat":34.48922,"lng":-5.13023,"population":0},{"id":2541906,"name":"Moulay Abdallah","timezone":{"dstOffset":1,"gmtOffset":0,"timeZoneId":"Africa/Casablanca"},"lat":33.19664,"lng":-8.58811,"population":0},{"id":2542147,"name":"Missour","timezone":{"dstOffset":1,"gmtOffset":0,"timeZoneId":"Africa/Casablanca"},"lat":33.04893,"lng":-3.98946,"population":0},{"id":2542230,"name":"Midar","timezone":{"dstOffset":1,"gmtOffset":0,"timeZoneId":"Africa/Casablanca"},"lat":34.94025,"lng":-3.53311,"population":0},{"id":2542826,"name":"Mediouna","timezone":{"dstOffset":1,"gmtOffset":0,"timeZoneId":"Africa/Casablanca"},"lat":33.45161,"lng":-7.51995,"population":0},{"id":2542957,"name":"Matmata","timezone":{"dstOffset":1,"gmtOffset":0,"timeZoneId":"Africa/Casablanca"},"lat":34.09914,"lng":-4.55219,"population":0},{"id":2543231,"name":"Madagh","timezone":{"dstOffset":1,"gmtOffset":0,"timeZoneId":"Africa/Casablanca"},"lat":35.01032,"lng":-2.33701,"population":0},{"id":2530843,"name":"Tamanar","timezone":{"dstOffset":1,"gmtOffset":0,"timeZoneId":"Africa/Casablanca"},"lat":31.00087,"lng":-9.67802,"population":0},{"id":2530906,"name":"Talzemt","timezone":{"dstOffset":1,"gmtOffset":0,"timeZoneId":"Africa/Casablanca"},"lat":33.59,"lng":-4.19,"population":0},{"id":2530978,"name":"Talmest","timezone":{"dstOffset":1,"gmtOffset":0,"timeZoneId":"Africa/Casablanca"},"lat":31.81,"lng":-9.33,"population":0},{"id":2531014,"name":"Taliouine","timezone":{"dstOffset":1,"gmtOffset":0,"timeZoneId":"Africa/Casablanca"},"lat":30.52917,"lng":-7.91262,"population":0},{"id":2531994,"name":"Tadrart","timezone":{"dstOffset":1,"gmtOffset":0,"timeZoneId":"Africa/Casablanca"},"lat":30.77477,"lng":-9.45951,"population":0},{"id":2532195,"name":"Tabouda","timezone":{"dstOffset":1,"gmtOffset":0,"timeZoneId":"Africa/Casablanca"},"lat":34.71923,"lng":-5.1403,"population":0},{"id":2532214,"name":"Tabia","timezone":{"dstOffset":1,"gmtOffset":0,"timeZoneId":"Africa/Casablanca"},"lat":32.03009,"lng":-6.79985,"population":0},{"id":2532230,"name":"Tabia","timezone":{"dstOffset":1,"gmtOffset":0,"timeZoneId":"Africa/Casablanca"},"lat":30.03462,"lng":-8.87688,"population":0},{"id":2532270,"name":"Tabant","timezone":{"dstOffset":1,"gmtOffset":0,"timeZoneId":"Africa/Casablanca"},"lat":31.65255,"lng":-6.41049,"population":0},{"id":2532542,"name":"Senada","timezone":{"dstOffset":1,"gmtOffset":0,"timeZoneId":"Africa/Casablanca"},"lat":35.07452,"lng":-4.21583,"population":0},{"id":2532628,"name":"Skoura","timezone":{"dstOffset":1,"gmtOffset":0,"timeZoneId":"Africa/Casablanca"},"lat":31.06262,"lng":-6.5525,"population":0},{"id":2532797,"name":"Sidi Yahya Ou Saad","timezone":{"dstOffset":1,"gmtOffset":0,"timeZoneId":"Africa/Casablanca"},"lat":32.68011,"lng":-5.57738,"population":0},{"id":2533158,"name":"Sidi Redouane","timezone":{"dstOffset":1,"gmtOffset":0,"timeZoneId":"Africa/Casablanca"},"lat":34.68692,"lng":-5.44538,"population":0},{"id":2533178,"name":"Sidi Rahhal","timezone":{"dstOffset":1,"gmtOffset":0,"timeZoneId":"Africa/Casablanca"},"lat":31.65031,"lng":-7.47288,"population":0},{"id":2533339,"name":"Sidi Moussa","timezone":{"dstOffset":1,"gmtOffset":0,"timeZoneId":"Africa/Casablanca"},"lat":32.27209,"lng":-7.20095,"population":0},{"id":2534315,"name":"Sidi Lamine","timezone":{"dstOffset":1,"gmtOffset":0,"timeZoneId":"Africa/Casablanca"},"lat":32.90783,"lng":-6.05069,"population":0},{"id":2534496,"name":"Sidi Jaber","timezone":{"dstOffset":1,"gmtOffset":0,"timeZoneId":"Africa/Casablanca"},"lat":32.38952,"lng":-6.42095,"population":0},{"id":2534572,"name":"Sidi Harazem","timezone":{"dstOffset":1,"gmtOffset":0,"timeZoneId":"Africa/Casablanca"},"lat":34.02733,"lng":-4.88343,"population":0},{"id":2535477,"name":"Sidi Bousber","timezone":{"dstOffset":1,"gmtOffset":0,"timeZoneId":"Africa/Casablanca"},"lat":34.56284,"lng":-5.36208,"population":0},{"id":2535534,"name":"Sidi Bou Othmane","timezone":{"dstOffset":1,"gmtOffset":0,"timeZoneId":"Africa/Casablanca"},"lat":31.90226,"lng":-7.94169,"population":0},{"id":2536370,"name":"Sidi Amar","timezone":{"dstOffset":1,"gmtOffset":0,"timeZoneId":"Africa/Casablanca"},"lat":32.94987,"lng":-5.83225,"population":0},{"id":2537320,"name":"Sidi Abdallah","timezone":{"dstOffset":1,"gmtOffset":0,"timeZoneId":"Africa/Casablanca"},"lat":32.53544,"lng":-7.83243,"population":0},{"id":2537469,"name":"Selouane","timezone":{"dstOffset":1,"gmtOffset":0,"timeZoneId":"Africa/Casablanca"},"lat":35.07313,"lng":-2.9423,"population":0},{"id":2554997,"name":"Boudinar","timezone":{"dstOffset":1,"gmtOffset":0,"timeZoneId":"Africa/Casablanca"},"lat":35.15601,"lng":-3.62358,"population":0},{"id":2555157,"name":"Bouarfa","timezone":{"dstOffset":1,"gmtOffset":0,"timeZoneId":"Africa/Casablanca"},"lat":32.53379,"lng":-1.96209,"population":0},{"id":2555262,"name":"Bouabout","timezone":{"dstOffset":1,"gmtOffset":0,"timeZoneId":"Africa/Casablanca"},"lat":31.26554,"lng":-9.17865,"population":0},{"id":2555372,"name":"Bigoudine","timezone":{"dstOffset":1,"gmtOffset":0,"timeZoneId":"Africa/Casablanca"},"lat":30.72376,"lng":-9.21097,"population":0},{"id":2555395,"name":"Bhalil","timezone":{"dstOffset":1,"gmtOffset":0,"timeZoneId":"Africa/Casablanca"},"lat":33.85194,"lng":-4.87228,"population":0},{"id":2556377,"name":"Bab Taza","timezone":{"dstOffset":1,"gmtOffset":0,"timeZoneId":"Africa/Casablanca"},"lat":35.06166,"lng":-5.19828,"population":0},{"id":2556570,"name":"Azilal","timezone":{"dstOffset":1,"gmtOffset":0,"timeZoneId":"Africa/Casablanca"},"lat":31.96156,"lng":-6.57109,"population":0},{"id":2556629,"name":"Azgour","timezone":{"dstOffset":1,"gmtOffset":0,"timeZoneId":"Africa/Casablanca"},"lat":31.13753,"lng":-8.31488,"population":0},{"id":2556835,"name":"Assoul","timezone":{"dstOffset":1,"gmtOffset":0,"timeZoneId":"Africa/Casablanca"},"lat":31.95286,"lng":-5.20812,"population":0},{"id":2556991,"name":"Assads","timezone":{"dstOffset":1,"gmtOffset":0,"timeZoneId":"Africa/Casablanca"},"lat":30.23,"lng":-8.86,"population":0},{"id":2557347,"name":"Argana","timezone":{"dstOffset":1,"gmtOffset":0,"timeZoneId":"Africa/Casablanca"},"lat":30.7825,"lng":-9.11968,"population":0},{"id":2557391,"name":"Arbaoua","timezone":{"dstOffset":1,"gmtOffset":0,"timeZoneId":"Africa/Casablanca"},"lat":34.90239,"lng":-5.94871,"population":0},{"id":2557415,"name":"Arazane","timezone":{"dstOffset":1,"gmtOffset":0,"timeZoneId":"Africa/Casablanca"},"lat":30.50346,"lng":-8.60637,"population":0},{"id":2557500,"name":"Aourir","timezone":{"dstOffset":1,"gmtOffset":0,"timeZoneId":"Africa/Casablanca"},"lat":30.49238,"lng":-9.6355,"population":0},{"id":2557533,"name":"Aoulouz","timezone":{"dstOffset":1,"gmtOffset":0,"timeZoneId":"Africa/Casablanca"},"lat":30.67307,"lng":-8.18087,"population":0},{"id":2557595,"name":"Aoufous","timezone":{"dstOffset":1,"gmtOffset":0,"timeZoneId":"Africa/Casablanca"},"lat":31.68,"lng":-4.17,"population":0},{"id":2557995,"name":"Amouguer","timezone":{"dstOffset":1,"gmtOffset":0,"timeZoneId":"Africa/Casablanca"},"lat":32.27491,"lng":-4.93535,"population":0},{"id":2558052,"name":"Amizmiz","timezone":{"dstOffset":1,"gmtOffset":0,"timeZoneId":"Africa/Casablanca"},"lat":31.21673,"lng":-8.23184,"population":0},{"id":2558118,"name":"Amerzgane","timezone":{"dstOffset":1,"gmtOffset":0,"timeZoneId":"Africa/Casablanca"},"lat":31.0437,"lng":-7.21037,"population":0},{"id":2558122,"name":"Amersid","timezone":{"dstOffset":1,"gmtOffset":0,"timeZoneId":"Africa/Casablanca"},"lat":32.74983,"lng":-4.47063,"population":0},{"id":2558337,"name":"Amalou","timezone":{"dstOffset":1,"gmtOffset":0,"timeZoneId":"Africa/Casablanca"},"lat":30.19153,"lng":-8.74873,"population":0},{"id":2558398,"name":"Alnif","timezone":{"dstOffset":1,"gmtOffset":0,"timeZoneId":"Africa/Casablanca"},"lat":31.11411,"lng":-5.17154,"population":0},{"id":2558415,"name":"Almis Marmoucha","timezone":{"dstOffset":1,"gmtOffset":0,"timeZoneId":"Africa/Casablanca"},"lat":33.32,"lng":-4.18,"population":0},{"id":2558633,"name":"Aknoul","timezone":{"dstOffset":1,"gmtOffset":0,"timeZoneId":"Africa/Casablanca"},"lat":34.65371,"lng":-3.86754,"population":0},{"id":2558768,"name":"Ajdir","timezone":{"dstOffset":1,"gmtOffset":0,"timeZoneId":"Africa/Casablanca"},"lat":34.74347,"lng":-3.97582,"population":0},{"id":2559366,"name":"Anergui","timezone":{"dstOffset":1,"gmtOffset":0,"timeZoneId":"Africa/Casablanca"},"lat":32.06914,"lng":-5.93961,"population":0},{"id":2561290,"name":"Aguelmous","timezone":{"dstOffset":1,"gmtOffset":0,"timeZoneId":"Africa/Casablanca"},"lat":33.16139,"lng":-5.84626,"population":0},{"id":2561539,"name":"Agdz","timezone":{"dstOffset":1,"gmtOffset":0,"timeZoneId":"Africa/Casablanca"},"lat":30.69356,"lng":-6.44628,"population":0},{"id":2561614,"name":"Agadir Melloul","timezone":{"dstOffset":1,"gmtOffset":0,"timeZoneId":"Africa/Casablanca"},"lat":30.22492,"lng":-7.79601,"population":0},{"id":2561957,"name":"Adassil","timezone":{"dstOffset":1,"gmtOffset":0,"timeZoneId":"Africa/Casablanca"},"lat":31.10783,"lng":-8.49083,"population":0},{"id":2561978,"name":"Adar","timezone":{"dstOffset":1,"gmtOffset":0,"timeZoneId":"Africa/Casablanca"},"lat":30.14111,"lng":-8.37221,"population":0},{"id":2562202,"name":"Abadou","timezone":{"dstOffset":1,"gmtOffset":0,"timeZoneId":"Africa/Casablanca"},"lat":31.57917,"lng":-7.31308,"population":0},{"id":2565241,"name":"Mellila","timezone":{"dstOffset":1,"gmtOffset":0,"timeZoneId":"Africa/Casablanca"},"lat":33.38,"lng":-7.14,"population":0},{"id":2565258,"name":"Tidili Mesfioua","timezone":{"dstOffset":1,"gmtOffset":0,"timeZoneId":"Africa/Casablanca"},"lat":31.46586,"lng":-7.61199,"population":0},{"id":2549076,"name":"Ezzhiliga","timezone":{"dstOffset":1,"gmtOffset":0,"timeZoneId":"Africa/Casablanca"},"lat":33.3,"lng":-6.53,"population":0},{"id":2549750,"name":"El Ksiba","timezone":{"dstOffset":1,"gmtOffset":0,"timeZoneId":"Africa/Casablanca"},"lat":32.57286,"lng":-6.01947,"population":0},{"id":2550684,"name":"Ouaoula","timezone":{"dstOffset":1,"gmtOffset":0,"timeZoneId":"Africa/Casablanca"},"lat":31.87,"lng":-6.75,"population":0},{"id":2552306,"name":"Derdara","timezone":{"dstOffset":1,"gmtOffset":0,"timeZoneId":"Africa/Casablanca"},"lat":35.11041,"lng":-5.29015,"population":0},{"id":2552317,"name":"Demnate","timezone":{"dstOffset":1,"gmtOffset":0,"timeZoneId":"Africa/Casablanca"},"lat":31.73443,"lng":-7.00505,"population":0},{"id":2552407,"name":"Debdou","timezone":{"dstOffset":1,"gmtOffset":0,"timeZoneId":"Africa/Casablanca"},"lat":33.98228,"lng":-3.04263,"population":0},{"id":2552531,"name":"Riah","timezone":{"dstOffset":1,"gmtOffset":0,"timeZoneId":"Africa/Casablanca"},"lat":33.15122,"lng":-7.37504,"population":0},{"id":2552545,"name":"Dar Ould Zidouh","timezone":{"dstOffset":1,"gmtOffset":0,"timeZoneId":"Africa/Casablanca"},"lat":32.31247,"lng":-6.90494,"population":0},{"id":2552615,"name":"Dar Bouazza","timezone":{"dstOffset":1,"gmtOffset":0,"timeZoneId":"Africa/Casablanca"},"lat":33.51535,"lng":-7.81677,"population":0},{"id":2552886,"name":"Dar Chaoui","timezone":{"dstOffset":1,"gmtOffset":0,"timeZoneId":"Africa/Casablanca"},"lat":35.5377,"lng":-5.71742,"population":0},{"id":2553303,"name":"Chichaoua","timezone":{"dstOffset":1,"gmtOffset":0,"timeZoneId":"Africa/Casablanca"},"lat":31.54351,"lng":-8.76274,"population":0},{"id":2553654,"name":"Bzou","timezone":{"dstOffset":1,"gmtOffset":0,"timeZoneId":"Africa/Casablanca"},"lat":32.09171,"lng":-7.04786,"population":0},{"id":2553694,"name":"Brikcha","timezone":{"dstOffset":1,"gmtOffset":0,"timeZoneId":"Africa/Casablanca"},"lat":34.96732,"lng":-5.57295,"population":0},{"id":2554006,"name":"Bouskoura","timezone":{"dstOffset":1,"gmtOffset":0,"timeZoneId":"Africa/Casablanca"},"lat":33.44976,"lng":-7.65239,"population":0},{"id":2554281,"name":"Boumia","timezone":{"dstOffset":1,"gmtOffset":0,"timeZoneId":"Africa/Casablanca"},"lat":32.7236,"lng":-5.1025,"population":0},{"id":2554389,"name":"Boulemane","timezone":{"dstOffset":1,"gmtOffset":0,"timeZoneId":"Africa/Casablanca"},"lat":33.36376,"lng":-4.72896,"population":0},{"id":2554409,"name":"Boulaouane","timezone":{"dstOffset":1,"gmtOffset":0,"timeZoneId":"Africa/Casablanca"},"lat":32.85995,"lng":-8.05555,"population":0},{"id":2543667,"name":"Lalla Mimouna","timezone":{"dstOffset":1,"gmtOffset":0,"timeZoneId":"Africa/Casablanca"},"lat":34.84606,"lng":-6.06645,"population":0},{"id":2544510,"name":"Kerrouchen","timezone":{"dstOffset":1,"gmtOffset":0,"timeZoneId":"Africa/Casablanca"},"lat":32.79639,"lng":-5.3188,"population":0},{"id":2544815,"name":"Kariat Arkmane","timezone":{"dstOffset":1,"gmtOffset":0,"timeZoneId":"Africa/Casablanca"},"lat":35.1071,"lng":-2.74693,"population":0},{"id":2544821,"name":"Karia Ba Mohamed","timezone":{"dstOffset":1,"gmtOffset":0,"timeZoneId":"Africa/Casablanca"},"lat":34.37094,"lng":-5.2138,"population":0},{"id":2544968,"name":"Jorf","timezone":{"dstOffset":1,"gmtOffset":0,"timeZoneId":"Africa/Casablanca"},"lat":31.49442,"lng":-4.40598,"population":0},{"id":2545346,"name":"Itzer","timezone":{"dstOffset":1,"gmtOffset":0,"timeZoneId":"Africa/Casablanca"},"lat":32.8783,"lng":-5.0515,"population":0},{"id":2545436,"name":"Isseksi","timezone":{"dstOffset":1,"gmtOffset":0,"timeZoneId":"Africa/Casablanca"},"lat":32.22981,"lng":-6.27661,"population":0},{"id":2545957,"name":"Inezgane","timezone":{"dstOffset":1,"gmtOffset":0,"timeZoneId":"Africa/Casablanca"},"lat":30.35535,"lng":-9.53639,"population":0},{"id":2546081,"name":"Imider","timezone":{"dstOffset":1,"gmtOffset":0,"timeZoneId":"Africa/Casablanca"},"lat":31.37324,"lng":-5.79384,"population":0},{"id":2546187,"name":"Imilchil","timezone":{"dstOffset":1,"gmtOffset":0,"timeZoneId":"Africa/Casablanca"},"lat":32.15309,"lng":-5.62453,"population":0},{"id":2546627,"name":"Iguidi","timezone":{"dstOffset":1,"gmtOffset":0,"timeZoneId":"Africa/Casablanca"},"lat":30.83826,"lng":-7.90294,"population":0},{"id":2546917,"name":"Ifrane","timezone":{"dstOffset":1,"gmtOffset":0,"timeZoneId":"Africa/Casablanca"},"lat":33.52666,"lng":-5.11019,"population":0},{"id":2547782,"name":"Hassi Berkane","timezone":{"dstOffset":1,"gmtOffset":0,"timeZoneId":"Africa/Casablanca"},"lat":34.83898,"lng":-2.86699,"population":0},{"id":2548313,"name":"Zerkten","timezone":{"dstOffset":1,"gmtOffset":0,"timeZoneId":"Africa/Casablanca"},"lat":31.4447,"lng":-7.39224,"population":0},{"id":2548320,"name":"Had Kourt","timezone":{"dstOffset":1,"gmtOffset":0,"timeZoneId":"Africa/Casablanca"},"lat":34.61588,"lng":-5.7404,"population":0},{"id":2548343,"name":"Oulad Frej","timezone":{"dstOffset":1,"gmtOffset":0,"timeZoneId":"Africa/Casablanca"},"lat":32.95956,"lng":-8.2274,"population":0},{"id":2548420,"name":"Guisser","timezone":{"dstOffset":1,"gmtOffset":0,"timeZoneId":"Africa/Casablanca"},"lat":32.76645,"lng":-7.49818,"population":0},{"id":2548503,"name":"Guenfouda","timezone":{"dstOffset":1,"gmtOffset":0,"timeZoneId":"Africa/Casablanca"},"lat":34.48361,"lng":-2.04562,"population":0},{"id":2548623,"name":"Goulmima","timezone":{"dstOffset":1,"gmtOffset":0,"timeZoneId":"Africa/Casablanca"},"lat":31.69227,"lng":-4.95256,"population":0},{"id":2548713,"name":"Galaz","timezone":{"dstOffset":1,"gmtOffset":0,"timeZoneId":"Africa/Casablanca"},"lat":34.54424,"lng":-4.80355,"population":0},{"id":2548855,"name":"Fifi","timezone":{"dstOffset":1,"gmtOffset":0,"timeZoneId":"Africa/Casablanca"},"lat":34.94873,"lng":-5.24798,"population":0},{"id":2548869,"name":"Fezna","timezone":{"dstOffset":1,"gmtOffset":0,"timeZoneId":"Africa/Casablanca"},"lat":31.52921,"lng":-4.45562,"population":0},{"id":2568012,"name":"Taghazout","timezone":{"dstOffset":1,"gmtOffset":0,"timeZoneId":"Africa/Casablanca"},"lat":30.54259,"lng":-9.71115,"population":0},{"id":2568400,"name":"Tamri","timezone":{"dstOffset":1,"gmtOffset":0,"timeZoneId":"Africa/Casablanca"},"lat":30.69602,"lng":-9.82972,"population":0},{"id":2569052,"name":"Smimou","timezone":{"dstOffset":1,"gmtOffset":0,"timeZoneId":"Africa/Casablanca"},"lat":31.21014,"lng":-9.70864,"population":0},{"id":2571059,"name":"Tizgane","timezone":{"dstOffset":1,"gmtOffset":0,"timeZoneId":"Africa/Casablanca"},"lat":35.41211,"lng":-5.06836,"population":0},{"id":2571909,"name":"Bouarouss","timezone":{"dstOffset":1,"gmtOffset":0,"timeZoneId":"Africa/Casablanca"},"lat":34.36,"lng":-4.81,"population":0},{"id":2571932,"name":"Azla","timezone":{"dstOffset":1,"gmtOffset":0,"timeZoneId":"Africa/Casablanca"},"lat":35.55303,"lng":-5.24472,"population":0},{"id":2572146,"name":"Boukhalef","timezone":{"dstOffset":1,"gmtOffset":0,"timeZoneId":"Africa/Casablanca"},"lat":35.7328,"lng":-5.89954,"population":0},{"id":2525874,"name":"Zoumi","timezone":{"dstOffset":1,"gmtOffset":0,"timeZoneId":"Africa/Casablanca"},"lat":34.80321,"lng":-5.34458,"population":0},{"id":2525973,"name":"Zinat","timezone":{"dstOffset":1,"gmtOffset":0,"timeZoneId":"Africa/Casablanca"},"lat":35.43,"lng":-5.4,"population":0},{"id":2526159,"name":"Saddina","timezone":{"dstOffset":1,"gmtOffset":0,"timeZoneId":"Africa/Casablanca"},"lat":35.6141,"lng":-5.45191,"population":0},{"id":2526924,"name":"Touama","timezone":{"dstOffset":1,"gmtOffset":0,"timeZoneId":"Africa/Casablanca"},"lat":31.53501,"lng":-7.49291,"population":0},{"id":2527055,"name":"Tiztoutine","timezone":{"dstOffset":1,"gmtOffset":0,"timeZoneId":"Africa/Casablanca"},"lat":34.97159,"lng":-3.15273,"population":0},{"id":2527184,"name":"Tizguine","timezone":{"dstOffset":1,"gmtOffset":0,"timeZoneId":"Africa/Casablanca"},"lat":31.22836,"lng":-8.31611,"population":0},{"id":2527271,"name":"Tit Mellil","timezone":{"dstOffset":1,"gmtOffset":0,"timeZoneId":"Africa/Casablanca"},"lat":33.55808,"lng":-7.48647,"population":0},{"id":2527366,"name":"Tissa","timezone":{"dstOffset":1,"gmtOffset":0,"timeZoneId":"Africa/Casablanca"},"lat":34.28791,"lng":-4.66372,"population":0},{"id":2527695,"name":"Tiout","timezone":{"dstOffset":1,"gmtOffset":0,"timeZoneId":"Africa/Casablanca"},"lat":30.3887,"lng":-8.69572,"population":0},{"id":2527749,"name":"Tiouli","timezone":{"dstOffset":1,"gmtOffset":0,"timeZoneId":"Africa/Casablanca"},"lat":34.36679,"lng":-1.83705,"population":0},{"id":2528013,"name":"Timoulilt","timezone":{"dstOffset":1,"gmtOffset":0,"timeZoneId":"Africa/Casablanca"},"lat":32.20368,"lng":-6.4666,"population":0},{"id":2528129,"name":"Timezgana","timezone":{"dstOffset":1,"gmtOffset":0,"timeZoneId":"Africa/Casablanca"},"lat":34.58,"lng":-4.73,"population":0},{"id":2528130,"name":"Timezgadiouine","timezone":{"dstOffset":1,"gmtOffset":0,"timeZoneId":"Africa/Casablanca"},"lat":30.88366,"lng":-9.04548,"population":0},{"id":2528258,"name":"Tilmi","timezone":{"dstOffset":1,"gmtOffset":0,"timeZoneId":"Africa/Casablanca"},"lat":31.81794,"lng":-5.76812,"population":0},{"id":2528650,"name":"Tifni","timezone":{"dstOffset":1,"gmtOffset":0,"timeZoneId":"Africa/Casablanca"},"lat":31.62777,"lng":-6.94093,"population":0},{"id":2529013,"name":"Temara","timezone":{"dstOffset":1,"gmtOffset":0,"timeZoneId":"Africa/Casablanca"},"lat":33.92866,"lng":-6.90656,"population":0},{"id":2529019,"name":"Telouet","timezone":{"dstOffset":1,"gmtOffset":0,"timeZoneId":"Africa/Casablanca"},"lat":31.28924,"lng":-7.23789,"population":0},{"id":2529133,"name":"Tazouta","timezone":{"dstOffset":1,"gmtOffset":0,"timeZoneId":"Africa/Casablanca"},"lat":33.66991,"lng":-4.63392,"population":0},{"id":2529245,"name":"Taznakht","timezone":{"dstOffset":1,"gmtOffset":0,"timeZoneId":"Africa/Casablanca"},"lat":30.57836,"lng":-7.20341,"population":0},{"id":2529251,"name":"Tazemmourt","timezone":{"dstOffset":1,"gmtOffset":0,"timeZoneId":"Africa/Casablanca"},"lat":30.40854,"lng":-8.829,"population":0},{"id":2529286,"name":"Tazarine","timezone":{"dstOffset":1,"gmtOffset":0,"timeZoneId":"Africa/Casablanca"},"lat":33.88306,"lng":-4.1862,"population":0},{"id":2529362,"name":"Tata","timezone":{"dstOffset":1,"gmtOffset":0,"timeZoneId":"Africa/Casablanca"},"lat":29.74409,"lng":-7.973,"population":0},{"id":2529621,"name":"Tarsouat","timezone":{"dstOffset":1,"gmtOffset":0,"timeZoneId":"Africa/Casablanca"},"lat":29.58153,"lng":-9.02664,"population":0},{"id":2529656,"name":"Teroual","timezone":{"dstOffset":1,"gmtOffset":0,"timeZoneId":"Africa/Casablanca"},"lat":34.67452,"lng":-5.27331,"population":0},{"id":2529872,"name":"Targuist","timezone":{"dstOffset":1,"gmtOffset":0,"timeZoneId":"Africa/Casablanca"},"lat":34.93769,"lng":-4.31856,"population":0},{"id":2530148,"name":"Taounza","timezone":{"dstOffset":1,"gmtOffset":0,"timeZoneId":"Africa/Casablanca"},"lat":32.09368,"lng":-6.60607,"population":0},{"id":2530160,"name":"Taouloukoult","timezone":{"dstOffset":1,"gmtOffset":0,"timeZoneId":"Africa/Casablanca"},"lat":31.22218,"lng":-9.07943,"population":0},{"id":2530188,"name":"Taouima","timezone":{"dstOffset":1,"gmtOffset":0,"timeZoneId":"Africa/Casablanca"},"lat":35.1299,"lng":-2.9279,"population":0},{"id":2530395,"name":"Tanalt","timezone":{"dstOffset":1,"gmtOffset":0,"timeZoneId":"Africa/Casablanca"},"lat":29.77548,"lng":-9.16796,"population":0},{"id":2530516,"name":"Tamorot","timezone":{"dstOffset":1,"gmtOffset":0,"timeZoneId":"Africa/Casablanca"},"lat":34.93632,"lng":-4.7794,"population":0},{"id":7280528,"name":"Ksar es-Souk","timezone":{"dstOffset":1,"gmtOffset":0,"timeZoneId":"Africa/Casablanca"},"lat":31.9314,"lng":-4.42663,"population":0},{"id":8504942,"name":"Sidi Abdallah Ghiat","timezone":{"dstOffset":1,"gmtOffset":0,"timeZoneId":"Africa/Casablanca"},"lat":31.523,"lng":-7.833,"population":0}]