[{"id":2759794,"name":"Amsterdam","timezone":{"dstOffset":2,"gmtOffset":1,"timeZoneId":"Europe/Amsterdam"},"lat":52.37403,"lng":4.88969,"population":741636},{"id":2747891,"name":"Rotterdam","timezone":{"dstOffset":2,"gmtOffset":1,"timeZoneId":"Europe/Amsterdam"},"lat":51.9225,"lng":4.47917,"population":598199},{"id":2747373,"name":"The Hague","timezone":{"dstOffset":2,"gmtOffset":1,"timeZoneId":"Europe/Amsterdam"},"lat":52.07667,"lng":4.29861,"population":474292},{"id":2745912,"name":"Utrecht","timezone":{"dstOffset":2,"gmtOffset":1,"timeZoneId":"Europe/Amsterdam"},"lat":52.09083,"lng":5.12222,"population":290529},{"id":2756253,"name":"Eindhoven","timezone":{"dstOffset":2,"gmtOffset":1,"timeZoneId":"Europe/Amsterdam"},"lat":51.44083,"lng":5.47778,"population":209620},{"id":2746301,"name":"Tilburg","timezone":{"dstOffset":2,"gmtOffset":1,"timeZoneId":"Europe/Amsterdam"},"lat":51.55551,"lng":5.0913,"population":199613},{"id":2755251,"name":"Groningen","timezone":{"dstOffset":2,"gmtOffset":1,"timeZoneId":"Europe/Amsterdam"},"lat":53.21917,"lng":6.56667,"population":181194},{"id":2759879,"name":"Almere","timezone":{"dstOffset":2,"gmtOffset":1,"timeZoneId":"Europe/Amsterdam"},"lat":52.37025,"lng":5.21413,"population":176432},{"id":2758401,"name":"Breda","timezone":{"dstOffset":2,"gmtOffset":1,"timeZoneId":"Europe/Amsterdam"},"lat":51.58656,"lng":4.77596,"population":167673},{"id":2750053,"name":"Nijmegen","timezone":{"dstOffset":2,"gmtOffset":1,"timeZoneId":"Europe/Amsterdam"},"lat":51.8425,"lng":5.85278,"population":158732},{"id":2756071,"name":"Enschede","timezone":{"dstOffset":2,"gmtOffset":1,"timeZoneId":"Europe/Amsterdam"},"lat":52.21833,"lng":6.89583,"population":153655},{"id":2755003,"name":"Haarlem","timezone":{"dstOffset":2,"gmtOffset":1,"timeZoneId":"Europe/Amsterdam"},"lat":52.38084,"lng":4.63683,"population":147590},{"id":2759661,"name":"Arnhem","timezone":{"dstOffset":2,"gmtOffset":1,"timeZoneId":"Europe/Amsterdam"},"lat":51.98,"lng":5.91111,"population":141674},{"id":2744114,"name":"Zaanstad","timezone":{"dstOffset":2,"gmtOffset":1,"timeZoneId":"Europe/Amsterdam"},"lat":52.45313,"lng":4.81356,"population":140085},{"id":2759821,"name":"Amersfoort","timezone":{"dstOffset":2,"gmtOffset":1,"timeZoneId":"Europe/Amsterdam"},"lat":52.155,"lng":5.3875,"population":139914},{"id":2759706,"name":"Apeldoorn","timezone":{"dstOffset":2,"gmtOffset":1,"timeZoneId":"Europe/Amsterdam"},"lat":52.21,"lng":5.96944,"population":136670},{"id":2747351,"name":"'s-Hertogenbosch","timezone":{"dstOffset":2,"gmtOffset":1,"timeZoneId":"Europe/Amsterdam"},"lat":51.69917,"lng":5.30417,"population":134520},{"id":2753801,"name":"Hoofddorp","timezone":{"dstOffset":2,"gmtOffset":1,"timeZoneId":"Europe/Amsterdam"},"lat":52.3025,"lng":4.68889,"population":132734},{"id":2751283,"name":"Maastricht","timezone":{"dstOffset":2,"gmtOffset":1,"timeZoneId":"Europe/Amsterdam"},"lat":50.84833,"lng":5.68889,"population":122378},{"id":2751773,"name":"Leiden","timezone":{"dstOffset":2,"gmtOffset":1,"timeZoneId":"Europe/Amsterdam"},"lat":52.15833,"lng":4.49306,"population":119713},{"id":2756669,"name":"Dordrecht","timezone":{"dstOffset":2,"gmtOffset":1,"timeZoneId":"Europe/Amsterdam"},"lat":51.81,"lng":4.67361,"population":119260},{"id":2743856,"name":"Zoetermeer","timezone":{"dstOffset":2,"gmtOffset":1,"timeZoneId":"Europe/Amsterdam"},"lat":52.0575,"lng":4.49306,"population":115845},{"id":2743477,"name":"Zwolle","timezone":{"dstOffset":2,"gmtOffset":1,"timeZoneId":"Europe/Amsterdam"},"lat":52.5125,"lng":6.09444,"population":111805},{"id":2756987,"name":"Deventer","timezone":{"dstOffset":2,"gmtOffset":1,"timeZoneId":"Europe/Amsterdam"},"lat":52.255,"lng":6.16389,"population":97331},{"id":2758602,"name":"Born","timezone":{"dstOffset":2,"gmtOffset":1,"timeZoneId":"Europe/Amsterdam"},"lat":51.03167,"lng":5.80972,"population":97169},{"id":2757345,"name":"Delft","timezone":{"dstOffset":2,"gmtOffset":1,"timeZoneId":"Europe/Amsterdam"},"lat":52.00667,"lng":4.35556,"population":95060},{"id":2759899,"name":"Alkmaar","timezone":{"dstOffset":2,"gmtOffset":1,"timeZoneId":"Europe/Amsterdam"},"lat":52.63167,"lng":4.74861,"population":94853},{"id":2754652,"name":"Heerlen","timezone":{"dstOffset":2,"gmtOffset":1,"timeZoneId":"Europe/Amsterdam"},"lat":50.88365,"lng":5.98154,"population":93084},{"id":2745641,"name":"Venlo","timezone":{"dstOffset":2,"gmtOffset":1,"timeZoneId":"Europe/Amsterdam"},"lat":51.37,"lng":6.16806,"population":92403},{"id":2751792,"name":"Leeuwarden","timezone":{"dstOffset":2,"gmtOffset":1,"timeZoneId":"Europe/Amsterdam"},"lat":53.20139,"lng":5.80859,"population":91424},{"id":6544881,"name":"Amsterdam-Zuidoost","timezone":{"dstOffset":2,"gmtOffset":1,"timeZoneId":"Europe/Amsterdam"},"lat":52.3075,"lng":4.97222,"population":84811},{"id":2754064,"name":"Hilversum","timezone":{"dstOffset":2,"gmtOffset":1,"timeZoneId":"Europe/Amsterdam"},"lat":52.22333,"lng":5.17639,"population":83640},{"id":2754394,"name":"Hengelo","timezone":{"dstOffset":2,"gmtOffset":1,"timeZoneId":"Europe/Amsterdam"},"lat":52.26583,"lng":6.79306,"population":80809},{"id":2759798,"name":"Amstelveen","timezone":{"dstOffset":2,"gmtOffset":1,"timeZoneId":"Europe/Amsterdam"},"lat":52.30083,"lng":4.86389,"population":79639},{"id":2747930,"name":"Roosendaal","timezone":{"dstOffset":2,"gmtOffset":1,"timeZoneId":"Europe/Amsterdam"},"lat":51.53083,"lng":4.46528,"population":77725},{"id":2748413,"name":"Purmerend","timezone":{"dstOffset":2,"gmtOffset":1,"timeZoneId":"Europe/Amsterdam"},"lat":52.505,"lng":4.95972,"population":76745},{"id":2749234,"name":"Oss","timezone":{"dstOffset":2,"gmtOffset":1,"timeZoneId":"Europe/Amsterdam"},"lat":51.765,"lng":5.51806,"population":76430},{"id":2747596,"name":"Schiedam","timezone":{"dstOffset":2,"gmtOffset":1,"timeZoneId":"Europe/Amsterdam"},"lat":51.91917,"lng":4.38889,"population":75438},{"id":2746932,"name":"Spijkenisse","timezone":{"dstOffset":2,"gmtOffset":1,"timeZoneId":"Europe/Amsterdam"},"lat":51.845,"lng":4.32917,"population":74988},{"id":2754447,"name":"Helmond","timezone":{"dstOffset":2,"gmtOffset":1,"timeZoneId":"Europe/Amsterdam"},"lat":51.48167,"lng":5.66111,"population":74740},{"id":2745467,"name":"Vlaardingen","timezone":{"dstOffset":2,"gmtOffset":1,"timeZoneId":"Europe/Amsterdam"},"lat":51.9125,"lng":4.34167,"population":73798},{"id":2759887,"name":"Almelo","timezone":{"dstOffset":2,"gmtOffset":1,"timeZoneId":"Europe/Amsterdam"},"lat":52.35667,"lng":6.6625,"population":72725},{"id":2755420,"name":"Gouda","timezone":{"dstOffset":2,"gmtOffset":1,"timeZoneId":"Europe/Amsterdam"},"lat":52.01667,"lng":4.70833,"population":71952},{"id":2744118,"name":"Zaandam","timezone":{"dstOffset":2,"gmtOffset":1,"timeZoneId":"Europe/Amsterdam"},"lat":52.43854,"lng":4.82643,"population":71708},{"id":2751738,"name":"Lelystad","timezone":{"dstOffset":2,"gmtOffset":1,"timeZoneId":"Europe/Amsterdam"},"lat":52.50833,"lng":5.475,"population":70741},{"id":2757347,"name":"Delfshaven","timezone":{"dstOffset":2,"gmtOffset":1,"timeZoneId":"Europe/Amsterdam"},"lat":51.90488,"lng":4.45315,"population":70290},{"id":2759875,"name":"Alphen aan den Rijn","timezone":{"dstOffset":2,"gmtOffset":1,"timeZoneId":"Europe/Amsterdam"},"lat":52.12917,"lng":4.65546,"population":70251},{"id":2753638,"name":"Hoorn","timezone":{"dstOffset":2,"gmtOffset":1,"timeZoneId":"Europe/Amsterdam"},"lat":52.6425,"lng":5.05972,"population":68852},{"id":2745673,"name":"Velsen","timezone":{"dstOffset":2,"gmtOffset":1,"timeZoneId":"Europe/Amsterdam"},"lat":52.46,"lng":4.65,"population":67758},{"id":2756429,"name":"Ede","timezone":{"dstOffset":2,"gmtOffset":1,"timeZoneId":"Europe/Amsterdam"},"lat":52.03333,"lng":5.65833,"population":67670},{"id":2759145,"name":"Bergen op Zoom","timezone":{"dstOffset":2,"gmtOffset":1,"timeZoneId":"Europe/Amsterdam"},"lat":51.495,"lng":4.29167,"population":66256},{"id":2758012,"name":"Capelle aan den IJssel","timezone":{"dstOffset":2,"gmtOffset":1,"timeZoneId":"Europe/Amsterdam"},"lat":51.92917,"lng":4.57778,"population":65255},{"id":2759633,"name":"Assen","timezone":{"dstOffset":2,"gmtOffset":1,"timeZoneId":"Europe/Amsterdam"},"lat":52.99667,"lng":6.5625,"population":62237},{"id":2750325,"name":"Nieuwegein","timezone":{"dstOffset":2,"gmtOffset":1,"timeZoneId":"Europe/Amsterdam"},"lat":52.02917,"lng":5.08056,"population":61489},{"id":2745774,"name":"Veenendaal","timezone":{"dstOffset":2,"gmtOffset":1,"timeZoneId":"Europe/Amsterdam"},"lat":52.02863,"lng":5.55891,"population":61271},{"id":2743977,"name":"Zeist","timezone":{"dstOffset":2,"gmtOffset":1,"timeZoneId":"Europe/Amsterdam"},"lat":52.09,"lng":5.23333,"population":60949},{"id":2757220,"name":"Den Helder","timezone":{"dstOffset":2,"gmtOffset":1,"timeZoneId":"Europe/Amsterdam"},"lat":52.95988,"lng":4.75933,"population":59569},{"id":2754861,"name":"Hardenberg","timezone":{"dstOffset":2,"gmtOffset":1,"timeZoneId":"Europe/Amsterdam"},"lat":52.57583,"lng":6.61944,"population":57909},{"id":2756136,"name":"Emmen","timezone":{"dstOffset":2,"gmtOffset":1,"timeZoneId":"Europe/Amsterdam"},"lat":52.77917,"lng":6.90694,"population":57010},{"id":2749450,"name":"Oosterhout","timezone":{"dstOffset":2,"gmtOffset":1,"timeZoneId":"Europe/Amsterdam"},"lat":51.645,"lng":4.85972,"population":53107},{"id":2756767,"name":"Doetinchem","timezone":{"dstOffset":2,"gmtOffset":1,"timeZoneId":"Europe/Amsterdam"},"lat":51.965,"lng":6.28889,"population":49906},{"id":2752923,"name":"Kerkrade","timezone":{"dstOffset":2,"gmtOffset":1,"timeZoneId":"Europe/Amsterdam"},"lat":50.86583,"lng":6.0625,"population":49777},{"id":2753106,"name":"Kampen","timezone":{"dstOffset":2,"gmtOffset":1,"timeZoneId":"Europe/Amsterdam"},"lat":52.555,"lng":5.91111,"population":48980},{"id":2744911,"name":"Weert","timezone":{"dstOffset":2,"gmtOffset":1,"timeZoneId":"Europe/Amsterdam"},"lat":51.25167,"lng":5.70694,"population":48662},{"id":2744248,"name":"Woerden","timezone":{"dstOffset":2,"gmtOffset":1,"timeZoneId":"Europe/Amsterdam"},"lat":52.085,"lng":4.88333,"population":48431},{"id":2747203,"name":"Sittard","timezone":{"dstOffset":2,"gmtOffset":1,"timeZoneId":"Europe/Amsterdam"},"lat":50.99833,"lng":5.86944,"population":48400},{"id":2754659,"name":"Heerhugowaard","timezone":{"dstOffset":2,"gmtOffset":1,"timeZoneId":"Europe/Amsterdam"},"lat":52.67144,"lng":4.84862,"population":47580},{"id":2748076,"name":"Rijswijk","timezone":{"dstOffset":2,"gmtOffset":1,"timeZoneId":"Europe/Amsterdam"},"lat":52.03634,"lng":4.32501,"population":47299},{"id":2750896,"name":"Middelburg","timezone":{"dstOffset":2,"gmtOffset":1,"timeZoneId":"Europe/Amsterdam"},"lat":51.5,"lng":3.61389,"population":46485},{"id":2756139,"name":"Emmeloord","timezone":{"dstOffset":2,"gmtOffset":1,"timeZoneId":"Europe/Amsterdam"},"lat":52.71083,"lng":5.74861,"population":46409},{"id":2743493,"name":"Zwijndrecht","timezone":{"dstOffset":2,"gmtOffset":1,"timeZoneId":"Europe/Amsterdam"},"lat":51.8175,"lng":4.63333,"population":45696},{"id":2745123,"name":"Waalwijk","timezone":{"dstOffset":2,"gmtOffset":1,"timeZoneId":"Europe/Amsterdam"},"lat":51.6825,"lng":5.07083,"population":45610},{"id":2753468,"name":"Huizen","timezone":{"dstOffset":2,"gmtOffset":1,"timeZoneId":"Europe/Amsterdam"},"lat":52.29917,"lng":5.24167,"population":45292},{"id":2745392,"name":"Flushing","timezone":{"dstOffset":2,"gmtOffset":1,"timeZoneId":"Europe/Amsterdam"},"lat":51.4425,"lng":3.57361,"population":45273},{"id":2748172,"name":"Ridderkerk","timezone":{"dstOffset":2,"gmtOffset":1,"timeZoneId":"Europe/Amsterdam"},"lat":51.8725,"lng":4.60278,"population":45189},{"id":2747034,"name":"Soest","timezone":{"dstOffset":2,"gmtOffset":1,"timeZoneId":"Europe/Amsterdam"},"lat":52.17333,"lng":5.29167,"population":45021},{"id":2748000,"name":"Roermond","timezone":{"dstOffset":2,"gmtOffset":1,"timeZoneId":"Europe/Amsterdam"},"lat":51.19417,"lng":5.9875,"population":44975},{"id":2756644,"name":"Drachten","timezone":{"dstOffset":2,"gmtOffset":1,"timeZoneId":"Europe/Amsterdam"},"lat":53.11254,"lng":6.0989,"population":44537},{"id":2745706,"name":"Veldhoven","timezone":{"dstOffset":2,"gmtOffset":1,"timeZoneId":"Europe/Amsterdam"},"lat":51.41833,"lng":5.40278,"population":43256},{"id":2754669,"name":"Heerenveen","timezone":{"dstOffset":2,"gmtOffset":1,"timeZoneId":"Europe/Amsterdam"},"lat":52.95929,"lng":5.91854,"population":43094},{"id":2754135,"name":"Heusden","timezone":{"dstOffset":2,"gmtOffset":1,"timeZoneId":"Europe/Amsterdam"},"lat":51.73417,"lng":5.13889,"population":42882},{"id":2757783,"name":"De Bilt","timezone":{"dstOffset":2,"gmtOffset":1,"timeZoneId":"Europe/Amsterdam"},"lat":52.11,"lng":5.18056,"population":42111},{"id":2751073,"name":"Medemblik","timezone":{"dstOffset":2,"gmtOffset":1,"timeZoneId":"Europe/Amsterdam"},"lat":52.77167,"lng":5.10556,"population":41500},{"id":2746331,"name":"Tiel","timezone":{"dstOffset":2,"gmtOffset":1,"timeZoneId":"Europe/Amsterdam"},"lat":51.88667,"lng":5.42917,"population":40702},{"id":2754848,"name":"Harderwijk","timezone":{"dstOffset":2,"gmtOffset":1,"timeZoneId":"Europe/Amsterdam"},"lat":52.34167,"lng":5.62083,"population":40516},{"id":2751316,"name":"Maarssen","timezone":{"dstOffset":2,"gmtOffset":1,"timeZoneId":"Europe/Amsterdam"},"lat":52.13917,"lng":5.04167,"population":39675},{"id":2745634,"name":"Venray","timezone":{"dstOffset":2,"gmtOffset":1,"timeZoneId":"Europe/Amsterdam"},"lat":51.525,"lng":5.975,"population":39047},{"id":2753719,"name":"Hoogeveen","timezone":{"dstOffset":2,"gmtOffset":1,"timeZoneId":"Europe/Amsterdam"},"lat":52.7225,"lng":6.47639,"population":38754},{"id":2759426,"name":"Barendrecht","timezone":{"dstOffset":2,"gmtOffset":1,"timeZoneId":"Europe/Amsterdam"},"lat":51.85667,"lng":4.53472,"population":38672},{"id":2756559,"name":"Dronten","timezone":{"dstOffset":2,"gmtOffset":1,"timeZoneId":"Europe/Amsterdam"},"lat":52.525,"lng":5.71806,"population":38415},{"id":2750065,"name":"Nijkerk","timezone":{"dstOffset":2,"gmtOffset":1,"timeZoneId":"Europe/Amsterdam"},"lat":52.22,"lng":5.48611,"population":38335},{"id":2745321,"name":"Voorburg","timezone":{"dstOffset":2,"gmtOffset":1,"timeZoneId":"Europe/Amsterdam"},"lat":52.07417,"lng":4.35972,"population":38000},{"id":2758998,"name":"Beverwijk","timezone":{"dstOffset":2,"gmtOffset":1,"timeZoneId":"Europe/Amsterdam"},"lat":52.48333,"lng":4.65694,"population":37585},{"id":2755476,"name":"Goes","timezone":{"dstOffset":2,"gmtOffset":1,"timeZoneId":"Europe/Amsterdam"},"lat":51.50417,"lng":3.88889,"population":36931},{"id":2743608,"name":"Zutphen","timezone":{"dstOffset":2,"gmtOffset":1,"timeZoneId":"Europe/Amsterdam"},"lat":52.13833,"lng":6.20139,"population":36188},{"id":2754697,"name":"Heemskerk","timezone":{"dstOffset":2,"gmtOffset":1,"timeZoneId":"Europe/Amsterdam"},"lat":52.51108,"lng":4.67165,"population":36170},{"id":2745088,"name":"Wageningen","timezone":{"dstOffset":2,"gmtOffset":1,"timeZoneId":"Europe/Amsterdam"},"lat":51.97,"lng":5.66667,"population":35433},{"id":2757991,"name":"Castricum","timezone":{"dstOffset":2,"gmtOffset":1,"timeZoneId":"Europe/Amsterdam"},"lat":52.54833,"lng":4.66944,"population":35256},{"id":2755434,"name":"Gorinchem","timezone":{"dstOffset":2,"gmtOffset":1,"timeZoneId":"Europe/Amsterdam"},"lat":51.83652,"lng":4.97243,"population":34736},{"id":2746005,"name":"Uden","timezone":{"dstOffset":2,"gmtOffset":1,"timeZoneId":"Europe/Amsterdam"},"lat":51.66083,"lng":5.61944,"population":34601},{"id":2750815,"name":"Mijdrecht","timezone":{"dstOffset":2,"gmtOffset":1,"timeZoneId":"Europe/Amsterdam"},"lat":52.20667,"lng":4.8625,"population":34377},{"id":2753355,"name":"IJsselstein","timezone":{"dstOffset":2,"gmtOffset":1,"timeZoneId":"Europe/Amsterdam"},"lat":52.02,"lng":5.04306,"population":33886},{"id":2756059,"name":"Epe","timezone":{"dstOffset":2,"gmtOffset":1,"timeZoneId":"Europe/Amsterdam"},"lat":52.3475,"lng":5.98333,"population":33385},{"id":2747063,"name":"Sneek","timezone":{"dstOffset":2,"gmtOffset":1,"timeZoneId":"Europe/Amsterdam"},"lat":53.03297,"lng":5.6589,"population":32811},{"id":2751285,"name":"Maassluis","timezone":{"dstOffset":2,"gmtOffset":1,"timeZoneId":"Europe/Amsterdam"},"lat":51.92333,"lng":4.25,"population":32780},{"id":2744514,"name":"Wijchen","timezone":{"dstOffset":2,"gmtOffset":1,"timeZoneId":"Europe/Amsterdam"},"lat":51.80917,"lng":5.725,"population":32693},{"id":2753557,"name":"Houten","timezone":{"dstOffset":2,"gmtOffset":1,"timeZoneId":"Europe/Amsterdam"},"lat":52.02833,"lng":5.16806,"population":32243},{"id":2748729,"name":"Papendrecht","timezone":{"dstOffset":2,"gmtOffset":1,"timeZoneId":"Europe/Amsterdam"},"lat":51.83167,"lng":4.6875,"population":31621},{"id":2749644,"name":"Oldenzaal","timezone":{"dstOffset":2,"gmtOffset":1,"timeZoneId":"Europe/Amsterdam"},"lat":52.31333,"lng":6.92917,"population":31410},{"id":2758064,"name":"Bussum","timezone":{"dstOffset":2,"gmtOffset":1,"timeZoneId":"Europe/Amsterdam"},"lat":52.27333,"lng":5.16111,"population":31334},{"id":2745860,"name":"Valkenswaard","timezone":{"dstOffset":2,"gmtOffset":1,"timeZoneId":"Europe/Amsterdam"},"lat":51.35083,"lng":5.45972,"population":31071},{"id":2750947,"name":"Meppel","timezone":{"dstOffset":2,"gmtOffset":1,"timeZoneId":"Europe/Amsterdam"},"lat":52.69583,"lng":6.19444,"population":30697},{"id":6941548,"name":"Ypenburg","timezone":{"dstOffset":2,"gmtOffset":1,"timeZoneId":"Europe/Amsterdam"},"lat":52.04098,"lng":4.36981,"population":30000},{"id":2744332,"name":"Winterswijk","timezone":{"dstOffset":2,"gmtOffset":1,"timeZoneId":"Europe/Amsterdam"},"lat":51.9725,"lng":6.71944,"population":29623},{"id":2758460,"name":"Boxtel","timezone":{"dstOffset":2,"gmtOffset":1,"timeZoneId":"Europe/Amsterdam"},"lat":51.59083,"lng":5.32917,"population":29511},{"id":2758174,"name":"Brunssum","timezone":{"dstOffset":2,"gmtOffset":1,"timeZoneId":"Europe/Amsterdam"},"lat":50.94667,"lng":5.97083,"population":29254},{"id":2751687,"name":"Leusden","timezone":{"dstOffset":2,"gmtOffset":1,"timeZoneId":"Europe/Amsterdam"},"lat":52.1325,"lng":5.43194,"population":29215},{"id":2759040,"name":"Best","timezone":{"dstOffset":2,"gmtOffset":1,"timeZoneId":"Europe/Amsterdam"},"lat":51.5075,"lng":5.39028,"population":29074},{"id":2752264,"name":"Krimpen aan den IJssel","timezone":{"dstOffset":2,"gmtOffset":1,"timeZoneId":"Europe/Amsterdam"},"lat":51.91667,"lng":4.60278,"population":29017},{"id":2754635,"name":"Heesch","timezone":{"dstOffset":2,"gmtOffset":1,"timeZoneId":"Europe/Amsterdam"},"lat":51.73362,"lng":5.52672,"population":28888},{"id":2753587,"name":"Horst","timezone":{"dstOffset":2,"gmtOffset":1,"timeZoneId":"Europe/Amsterdam"},"lat":52.30833,"lng":5.58194,"population":28845},{"id":2757340,"name":"Delfzijl","timezone":{"dstOffset":2,"gmtOffset":1,"timeZoneId":"Europe/Amsterdam"},"lat":53.33,"lng":6.91806,"population":28649},{"id":2759407,"name":"Barneveld","timezone":{"dstOffset":2,"gmtOffset":1,"timeZoneId":"Europe/Amsterdam"},"lat":52.14,"lng":5.58472,"population":28640},{"id":2745783,"name":"Veendam","timezone":{"dstOffset":2,"gmtOffset":1,"timeZoneId":"Europe/Amsterdam"},"lat":53.10667,"lng":6.87917,"population":28155},{"id":2746420,"name":"Terneuzen","timezone":{"dstOffset":2,"gmtOffset":1,"timeZoneId":"Europe/Amsterdam"},"lat":51.33583,"lng":3.82778,"population":27930},{"id":2755619,"name":"Geldrop","timezone":{"dstOffset":2,"gmtOffset":1,"timeZoneId":"Europe/Amsterdam"},"lat":51.42167,"lng":5.55972,"population":27900},{"id":2745973,"name":"Uithoorn","timezone":{"dstOffset":2,"gmtOffset":1,"timeZoneId":"Europe/Amsterdam"},"lat":52.2375,"lng":4.82639,"population":26846},{"id":2757872,"name":"Culemborg","timezone":{"dstOffset":2,"gmtOffset":1,"timeZoneId":"Europe/Amsterdam"},"lat":51.955,"lng":5.22778,"population":26826},{"id":2756569,"name":"Drimmelen","timezone":{"dstOffset":2,"gmtOffset":1,"timeZoneId":"Europe/Amsterdam"},"lat":51.70667,"lng":4.80417,"population":26580},{"id":2757850,"name":"Dalfsen","timezone":{"dstOffset":2,"gmtOffset":1,"timeZoneId":"Europe/Amsterdam"},"lat":52.51167,"lng":6.25694,"population":26575},{"id":2756039,"name":"Ermelo","timezone":{"dstOffset":2,"gmtOffset":1,"timeZoneId":"Europe/Amsterdam"},"lat":52.29833,"lng":5.62222,"population":26428},{"id":2744102,"name":"Zaltbommel","timezone":{"dstOffset":2,"gmtOffset":1,"timeZoneId":"Europe/Amsterdam"},"lat":51.81,"lng":5.24444,"population":26383},{"id":2744827,"name":"Werkendam","timezone":{"dstOffset":2,"gmtOffset":1,"timeZoneId":"Europe/Amsterdam"},"lat":51.81,"lng":4.89444,"population":26362},{"id":2758621,"name":"Borger","timezone":{"dstOffset":2,"gmtOffset":1,"timeZoneId":"Europe/Amsterdam"},"lat":52.92333,"lng":6.79306,"population":26267},{"id":2743949,"name":"Zevenaar","timezone":{"dstOffset":2,"gmtOffset":1,"timeZoneId":"Europe/Amsterdam"},"lat":51.93,"lng":6.07083,"population":26063},{"id":2749680,"name":"Oisterwijk","timezone":{"dstOffset":2,"gmtOffset":1,"timeZoneId":"Europe/Amsterdam"},"lat":51.57917,"lng":5.18889,"population":25980},{"id":2751771,"name":"Leiderdorp","timezone":{"dstOffset":2,"gmtOffset":1,"timeZoneId":"Europe/Amsterdam"},"lat":52.15833,"lng":4.52917,"population":25966},{"id":2755633,"name":"Geldermalsen","timezone":{"dstOffset":2,"gmtOffset":1,"timeZoneId":"Europe/Amsterdam"},"lat":51.88083,"lng":5.28889,"population":25734},{"id":2754692,"name":"Heemstede","timezone":{"dstOffset":2,"gmtOffset":1,"timeZoneId":"Europe/Amsterdam"},"lat":52.34992,"lng":4.62301,"population":25562},{"id":2759016,"name":"Beuningen","timezone":{"dstOffset":2,"gmtOffset":1,"timeZoneId":"Europe/Amsterdam"},"lat":51.86083,"lng":5.76667,"population":25557},{"id":2758245,"name":"Broek op Langedijk","timezone":{"dstOffset":2,"gmtOffset":1,"timeZoneId":"Europe/Amsterdam"},"lat":52.67417,"lng":4.80556,"population":25548},{"id":2744194,"name":"Wolvega","timezone":{"dstOffset":2,"gmtOffset":1,"timeZoneId":"Europe/Amsterdam"},"lat":52.87545,"lng":5.99691,"population":25500},{"id":2756507,"name":"Duiven","timezone":{"dstOffset":2,"gmtOffset":1,"timeZoneId":"Europe/Amsterdam"},"lat":51.94667,"lng":6.01389,"population":25469},{"id":2756723,"name":"Dongen","timezone":{"dstOffset":2,"gmtOffset":1,"timeZoneId":"Europe/Amsterdam"},"lat":51.62667,"lng":4.93889,"population":25464},{"id":2744991,"name":"Wassenaar","timezone":{"dstOffset":2,"gmtOffset":1,"timeZoneId":"Europe/Amsterdam"},"lat":52.14583,"lng":4.40278,"population":25353},{"id":2745726,"name":"Veghel","timezone":{"dstOffset":2,"gmtOffset":1,"timeZoneId":"Europe/Amsterdam"},"lat":51.61667,"lng":5.54861,"population":25352},{"id":2745096,"name":"Waddinxveen","timezone":{"dstOffset":2,"gmtOffset":1,"timeZoneId":"Europe/Amsterdam"},"lat":52.045,"lng":4.65139,"population":25338},{"id":2759746,"name":"Anloo","timezone":{"dstOffset":2,"gmtOffset":1,"timeZoneId":"Europe/Amsterdam"},"lat":53.04417,"lng":6.70139,"population":25118},{"id":2745154,"name":"Vught","timezone":{"dstOffset":2,"gmtOffset":1,"timeZoneId":"Europe/Amsterdam"},"lat":51.65333,"lng":5.2875,"population":25043},{"id":2753996,"name":"Hoensbroek","timezone":{"dstOffset":2,"gmtOffset":1,"timeZoneId":"Europe/Amsterdam"},"lat":50.92387,"lng":5.92528,"population":25000},{"id":2759544,"name":"Baarn","timezone":{"dstOffset":2,"gmtOffset":1,"timeZoneId":"Europe/Amsterdam"},"lat":52.21167,"lng":5.2875,"population":24584},{"id":2749812,"name":"Noordwijk-Binnen","timezone":{"dstOffset":2,"gmtOffset":1,"timeZoneId":"Europe/Amsterdam"},"lat":52.234,"lng":4.44474,"population":24363},{"id":2756888,"name":"Diemen","timezone":{"dstOffset":2,"gmtOffset":1,"timeZoneId":"Europe/Amsterdam"},"lat":52.33964,"lng":4.96256,"population":24361},{"id":2755030,"name":"Haaksbergen","timezone":{"dstOffset":2,"gmtOffset":1,"timeZoneId":"Europe/Amsterdam"},"lat":52.15667,"lng":6.73889,"population":24137},{"id":2757874,"name":"Cuijk","timezone":{"dstOffset":2,"gmtOffset":1,"timeZoneId":"Europe/Amsterdam"},"lat":51.73083,"lng":5.87917,"population":24032},{"id":2747169,"name":"Sliedrecht","timezone":{"dstOffset":2,"gmtOffset":1,"timeZoneId":"Europe/Amsterdam"},"lat":51.82083,"lng":4.77639,"population":23854},{"id":2744483,"name":"Wijk bij Duurstede","timezone":{"dstOffset":2,"gmtOffset":1,"timeZoneId":"Europe/Amsterdam"},"lat":51.97417,"lng":5.34167,"population":23693},{"id":2745297,"name":"Voorst","timezone":{"dstOffset":2,"gmtOffset":1,"timeZoneId":"Europe/Amsterdam"},"lat":52.17,"lng":6.14167,"population":23676},{"id":2746804,"name":"Steenbergen","timezone":{"dstOffset":2,"gmtOffset":1,"timeZoneId":"Europe/Amsterdam"},"lat":51.58417,"lng":4.31944,"population":23582},{"id":2749182,"name":"Oud-Beijerland","timezone":{"dstOffset":2,"gmtOffset":1,"timeZoneId":"Europe/Amsterdam"},"lat":51.82417,"lng":4.4125,"population":23569},{"id":2744549,"name":"Wierden","timezone":{"dstOffset":2,"gmtOffset":1,"timeZoneId":"Europe/Amsterdam"},"lat":52.35917,"lng":6.59306,"population":23244},{"id":2747584,"name":"Schijndel","timezone":{"dstOffset":2,"gmtOffset":1,"timeZoneId":"Europe/Amsterdam"},"lat":51.6225,"lng":5.43194,"population":23239},{"id":2749780,"name":"Nuenen","timezone":{"dstOffset":2,"gmtOffset":1,"timeZoneId":"Europe/Amsterdam"},"lat":51.47,"lng":5.55278,"population":23223},{"id":2748392,"name":"Putten","timezone":{"dstOffset":2,"gmtOffset":1,"timeZoneId":"Europe/Amsterdam"},"lat":52.25917,"lng":5.60694,"population":23168},{"id":2749668,"name":"Oldebroek","timezone":{"dstOffset":2,"gmtOffset":1,"timeZoneId":"Europe/Amsterdam"},"lat":52.445,"lng":5.90139,"population":23010},{"id":2751456,"name":"Loon op Zand","timezone":{"dstOffset":2,"gmtOffset":1,"timeZoneId":"Europe/Amsterdam"},"lat":51.6275,"lng":5.075,"population":23000},{"id":2747599,"name":"Scheveningen","timezone":{"dstOffset":2,"gmtOffset":1,"timeZoneId":"Europe/Amsterdam"},"lat":52.10461,"lng":4.27557,"population":23000},{"id":2760134,"name":"Aalsmeer","timezone":{"dstOffset":2,"gmtOffset":1,"timeZoneId":"Europe/Amsterdam"},"lat":52.25917,"lng":4.75972,"population":22991},{"id":2755464,"name":"Goirle","timezone":{"dstOffset":2,"gmtOffset":1,"timeZoneId":"Europe/Amsterdam"},"lat":51.52083,"lng":5.06667,"population":22646},{"id":2747858,"name":"Rucphen","timezone":{"dstOffset":2,"gmtOffset":1,"timeZoneId":"Europe/Amsterdam"},"lat":51.53167,"lng":4.55833,"population":22641},{"id":2745301,"name":"Voorschoten","timezone":{"dstOffset":2,"gmtOffset":1,"timeZoneId":"Europe/Amsterdam"},"lat":52.1275,"lng":4.44861,"population":22468},{"id":2751424,"name":"Losser","timezone":{"dstOffset":2,"gmtOffset":1,"timeZoneId":"Europe/Amsterdam"},"lat":52.26083,"lng":7.00417,"population":22431},{"id":2758587,"name":"Borsele","timezone":{"dstOffset":2,"gmtOffset":1,"timeZoneId":"Europe/Amsterdam"},"lat":51.42333,"lng":3.73472,"population":22285},{"id":2745739,"name":"Veere","timezone":{"dstOffset":2,"gmtOffset":1,"timeZoneId":"Europe/Amsterdam"},"lat":51.54833,"lng":3.66667,"population":22173},{"id":2751547,"name":"Lisse","timezone":{"dstOffset":2,"gmtOffset":1,"timeZoneId":"Europe/Amsterdam"},"lat":52.26,"lng":4.55694,"population":22096},{"id":2745340,"name":"Volendam","timezone":{"dstOffset":2,"gmtOffset":1,"timeZoneId":"Europe/Amsterdam"},"lat":52.495,"lng":5.07083,"population":22000},{"id":2754454,"name":"Hellevoetsluis","timezone":{"dstOffset":2,"gmtOffset":1,"timeZoneId":"Europe/Amsterdam"},"lat":51.83333,"lng":4.13333,"population":21927},{"id":2756232,"name":"Elburg","timezone":{"dstOffset":2,"gmtOffset":1,"timeZoneId":"Europe/Amsterdam"},"lat":52.4475,"lng":5.84306,"population":21844},{"id":2753706,"name":"Hoogezand","timezone":{"dstOffset":2,"gmtOffset":1,"timeZoneId":"Europe/Amsterdam"},"lat":53.16167,"lng":6.76111,"population":21480},{"id":2758177,"name":"Brummen","timezone":{"dstOffset":2,"gmtOffset":1,"timeZoneId":"Europe/Amsterdam"},"lat":52.09,"lng":6.15556,"population":21344},{"id":2744257,"name":"Woensdrecht","timezone":{"dstOffset":2,"gmtOffset":1,"timeZoneId":"Europe/Amsterdam"},"lat":51.42897,"lng":4.30355,"population":21276},{"id":2749723,"name":"Oegstgeest","timezone":{"dstOffset":2,"gmtOffset":1,"timeZoneId":"Europe/Amsterdam"},"lat":52.18,"lng":4.46944,"population":21149},{"id":2754408,"name":"Hendrik-Ido-Ambacht","timezone":{"dstOffset":2,"gmtOffset":1,"timeZoneId":"Europe/Amsterdam"},"lat":51.84417,"lng":4.63889,"population":21027},{"id":2755669,"name":"Geertruidenberg","timezone":{"dstOffset":2,"gmtOffset":1,"timeZoneId":"Europe/Amsterdam"},"lat":51.70167,"lng":4.85694,"population":20941},{"id":2751808,"name":"Leerdam","timezone":{"dstOffset":2,"gmtOffset":1,"timeZoneId":"Europe/Amsterdam"},"lat":51.89333,"lng":5.09167,"population":20758},{"id":2755599,"name":"Gendringen","timezone":{"dstOffset":2,"gmtOffset":1,"timeZoneId":"Europe/Amsterdam"},"lat":51.87333,"lng":6.37639,"population":20718},{"id":2758598,"name":"Borne","timezone":{"dstOffset":2,"gmtOffset":1,"timeZoneId":"Europe/Amsterdam"},"lat":52.30136,"lng":6.7482,"population":20550},{"id":2754516,"name":"Heiloo","timezone":{"dstOffset":2,"gmtOffset":1,"timeZoneId":"Europe/Amsterdam"},"lat":52.60252,"lng":4.68815,"population":20510},{"id":2756161,"name":"Elst","timezone":{"dstOffset":2,"gmtOffset":1,"timeZoneId":"Europe/Amsterdam"},"lat":51.91917,"lng":5.84167,"population":20488},{"id":2743619,"name":"Zundert","timezone":{"dstOffset":2,"gmtOffset":1,"timeZoneId":"Europe/Amsterdam"},"lat":51.47167,"lng":4.65556,"population":20476},{"id":2746133,"name":"Tubbergen","timezone":{"dstOffset":2,"gmtOffset":1,"timeZoneId":"Europe/Amsterdam"},"lat":52.4075,"lng":6.78472,"population":20334},{"id":2746504,"name":"Tegelen","timezone":{"dstOffset":2,"gmtOffset":1,"timeZoneId":"Europe/Amsterdam"},"lat":51.34417,"lng":6.13611,"population":20190},{"id":6929992,"name":"Berkel en Rodenrijs","timezone":{"dstOffset":2,"gmtOffset":1,"timeZoneId":"Europe/Amsterdam"},"lat":51.99313,"lng":4.47865,"population":20189},{"id":2748371,"name":"Raalte","timezone":{"dstOffset":2,"gmtOffset":1,"timeZoneId":"Europe/Amsterdam"},"lat":52.38583,"lng":6.275,"population":20015},{"id":2753010,"name":"Katwijk aan Zee","timezone":{"dstOffset":2,"gmtOffset":1,"timeZoneId":"Europe/Amsterdam"},"lat":52.20333,"lng":4.39861,"population":20010},{"id":2746860,"name":"Stadskanaal","timezone":{"dstOffset":2,"gmtOffset":1,"timeZoneId":"Europe/Amsterdam"},"lat":52.98947,"lng":6.9504,"population":20000},{"id":2757890,"name":"Cranendonck","timezone":{"dstOffset":2,"gmtOffset":1,"timeZoneId":"Europe/Amsterdam"},"lat":51.30417,"lng":5.58889,"population":19966},{"id":2751037,"name":"Meerssen","timezone":{"dstOffset":2,"gmtOffset":1,"timeZoneId":"Europe/Amsterdam"},"lat":50.8875,"lng":5.75,"population":19933},{"id":2745580,"name":"Vianen","timezone":{"dstOffset":2,"gmtOffset":1,"timeZoneId":"Europe/Amsterdam"},"lat":51.9925,"lng":5.09167,"population":19931},{"id":2746215,"name":"Tongelre","timezone":{"dstOffset":2,"gmtOffset":1,"timeZoneId":"Europe/Amsterdam"},"lat":51.44889,"lng":5.51978,"population":19680},{"id":2751834,"name":"Leek","timezone":{"dstOffset":2,"gmtOffset":1,"timeZoneId":"Europe/Amsterdam"},"lat":53.1625,"lng":6.37639,"population":19651},{"id":2751651,"name":"Lichtenvoorde","timezone":{"dstOffset":2,"gmtOffset":1,"timeZoneId":"Europe/Amsterdam"},"lat":51.98667,"lng":6.56667,"population":19590},{"id":2744324,"name":"Wisch","timezone":{"dstOffset":2,"gmtOffset":1,"timeZoneId":"Europe/Amsterdam"},"lat":51.92648,"lng":6.41705,"population":19496},{"id":2749756,"name":"Nunspeet","timezone":{"dstOffset":2,"gmtOffset":1,"timeZoneId":"Europe/Amsterdam"},"lat":52.37917,"lng":5.78611,"population":19496},{"id":2758765,"name":"Bodegraven","timezone":{"dstOffset":2,"gmtOffset":1,"timeZoneId":"Europe/Amsterdam"},"lat":52.0825,"lng":4.75,"population":19395},{"id":2758878,"name":"Bladel","timezone":{"dstOffset":2,"gmtOffset":1,"timeZoneId":"Europe/Amsterdam"},"lat":51.36833,"lng":5.22083,"population":19214},{"id":2747364,"name":"'s-Gravenzande","timezone":{"dstOffset":2,"gmtOffset":1,"timeZoneId":"Europe/Amsterdam"},"lat":52.00167,"lng":4.16528,"population":19190},{"id":2760123,"name":"Aalten","timezone":{"dstOffset":2,"gmtOffset":1,"timeZoneId":"Europe/Amsterdam"},"lat":51.925,"lng":6.58056,"population":19141},{"id":2754841,"name":"Haren","timezone":{"dstOffset":2,"gmtOffset":1,"timeZoneId":"Europe/Amsterdam"},"lat":53.17209,"lng":6.60931,"population":19088},{"id":2743997,"name":"Zeewolde","timezone":{"dstOffset":2,"gmtOffset":1,"timeZoneId":"Europe/Amsterdam"},"lat":52.33,"lng":5.54167,"population":19022},{"id":2759178,"name":"Benthuizen","timezone":{"dstOffset":2,"gmtOffset":1,"timeZoneId":"Europe/Amsterdam"},"lat":52.0775,"lng":4.54444,"population":18959},{"id":2747720,"name":"Schagen","timezone":{"dstOffset":2,"gmtOffset":1,"timeZoneId":"Europe/Amsterdam"},"lat":52.7875,"lng":4.79861,"population":18930},{"id":2755272,"name":"Groesbeek","timezone":{"dstOffset":2,"gmtOffset":1,"timeZoneId":"Europe/Amsterdam"},"lat":51.77667,"lng":5.93611,"population":18741},{"id":2748591,"name":"Pijnacker","timezone":{"dstOffset":2,"gmtOffset":1,"timeZoneId":"Europe/Amsterdam"},"lat":52.01954,"lng":4.42946,"population":18695},{"id":2756619,"name":"Driebergen-Rijsenburg","timezone":{"dstOffset":2,"gmtOffset":1,"timeZoneId":"Europe/Amsterdam"},"lat":52.05333,"lng":5.28056,"population":18553},{"id":2744344,"name":"Winschoten","timezone":{"dstOffset":2,"gmtOffset":1,"timeZoneId":"Europe/Amsterdam"},"lat":53.14417,"lng":7.03472,"population":18506},{"id":2754681,"name":"Heerde","timezone":{"dstOffset":2,"gmtOffset":1,"timeZoneId":"Europe/Amsterdam"},"lat":52.38723,"lng":6.04016,"population":18428},{"id":2754073,"name":"Hillegom","timezone":{"dstOffset":2,"gmtOffset":1,"timeZoneId":"Europe/Amsterdam"},"lat":52.29083,"lng":4.58333,"population":18419},{"id":2759915,"name":"Alblasserdam","timezone":{"dstOffset":2,"gmtOffset":1,"timeZoneId":"Europe/Amsterdam"},"lat":51.86583,"lng":4.66111,"population":18348},{"id":2748178,"name":"Rhoon","timezone":{"dstOffset":2,"gmtOffset":1,"timeZoneId":"Europe/Amsterdam"},"lat":51.8575,"lng":4.42222,"population":18250},{"id":2756342,"name":"Eersel","timezone":{"dstOffset":2,"gmtOffset":1,"timeZoneId":"Europe/Amsterdam"},"lat":51.3575,"lng":5.31806,"population":18185},{"id":2759132,"name":"Bergeijk","timezone":{"dstOffset":2,"gmtOffset":1,"timeZoneId":"Europe/Amsterdam"},"lat":51.31917,"lng":5.35833,"population":18181},{"id":2748185,"name":"Rhenen","timezone":{"dstOffset":2,"gmtOffset":1,"timeZoneId":"Europe/Amsterdam"},"lat":51.95917,"lng":5.56806,"population":18061},{"id":2747021,"name":"Someren","timezone":{"dstOffset":2,"gmtOffset":1,"timeZoneId":"Europe/Amsterdam"},"lat":51.385,"lng":5.71111,"population":18037},{"id":2756539,"name":"Druten","timezone":{"dstOffset":2,"gmtOffset":1,"timeZoneId":"Europe/Amsterdam"},"lat":51.88833,"lng":5.60556,"population":18003},{"id":2758104,"name":"Bunschoten","timezone":{"dstOffset":2,"gmtOffset":1,"timeZoneId":"Europe/Amsterdam"},"lat":52.24304,"lng":5.37884,"population":17824},{"id":2744904,"name":"Weesp","timezone":{"dstOffset":2,"gmtOffset":1,"timeZoneId":"Europe/Amsterdam"},"lat":52.3075,"lng":5.04167,"population":17802},{"id":2750523,"name":"Naaldwijk","timezone":{"dstOffset":2,"gmtOffset":1,"timeZoneId":"Europe/Amsterdam"},"lat":51.99417,"lng":4.20972,"population":17753},{"id":2745677,"name":"Velp","timezone":{"dstOffset":2,"gmtOffset":1,"timeZoneId":"Europe/Amsterdam"},"lat":51.995,"lng":5.97361,"population":17669},{"id":2750884,"name":"Middelharnis","timezone":{"dstOffset":2,"gmtOffset":1,"timeZoneId":"Europe/Amsterdam"},"lat":51.7575,"lng":4.16528,"population":17554},{"id":2758258,"name":"Broek in Waterland","timezone":{"dstOffset":2,"gmtOffset":1,"timeZoneId":"Europe/Amsterdam"},"lat":52.43417,"lng":4.99583,"population":17382},{"id":2756077,"name":"Enkhuizen","timezone":{"dstOffset":2,"gmtOffset":1,"timeZoneId":"Europe/Amsterdam"},"lat":52.70333,"lng":5.29167,"population":17365},{"id":2745932,"name":"Urk","timezone":{"dstOffset":2,"gmtOffset":1,"timeZoneId":"Europe/Amsterdam"},"lat":52.6625,"lng":5.60139,"population":17345},{"id":2745461,"name":"Vlagtwedde","timezone":{"dstOffset":2,"gmtOffset":1,"timeZoneId":"Europe/Amsterdam"},"lat":53.0275,"lng":7.10833,"population":17286},{"id":2759350,"name":"Beek","timezone":{"dstOffset":2,"gmtOffset":1,"timeZoneId":"Europe/Amsterdam"},"lat":50.94083,"lng":5.79722,"population":17144},{"id":2746766,"name":"Steenwijk","timezone":{"dstOffset":2,"gmtOffset":1,"timeZoneId":"Europe/Amsterdam"},"lat":52.7875,"lng":6.12083,"population":17138},{"id":2750521,"name":"Naarden","timezone":{"dstOffset":2,"gmtOffset":1,"timeZoneId":"Europe/Amsterdam"},"lat":52.29583,"lng":5.1625,"population":17115},{"id":2747227,"name":"Sint-Oedenrode","timezone":{"dstOffset":2,"gmtOffset":1,"timeZoneId":"Europe/Amsterdam"},"lat":51.5675,"lng":5.45972,"population":16931},{"id":2744042,"name":"Zandvoort","timezone":{"dstOffset":2,"gmtOffset":1,"timeZoneId":"Europe/Amsterdam"},"lat":52.37487,"lng":4.53409,"population":16868},{"id":2758804,"name":"Bloemendaal","timezone":{"dstOffset":2,"gmtOffset":1,"timeZoneId":"Europe/Amsterdam"},"lat":52.4025,"lng":4.62222,"population":16802},{"id":2752420,"name":"Korrewegwijk","timezone":{"dstOffset":2,"gmtOffset":1,"timeZoneId":"Europe/Amsterdam"},"lat":53.23235,"lng":6.56804,"population":16710},{"id":2745127,"name":"Waalre","timezone":{"dstOffset":2,"gmtOffset":1,"timeZoneId":"Europe/Amsterdam"},"lat":51.38667,"lng":5.44444,"population":16665},{"id":2755584,"name":"Gennep","timezone":{"dstOffset":2,"gmtOffset":1,"timeZoneId":"Europe/Amsterdam"},"lat":51.69833,"lng":5.97361,"population":16642},{"id":2759113,"name":"Bergschenhoek","timezone":{"dstOffset":2,"gmtOffset":1,"timeZoneId":"Europe/Amsterdam"},"lat":51.99,"lng":4.49861,"population":16579},{"id":2756295,"name":"Eibergen","timezone":{"dstOffset":2,"gmtOffset":1,"timeZoneId":"Europe/Amsterdam"},"lat":52.1,"lng":6.64861,"population":16493},{"id":2759621,"name":"Asten","timezone":{"dstOffset":2,"gmtOffset":1,"timeZoneId":"Europe/Amsterdam"},"lat":51.40417,"lng":5.74861,"population":16185},{"id":2751582,"name":"Lindenholt","timezone":{"dstOffset":2,"gmtOffset":1,"timeZoneId":"Europe/Amsterdam"},"lat":51.8327,"lng":5.7934,"population":16121},{"id":2754817,"name":"Harlingen","timezone":{"dstOffset":2,"gmtOffset":1,"timeZoneId":"Europe/Amsterdam"},"lat":53.17477,"lng":5.42244,"population":16119},{"id":2750467,"name":"Nederweert","timezone":{"dstOffset":2,"gmtOffset":1,"timeZoneId":"Europe/Amsterdam"},"lat":51.28583,"lng":5.74861,"population":16095},{"id":2753955,"name":"Hoge Vucht","timezone":{"dstOffset":2,"gmtOffset":1,"timeZoneId":"Europe/Amsterdam"},"lat":51.60794,"lng":4.7915,"population":16000},{"id":2744675,"name":"Westervoort","timezone":{"dstOffset":2,"gmtOffset":1,"timeZoneId":"Europe/Amsterdam"},"lat":51.95583,"lng":5.97222,"population":15976},{"id":2754837,"name":"Harenkarspel","timezone":{"dstOffset":2,"gmtOffset":1,"timeZoneId":"Europe/Amsterdam"},"lat":52.73416,"lng":4.77682,"population":15941},{"id":2746839,"name":"Staphorst","timezone":{"dstOffset":2,"gmtOffset":1,"timeZoneId":"Europe/Amsterdam"},"lat":52.645,"lng":6.21111,"population":15765},{"id":2749753,"name":"Nuth","timezone":{"dstOffset":2,"gmtOffset":1,"timeZoneId":"Europe/Amsterdam"},"lat":50.9175,"lng":5.88611,"population":15748},{"id":2758547,"name":"Boskoop","timezone":{"dstOffset":2,"gmtOffset":1,"timeZoneId":"Europe/Amsterdam"},"lat":52.075,"lng":4.65556,"population":15222},{"id":2745311,"name":"Voorhout","timezone":{"dstOffset":2,"gmtOffset":1,"timeZoneId":"Europe/Amsterdam"},"lat":52.22167,"lng":4.48472,"population":15145},{"id":2754066,"name":"Hilvarenbeek","timezone":{"dstOffset":2,"gmtOffset":1,"timeZoneId":"Europe/Amsterdam"},"lat":51.48583,"lng":5.1375,"population":15113},{"id":2749811,"name":"Noordwijkerhout","timezone":{"dstOffset":2,"gmtOffset":1,"timeZoneId":"Europe/Amsterdam"},"lat":52.26167,"lng":4.49306,"population":15071},{"id":2748104,"name":"Rijnsburg","timezone":{"dstOffset":2,"gmtOffset":1,"timeZoneId":"Europe/Amsterdam"},"lat":52.19,"lng":4.44167,"population":14925},{"id":2756865,"name":"Dieren","timezone":{"dstOffset":2,"gmtOffset":1,"timeZoneId":"Europe/Amsterdam"},"lat":52.0525,"lng":6.1,"population":14842},{"id":2747751,"name":"Sassenheim","timezone":{"dstOffset":2,"gmtOffset":1,"timeZoneId":"Europe/Amsterdam"},"lat":52.225,"lng":4.52222,"population":14817},{"id":2759197,"name":"Bennekom","timezone":{"dstOffset":2,"gmtOffset":1,"timeZoneId":"Europe/Amsterdam"},"lat":51.99833,"lng":5.67639,"population":14810},{"id":2747143,"name":"Slochteren","timezone":{"dstOffset":2,"gmtOffset":1,"timeZoneId":"Europe/Amsterdam"},"lat":53.22078,"lng":6.80547,"population":14696},{"id":2757937,"name":"Coevorden","timezone":{"dstOffset":2,"gmtOffset":1,"timeZoneId":"Europe/Amsterdam"},"lat":52.66103,"lng":6.74046,"population":14600},{"id":2758333,"name":"Breukelen","timezone":{"dstOffset":2,"gmtOffset":1,"timeZoneId":"Europe/Amsterdam"},"lat":52.17417,"lng":5.00139,"population":14498},{"id":2744337,"name":"Winsum","timezone":{"dstOffset":2,"gmtOffset":1,"timeZoneId":"Europe/Amsterdam"},"lat":53.33,"lng":6.52083,"population":14310},{"id":2744156,"name":"Woudrichem","timezone":{"dstOffset":2,"gmtOffset":1,"timeZoneId":"Europe/Amsterdam"},"lat":51.815,"lng":5.00139,"population":14208},{"id":2758106,"name":"Bunnik","timezone":{"dstOffset":2,"gmtOffset":1,"timeZoneId":"Europe/Amsterdam"},"lat":52.06667,"lng":5.19861,"population":14064},{"id":2755009,"name":"Haaren","timezone":{"dstOffset":2,"gmtOffset":1,"timeZoneId":"Europe/Amsterdam"},"lat":51.6025,"lng":5.22222,"population":14031},{"id":2751436,"name":"Lopik","timezone":{"dstOffset":2,"gmtOffset":1,"timeZoneId":"Europe/Amsterdam"},"lat":51.9725,"lng":4.94861,"population":14013},{"id":2751303,"name":"Maasbracht","timezone":{"dstOffset":2,"gmtOffset":1,"timeZoneId":"Europe/Amsterdam"},"lat":51.13929,"lng":5.88627,"population":13717},{"id":2751199,"name":"Margraten","timezone":{"dstOffset":2,"gmtOffset":1,"timeZoneId":"Europe/Amsterdam"},"lat":50.82083,"lng":5.82083,"population":13510},{"id":2746060,"name":"Twello","timezone":{"dstOffset":2,"gmtOffset":1,"timeZoneId":"Europe/Amsterdam"},"lat":52.23667,"lng":6.10278,"population":13500},{"id":2750626,"name":"Montfoort","timezone":{"dstOffset":2,"gmtOffset":1,"timeZoneId":"Europe/Amsterdam"},"lat":52.04583,"lng":4.95278,"population":13395},{"id":2749034,"name":"Oude Pekela","timezone":{"dstOffset":2,"gmtOffset":1,"timeZoneId":"Europe/Amsterdam"},"lat":53.10417,"lng":7.00972,"population":13386},{"id":2756759,"name":"Dokkum","timezone":{"dstOffset":2,"gmtOffset":1,"timeZoneId":"Europe/Amsterdam"},"lat":53.32224,"lng":5.99698,"population":13145},{"id":2755358,"name":"Grave","timezone":{"dstOffset":2,"gmtOffset":1,"timeZoneId":"Europe/Amsterdam"},"lat":51.75902,"lng":5.73882,"population":12999},{"id":2755845,"name":"Franeker","timezone":{"dstOffset":2,"gmtOffset":1,"timeZoneId":"Europe/Amsterdam"},"lat":53.18546,"lng":5.54123,"population":12996},{"id":2753197,"name":"Joure","timezone":{"dstOffset":2,"gmtOffset":1,"timeZoneId":"Europe/Amsterdam"},"lat":52.9657,"lng":5.80301,"population":12902},{"id":2751301,"name":"Maasbree","timezone":{"dstOffset":2,"gmtOffset":1,"timeZoneId":"Europe/Amsterdam"},"lat":51.3575,"lng":6.04861,"population":12835},{"id":2748280,"name":"Reeuwijk","timezone":{"dstOffset":2,"gmtOffset":1,"timeZoneId":"Europe/Amsterdam"},"lat":52.04667,"lng":4.725,"population":12817},{"id":2745892,"name":"Vaassen","timezone":{"dstOffset":2,"gmtOffset":1,"timeZoneId":"Europe/Amsterdam"},"lat":52.28583,"lng":5.96667,"population":12719},{"id":2751385,"name":"Lunteren","timezone":{"dstOffset":2,"gmtOffset":1,"timeZoneId":"Europe/Amsterdam"},"lat":52.085,"lng":5.62222,"population":12510},{"id":2758462,"name":"Boxmeer","timezone":{"dstOffset":2,"gmtOffset":1,"timeZoneId":"Europe/Amsterdam"},"lat":51.64667,"lng":5.94722,"population":12407},{"id":2759687,"name":"Appingedam","timezone":{"dstOffset":2,"gmtOffset":1,"timeZoneId":"Europe/Amsterdam"},"lat":53.32167,"lng":6.85833,"population":12364},{"id":2751537,"name":"Lochem","timezone":{"dstOffset":2,"gmtOffset":1,"timeZoneId":"Europe/Amsterdam"},"lat":52.15917,"lng":6.41111,"population":12360},{"id":2747506,"name":"Schoonhoven","timezone":{"dstOffset":2,"gmtOffset":1,"timeZoneId":"Europe/Amsterdam"},"lat":51.9475,"lng":4.84861,"population":12352},{"id":2745182,"name":"Vriezenveen","timezone":{"dstOffset":2,"gmtOffset":1,"timeZoneId":"Europe/Amsterdam"},"lat":52.40833,"lng":6.62222,"population":12310},{"id":2752798,"name":"Klazienaveen","timezone":{"dstOffset":2,"gmtOffset":1,"timeZoneId":"Europe/Amsterdam"},"lat":52.72417,"lng":6.99028,"population":11919},{"id":2747290,"name":"Sint Anthonis","timezone":{"dstOffset":2,"gmtOffset":1,"timeZoneId":"Europe/Amsterdam"},"lat":51.62667,"lng":5.88194,"population":11887},{"id":2754768,"name":"Hattem","timezone":{"dstOffset":2,"gmtOffset":1,"timeZoneId":"Europe/Amsterdam"},"lat":52.475,"lng":6.06389,"population":11876},{"id":2757336,"name":"De Lier","timezone":{"dstOffset":2,"gmtOffset":1,"timeZoneId":"Europe/Amsterdam"},"lat":51.975,"lng":4.24861,"population":11823},{"id":2756283,"name":"Eijsden","timezone":{"dstOffset":2,"gmtOffset":1,"timeZoneId":"Europe/Amsterdam"},"lat":50.78,"lng":5.7177,"population":11795},{"id":2745978,"name":"Uitgeest","timezone":{"dstOffset":2,"gmtOffset":1,"timeZoneId":"Europe/Amsterdam"},"lat":52.52917,"lng":4.70972,"population":11794},{"id":6698635,"name":"Lunetten","timezone":{"dstOffset":2,"gmtOffset":1,"timeZoneId":"Europe/Amsterdam"},"lat":52.06178,"lng":5.13474,"population":11679},{"id":2755204,"name":"Grootegast","timezone":{"dstOffset":2,"gmtOffset":1,"timeZoneId":"Europe/Amsterdam"},"lat":53.2125,"lng":6.27361,"population":11623},{"id":2755485,"name":"Goedereede","timezone":{"dstOffset":2,"gmtOffset":1,"timeZoneId":"Europe/Amsterdam"},"lat":51.8175,"lng":3.98056,"population":11597},{"id":2750630,"name":"Monster","timezone":{"dstOffset":2,"gmtOffset":1,"timeZoneId":"Europe/Amsterdam"},"lat":52.02583,"lng":4.175,"population":11580},{"id":2750444,"name":"Neerijnen","timezone":{"dstOffset":2,"gmtOffset":1,"timeZoneId":"Europe/Amsterdam"},"lat":51.83167,"lng":5.28194,"population":11532},{"id":2751874,"name":"Laren","timezone":{"dstOffset":2,"gmtOffset":1,"timeZoneId":"Europe/Amsterdam"},"lat":52.25667,"lng":5.22778,"population":11508},{"id":6324403,"name":"Camminghaburen","timezone":{"dstOffset":2,"gmtOffset":1,"timeZoneId":"Europe/Amsterdam"},"lat":53.20973,"lng":5.84318,"population":11500},{"id":2756772,"name":"Doesburg","timezone":{"dstOffset":2,"gmtOffset":1,"timeZoneId":"Europe/Amsterdam"},"lat":52.0125,"lng":6.13889,"population":11480},{"id":2755449,"name":"Goor","timezone":{"dstOffset":2,"gmtOffset":1,"timeZoneId":"Europe/Amsterdam"},"lat":52.23333,"lng":6.58611,"population":11460},{"id":2747312,"name":"Simpelveld","timezone":{"dstOffset":2,"gmtOffset":1,"timeZoneId":"Europe/Amsterdam"},"lat":50.83417,"lng":5.98194,"population":11424},{"id":2755645,"name":"Geffen","timezone":{"dstOffset":2,"gmtOffset":1,"timeZoneId":"Europe/Amsterdam"},"lat":51.74,"lng":5.46389,"population":11344},{"id":2751272,"name":"Made","timezone":{"dstOffset":2,"gmtOffset":1,"timeZoneId":"Europe/Amsterdam"},"lat":51.67667,"lng":4.79306,"population":11340},{"id":2743963,"name":"Zelhem","timezone":{"dstOffset":2,"gmtOffset":1,"timeZoneId":"Europe/Amsterdam"},"lat":52.00667,"lng":6.34861,"population":11324},{"id":2744163,"name":"Woudenberg","timezone":{"dstOffset":2,"gmtOffset":1,"timeZoneId":"Europe/Amsterdam"},"lat":52.08083,"lng":5.41667,"population":11305},{"id":2746748,"name":"Stein","timezone":{"dstOffset":2,"gmtOffset":1,"timeZoneId":"Europe/Amsterdam"},"lat":50.96917,"lng":5.76667,"population":11290},{"id":2745944,"name":"Ulrum","timezone":{"dstOffset":2,"gmtOffset":1,"timeZoneId":"Europe/Amsterdam"},"lat":53.35917,"lng":6.33333,"population":11240},{"id":2749286,"name":"Opmeer","timezone":{"dstOffset":2,"gmtOffset":1,"timeZoneId":"Europe/Amsterdam"},"lat":52.70667,"lng":4.94444,"population":11183},{"id":2749503,"name":"Oosterbeek","timezone":{"dstOffset":2,"gmtOffset":1,"timeZoneId":"Europe/Amsterdam"},"lat":51.98583,"lng":5.84583,"population":11138},{"id":2750187,"name":"Nieuwkoop","timezone":{"dstOffset":2,"gmtOffset":1,"timeZoneId":"Europe/Amsterdam"},"lat":52.15083,"lng":4.77639,"population":11128},{"id":2750460,"name":"Neede","timezone":{"dstOffset":2,"gmtOffset":1,"timeZoneId":"Europe/Amsterdam"},"lat":52.13417,"lng":6.61389,"population":10887},{"id":2753439,"name":"Hulst","timezone":{"dstOffset":2,"gmtOffset":1,"timeZoneId":"Europe/Amsterdam"},"lat":51.28,"lng":4.05278,"population":10802},{"id":2759356,"name":"Bedum","timezone":{"dstOffset":2,"gmtOffset":1,"timeZoneId":"Europe/Amsterdam"},"lat":53.30083,"lng":6.60278,"population":10750},{"id":2751750,"name":"Leimuiden","timezone":{"dstOffset":2,"gmtOffset":1,"timeZoneId":"Europe/Amsterdam"},"lat":52.22417,"lng":4.66944,"population":10731},{"id":2753686,"name":"Hoogland","timezone":{"dstOffset":2,"gmtOffset":1,"timeZoneId":"Europe/Amsterdam"},"lat":52.1825,"lng":5.37361,"population":10587},{"id":2747010,"name":"Son en Breugel","timezone":{"dstOffset":2,"gmtOffset":1,"timeZoneId":"Europe/Amsterdam"},"lat":51.51136,"lng":5.49282,"population":10550},{"id":2749423,"name":"Oosterpark","timezone":{"dstOffset":2,"gmtOffset":1,"timeZoneId":"Europe/Amsterdam"},"lat":53.2237,"lng":6.5853,"population":10550},{"id":2758838,"name":"Bleiswijk","timezone":{"dstOffset":2,"gmtOffset":1,"timeZoneId":"Europe/Amsterdam"},"lat":52.01083,"lng":4.53194,"population":10549},{"id":2743680,"name":"Zuidlaren","timezone":{"dstOffset":2,"gmtOffset":1,"timeZoneId":"Europe/Amsterdam"},"lat":53.09417,"lng":6.68194,"population":10410},{"id":2749683,"name":"Oirschot","timezone":{"dstOffset":2,"gmtOffset":1,"timeZoneId":"Europe/Amsterdam"},"lat":51.505,"lng":5.31389,"population":10393},{"id":2747234,"name":"Sint-Michielsgestel","timezone":{"dstOffset":2,"gmtOffset":1,"timeZoneId":"Europe/Amsterdam"},"lat":51.64167,"lng":5.35278,"population":10380},{"id":2758626,"name":"Borculo","timezone":{"dstOffset":2,"gmtOffset":1,"timeZoneId":"Europe/Amsterdam"},"lat":52.11583,"lng":6.52222,"population":10373},{"id":2756686,"name":"Doorn","timezone":{"dstOffset":2,"gmtOffset":1,"timeZoneId":"Europe/Amsterdam"},"lat":52.03343,"lng":5.34571,"population":10330},{"id":2751980,"name":"Landsmeer","timezone":{"dstOffset":2,"gmtOffset":1,"timeZoneId":"Europe/Amsterdam"},"lat":52.43083,"lng":4.91528,"population":10279},{"id":2745906,"name":"Vaals","timezone":{"dstOffset":2,"gmtOffset":1,"timeZoneId":"Europe/Amsterdam"},"lat":50.77083,"lng":6.01806,"population":10224},{"id":2756351,"name":"Eerbeek","timezone":{"dstOffset":2,"gmtOffset":1,"timeZoneId":"Europe/Amsterdam"},"lat":52.105,"lng":6.05833,"population":10103},{"id":2759103,"name":"Burgum","timezone":{"dstOffset":2,"gmtOffset":1,"timeZoneId":"Europe/Amsterdam"},"lat":53.19243,"lng":5.99009,"population":10057},{"id":2751729,"name":"Lemmer","timezone":{"dstOffset":2,"gmtOffset":1,"timeZoneId":"Europe/Amsterdam"},"lat":52.84618,"lng":5.70912,"population":10050},{"id":2751793,"name":"Leesten","timezone":{"dstOffset":2,"gmtOffset":1,"timeZoneId":"Europe/Amsterdam"},"lat":52.1279,"lng":6.23217,"population":10000},{"id":2754682,"name":"Heer","timezone":{"dstOffset":2,"gmtOffset":1,"timeZoneId":"Europe/Amsterdam"},"lat":50.83836,"lng":5.72989,"population":10000},{"id":8379268,"name":"'s-Gravenland","timezone":{"dstOffset":2,"gmtOffset":1,"timeZoneId":"Europe/Amsterdam"},"lat":51.92336,"lng":4.55315,"population":10000},{"id":2754975,"name":"Haelen","timezone":{"dstOffset":2,"gmtOffset":1,"timeZoneId":"Europe/Amsterdam"},"lat":51.23583,"lng":5.95694,"population":9935},{"id":2750821,"name":"Mierlo","timezone":{"dstOffset":2,"gmtOffset":1,"timeZoneId":"Europe/Amsterdam"},"lat":51.44,"lng":5.61944,"population":9920},{"id":2750641,"name":"Monnickendam","timezone":{"dstOffset":2,"gmtOffset":1,"timeZoneId":"Europe/Amsterdam"},"lat":52.45833,"lng":5.0375,"population":9918},{"id":2758803,"name":"Bloemendaal","timezone":{"dstOffset":2,"gmtOffset":1,"timeZoneId":"Europe/Amsterdam"},"lat":52.02878,"lng":4.6944,"population":9900},{"id":2754922,"name":"Halsteren","timezone":{"dstOffset":2,"gmtOffset":1,"timeZoneId":"Europe/Amsterdam"},"lat":51.52834,"lng":4.26785,"population":9850},{"id":2748979,"name":"Oudewater","timezone":{"dstOffset":2,"gmtOffset":1,"timeZoneId":"Europe/Amsterdam"},"lat":52.025,"lng":4.86806,"population":9836},{"id":2745388,"name":"Vlist","timezone":{"dstOffset":2,"gmtOffset":1,"timeZoneId":"Europe/Amsterdam"},"lat":51.98,"lng":4.81944,"population":9806},{"id":2751621,"name":"Liesveld","timezone":{"dstOffset":2,"gmtOffset":1,"timeZoneId":"Europe/Amsterdam"},"lat":51.9325,"lng":4.83194,"population":9767},{"id":2745271,"name":"Voorthuizen","timezone":{"dstOffset":2,"gmtOffset":1,"timeZoneId":"Europe/Amsterdam"},"lat":52.18667,"lng":5.60556,"population":9710},{"id":2758759,"name":"Boekel","timezone":{"dstOffset":2,"gmtOffset":1,"timeZoneId":"Europe/Amsterdam"},"lat":51.60333,"lng":5.675,"population":9668},{"id":2754618,"name":"Heeze","timezone":{"dstOffset":2,"gmtOffset":1,"timeZoneId":"Europe/Amsterdam"},"lat":51.3828,"lng":5.57145,"population":9550},{"id":2750163,"name":"Nieuw-Lekkerland","timezone":{"dstOffset":2,"gmtOffset":1,"timeZoneId":"Europe/Amsterdam"},"lat":51.88915,"lng":4.68653,"population":9535},{"id":2748236,"name":"Renkum","timezone":{"dstOffset":2,"gmtOffset":1,"timeZoneId":"Europe/Amsterdam"},"lat":51.97667,"lng":5.73333,"population":9421},{"id":2754007,"name":"Hoek van Holland","timezone":{"dstOffset":2,"gmtOffset":1,"timeZoneId":"Europe/Amsterdam"},"lat":51.9775,"lng":4.13333,"population":9400},{"id":2746609,"name":"Strijen","timezone":{"dstOffset":2,"gmtOffset":1,"timeZoneId":"Europe/Amsterdam"},"lat":51.74521,"lng":4.55083,"population":9371},{"id":2758868,"name":"Blaricum","timezone":{"dstOffset":2,"gmtOffset":1,"timeZoneId":"Europe/Amsterdam"},"lat":52.2725,"lng":5.24167,"population":9206},{"id":2745003,"name":"Warnsveld","timezone":{"dstOffset":2,"gmtOffset":1,"timeZoneId":"Europe/Amsterdam"},"lat":52.1375,"lng":6.23056,"population":9200},{"id":2758682,"name":"Bolsward","timezone":{"dstOffset":2,"gmtOffset":1,"timeZoneId":"Europe/Amsterdam"},"lat":53.06554,"lng":5.53176,"population":9160},{"id":2758326,"name":"Brielle","timezone":{"dstOffset":2,"gmtOffset":1,"timeZoneId":"Europe/Amsterdam"},"lat":51.90167,"lng":4.1625,"population":9000},{"id":2753470,"name":"Huizum","timezone":{"dstOffset":2,"gmtOffset":1,"timeZoneId":"Europe/Amsterdam"},"lat":53.1917,"lng":5.81119,"population":9000},{"id":2759684,"name":"Arcen","timezone":{"dstOffset":2,"gmtOffset":1,"timeZoneId":"Europe/Amsterdam"},"lat":51.47667,"lng":6.18056,"population":8793},{"id":2754395,"name":"Hengelo","timezone":{"dstOffset":2,"gmtOffset":1,"timeZoneId":"Europe/Amsterdam"},"lat":52.05083,"lng":6.30972,"population":8500},{"id":2745169,"name":"Vroomshoop","timezone":{"dstOffset":2,"gmtOffset":1,"timeZoneId":"Europe/Amsterdam"},"lat":52.46083,"lng":6.56528,"population":8480},{"id":2756169,"name":"Elsloo","timezone":{"dstOffset":2,"gmtOffset":1,"timeZoneId":"Europe/Amsterdam"},"lat":50.94917,"lng":5.77083,"population":8300},{"id":2747758,"name":"Sappemeer","timezone":{"dstOffset":2,"gmtOffset":1,"timeZoneId":"Europe/Amsterdam"},"lat":53.16417,"lng":6.79028,"population":8298},{"id":2749017,"name":"Ouderkerk aan de Amstel","timezone":{"dstOffset":2,"gmtOffset":1,"timeZoneId":"Europe/Amsterdam"},"lat":52.29504,"lng":4.90746,"population":8228},{"id":2759594,"name":"Axel","timezone":{"dstOffset":2,"gmtOffset":1,"timeZoneId":"Europe/Amsterdam"},"lat":51.26667,"lng":3.90833,"population":8149},{"id":2756133,"name":"Emmer-Compascuum","timezone":{"dstOffset":2,"gmtOffset":1,"timeZoneId":"Europe/Amsterdam"},"lat":52.81167,"lng":7.04722,"population":8130},{"id":2747357,"name":"s-Heerenberg","timezone":{"dstOffset":2,"gmtOffset":1,"timeZoneId":"Europe/Amsterdam"},"lat":51.8767,"lng":6.25877,"population":8000},{"id":2746705,"name":"Stiens","timezone":{"dstOffset":2,"gmtOffset":1,"timeZoneId":"Europe/Amsterdam"},"lat":53.26234,"lng":5.75769,"population":7804},{"id":2746351,"name":"Tholen","timezone":{"dstOffset":2,"gmtOffset":1,"timeZoneId":"Europe/Amsterdam"},"lat":51.53167,"lng":4.22083,"population":7732},{"id":2751801,"name":"Leersum","timezone":{"dstOffset":2,"gmtOffset":1,"timeZoneId":"Europe/Amsterdam"},"lat":52.01167,"lng":5.42778,"population":7502},{"id":2748201,"name":"Rheden","timezone":{"dstOffset":2,"gmtOffset":1,"timeZoneId":"Europe/Amsterdam"},"lat":52.005,"lng":6.02917,"population":7450},{"id":2756431,"name":"Edam","timezone":{"dstOffset":2,"gmtOffset":1,"timeZoneId":"Europe/Amsterdam"},"lat":52.51215,"lng":5.04805,"population":7380},{"id":2753806,"name":"Honselersdijk","timezone":{"dstOffset":2,"gmtOffset":1,"timeZoneId":"Europe/Amsterdam"},"lat":52.00665,"lng":4.22441,"population":7366},{"id":6695503,"name":"Meerhoven","timezone":{"dstOffset":2,"gmtOffset":1,"timeZoneId":"Europe/Amsterdam"},"lat":51.44267,"lng":5.41102,"population":7175},{"id":6950811,"name":"Randenbroek","timezone":{"dstOffset":2,"gmtOffset":1,"timeZoneId":"Europe/Amsterdam"},"lat":52.14863,"lng":5.4012,"population":7131},{"id":2754779,"name":"Hasselt","timezone":{"dstOffset":2,"gmtOffset":1,"timeZoneId":"Europe/Amsterdam"},"lat":52.59267,"lng":6.09527,"population":6959},{"id":2757370,"name":"Delden","timezone":{"dstOffset":2,"gmtOffset":1,"timeZoneId":"Europe/Amsterdam"},"lat":52.26,"lng":6.71111,"population":6920},{"id":2755429,"name":"Gorredijk","timezone":{"dstOffset":2,"gmtOffset":1,"timeZoneId":"Europe/Amsterdam"},"lat":53.00659,"lng":6.06402,"population":6880},{"id":2747713,"name":"Schaijk","timezone":{"dstOffset":2,"gmtOffset":1,"timeZoneId":"Europe/Amsterdam"},"lat":51.74583,"lng":5.63194,"population":6840},{"id":2759554,"name":"Baarle-Nassau","timezone":{"dstOffset":2,"gmtOffset":1,"timeZoneId":"Europe/Amsterdam"},"lat":51.4475,"lng":4.92917,"population":6727},{"id":2750194,"name":"Nieuw-Helvoet","timezone":{"dstOffset":2,"gmtOffset":1,"timeZoneId":"Europe/Amsterdam"},"lat":51.83843,"lng":4.12897,"population":6610},{"id":2743694,"name":"Zuidhorn","timezone":{"dstOffset":2,"gmtOffset":1,"timeZoneId":"Europe/Amsterdam"},"lat":53.24667,"lng":6.40278,"population":6559},{"id":2744129,"name":"Yerseke","timezone":{"dstOffset":2,"gmtOffset":1,"timeZoneId":"Europe/Amsterdam"},"lat":51.4925,"lng":4.05,"population":6541},{"id":2759126,"name":"Berghem","timezone":{"dstOffset":2,"gmtOffset":1,"timeZoneId":"Europe/Amsterdam"},"lat":51.76991,"lng":5.56827,"population":6500},{"id":2754502,"name":"Heino","timezone":{"dstOffset":2,"gmtOffset":1,"timeZoneId":"Europe/Amsterdam"},"lat":52.43661,"lng":6.23282,"population":6459},{"id":2754111,"name":"Heythuysen","timezone":{"dstOffset":2,"gmtOffset":1,"timeZoneId":"Europe/Amsterdam"},"lat":51.25,"lng":5.89861,"population":6420},{"id":2757685,"name":"De Doornakkers","timezone":{"dstOffset":2,"gmtOffset":1,"timeZoneId":"Europe/Amsterdam"},"lat":51.43844,"lng":5.50887,"population":6345},{"id":2752409,"name":"Kortenhoef","timezone":{"dstOffset":2,"gmtOffset":1,"timeZoneId":"Europe/Amsterdam"},"lat":52.23917,"lng":5.10694,"population":6250},{"id":2748208,"name":"Reuver","timezone":{"dstOffset":2,"gmtOffset":1,"timeZoneId":"Europe/Amsterdam"},"lat":51.28417,"lng":6.07778,"population":6212},{"id":2757244,"name":"Den Burg","timezone":{"dstOffset":2,"gmtOffset":1,"timeZoneId":"Europe/Amsterdam"},"lat":53.05417,"lng":4.79722,"population":6160},{"id":2744014,"name":"Zeeland","timezone":{"dstOffset":2,"gmtOffset":1,"timeZoneId":"Europe/Amsterdam"},"lat":51.6975,"lng":5.67639,"population":6159},{"id":2745874,"name":"Valkenburg","timezone":{"dstOffset":2,"gmtOffset":1,"timeZoneId":"Europe/Amsterdam"},"lat":50.86523,"lng":5.83205,"population":6020},{"id":2758930,"name":"Bilgaard","timezone":{"dstOffset":2,"gmtOffset":1,"timeZoneId":"Europe/Amsterdam"},"lat":53.2155,"lng":5.79574,"population":6000},{"id":2745800,"name":"Varsseveld","timezone":{"dstOffset":2,"gmtOffset":1,"timeZoneId":"Europe/Amsterdam"},"lat":51.94333,"lng":6.45833,"population":6000},{"id":6251994,"name":"Klundert","timezone":{"dstOffset":2,"gmtOffset":1,"timeZoneId":"Europe/Amsterdam"},"lat":51.66297,"lng":4.53461,"population":6000},{"id":2750158,"name":"Nieuw-Loosdrecht","timezone":{"dstOffset":2,"gmtOffset":1,"timeZoneId":"Europe/Amsterdam"},"lat":52.19917,"lng":5.13889,"population":5970},{"id":2753011,"name":"Katwijk","timezone":{"dstOffset":2,"gmtOffset":1,"timeZoneId":"Europe/Amsterdam"},"lat":52.19417,"lng":4.42222,"population":5940},{"id":2749164,"name":"Ouddorp","timezone":{"dstOffset":2,"gmtOffset":1,"timeZoneId":"Europe/Amsterdam"},"lat":51.81167,"lng":3.93472,"population":5930},{"id":2752600,"name":"Klundert","timezone":{"dstOffset":2,"gmtOffset":1,"timeZoneId":"Europe/Amsterdam"},"lat":51.665,"lng":4.53472,"population":5873},{"id":6698718,"name":"Aarle-Rixtel","timezone":{"dstOffset":2,"gmtOffset":1,"timeZoneId":"Europe/Amsterdam"},"lat":51.50976,"lng":5.63839,"population":5814},{"id":2748533,"name":"Poeldijk","timezone":{"dstOffset":2,"gmtOffset":1,"timeZoneId":"Europe/Amsterdam"},"lat":52.02417,"lng":4.21944,"population":5800},{"id":2760144,"name":"Aalburg","timezone":{"dstOffset":2,"gmtOffset":1,"timeZoneId":"Europe/Amsterdam"},"lat":51.75482,"lng":5.13156,"population":5788},{"id":2758131,"name":"Buitenpost","timezone":{"dstOffset":2,"gmtOffset":1,"timeZoneId":"Europe/Amsterdam"},"lat":53.25166,"lng":6.14483,"population":5764},{"id":2755052,"name":"Grou","timezone":{"dstOffset":2,"gmtOffset":1,"timeZoneId":"Europe/Amsterdam"},"lat":53.09456,"lng":5.83745,"population":5737},{"id":2746558,"name":"Surhuisterveen","timezone":{"dstOffset":2,"gmtOffset":1,"timeZoneId":"Europe/Amsterdam"},"lat":53.18477,"lng":6.17031,"population":5700},{"id":2744489,"name":"Wijhe","timezone":{"dstOffset":2,"gmtOffset":1,"timeZoneId":"Europe/Amsterdam"},"lat":52.38667,"lng":6.13472,"population":5640},{"id":2756800,"name":"Dinteloord","timezone":{"dstOffset":2,"gmtOffset":1,"timeZoneId":"Europe/Amsterdam"},"lat":51.635,"lng":4.36944,"population":5600},{"id":2757838,"name":"Damwld","timezone":{"dstOffset":2,"gmtOffset":1,"timeZoneId":"Europe/Amsterdam"},"lat":53.29046,"lng":5.99785,"population":5568},{"id":2750484,"name":"Neder-Hardinxveld","timezone":{"dstOffset":2,"gmtOffset":1,"timeZoneId":"Europe/Amsterdam"},"lat":51.82879,"lng":4.8549,"population":5490},{"id":2752524,"name":"Kollum","timezone":{"dstOffset":2,"gmtOffset":1,"timeZoneId":"Europe/Amsterdam"},"lat":53.27695,"lng":6.15293,"population":5300},{"id":2743952,"name":"Zetten","timezone":{"dstOffset":2,"gmtOffset":1,"timeZoneId":"Europe/Amsterdam"},"lat":51.92833,"lng":5.71389,"population":5250},{"id":2743590,"name":"De Westereen","timezone":{"dstOffset":2,"gmtOffset":1,"timeZoneId":"Europe/Amsterdam"},"lat":53.25731,"lng":6.0363,"population":5175},{"id":2759828,"name":"Amerongen","timezone":{"dstOffset":2,"gmtOffset":1,"timeZoneId":"Europe/Amsterdam"},"lat":52.0025,"lng":5.45972,"population":5170},{"id":6948947,"name":"Groenswaard","timezone":{"dstOffset":2,"gmtOffset":1,"timeZoneId":"Europe/Amsterdam"},"lat":52.05154,"lng":4.64541,"population":5160},{"id":2759199,"name":"Bennebroek","timezone":{"dstOffset":2,"gmtOffset":1,"timeZoneId":"Europe/Amsterdam"},"lat":52.32083,"lng":4.59861,"population":5140},{"id":2754287,"name":"Heteren","timezone":{"dstOffset":2,"gmtOffset":1,"timeZoneId":"Europe/Amsterdam"},"lat":51.95667,"lng":5.75556,"population":5139},{"id":2744994,"name":"Waspik","timezone":{"dstOffset":2,"gmtOffset":1,"timeZoneId":"Europe/Amsterdam"},"lat":51.68667,"lng":4.94444,"population":5120},{"id":2756301,"name":"Egmond aan Zee","timezone":{"dstOffset":2,"gmtOffset":1,"timeZoneId":"Europe/Amsterdam"},"lat":52.6204,"lng":4.62705,"population":5086},{"id":2754864,"name":"Hurdegaryp","timezone":{"dstOffset":2,"gmtOffset":1,"timeZoneId":"Europe/Amsterdam"},"lat":53.21333,"lng":5.94137,"population":5026},{"id":2758992,"name":"Biddinghuizen","timezone":{"dstOffset":2,"gmtOffset":1,"timeZoneId":"Europe/Amsterdam"},"lat":52.455,"lng":5.69306,"population":5010},{"id":2756504,"name":"Duivendrecht","timezone":{"dstOffset":2,"gmtOffset":1,"timeZoneId":"Europe/Amsterdam"},"lat":52.32941,"lng":4.93964,"population":5000},{"id":2751296,"name":"Maasdijk","timezone":{"dstOffset":2,"gmtOffset":1,"timeZoneId":"Europe/Amsterdam"},"lat":51.95917,"lng":4.21389,"population":5000},{"id":2747515,"name":"Schoonebeek","timezone":{"dstOffset":2,"gmtOffset":1,"timeZoneId":"Europe/Amsterdam"},"lat":52.6625,"lng":6.88472,"population":4997},{"id":2747550,"name":"Schinveld","timezone":{"dstOffset":2,"gmtOffset":1,"timeZoneId":"Europe/Amsterdam"},"lat":50.96917,"lng":5.97917,"population":4960},{"id":2756035,"name":"Erp","timezone":{"dstOffset":2,"gmtOffset":1,"timeZoneId":"Europe/Amsterdam"},"lat":51.6,"lng":5.60694,"population":4931},{"id":2756673,"name":"Doorwerth","timezone":{"dstOffset":2,"gmtOffset":1,"timeZoneId":"Europe/Amsterdam"},"lat":51.97917,"lng":5.79722,"population":4912},{"id":2749696,"name":"Offenbeek","timezone":{"dstOffset":2,"gmtOffset":1,"timeZoneId":"Europe/Amsterdam"},"lat":51.28225,"lng":6.095,"population":4879},{"id":2752441,"name":"Kootwijkerbroek","timezone":{"dstOffset":2,"gmtOffset":1,"timeZoneId":"Europe/Amsterdam"},"lat":52.15083,"lng":5.66944,"population":4870},{"id":2755533,"name":"Giessenburg","timezone":{"dstOffset":2,"gmtOffset":1,"timeZoneId":"Europe/Amsterdam"},"lat":51.85083,"lng":4.89028,"population":4800},{"id":2749626,"name":"Olst","timezone":{"dstOffset":2,"gmtOffset":1,"timeZoneId":"Europe/Amsterdam"},"lat":52.3375,"lng":6.10972,"population":4780},{"id":2758336,"name":"Breugel","timezone":{"dstOffset":2,"gmtOffset":1,"timeZoneId":"Europe/Amsterdam"},"lat":51.5175,"lng":5.51111,"population":4750},{"id":2755023,"name":"Haamstede","timezone":{"dstOffset":2,"gmtOffset":1,"timeZoneId":"Europe/Amsterdam"},"lat":51.69682,"lng":3.74299,"population":4707},{"id":2750157,"name":"Nieuw-Lotbroek","timezone":{"dstOffset":2,"gmtOffset":1,"timeZoneId":"Europe/Amsterdam"},"lat":50.91283,"lng":5.92798,"population":4691},{"id":2754719,"name":"Hedel","timezone":{"dstOffset":2,"gmtOffset":1,"timeZoneId":"Europe/Amsterdam"},"lat":51.74802,"lng":5.26134,"population":4675},{"id":2758500,"name":"Boven-Hardinxveld","timezone":{"dstOffset":2,"gmtOffset":1,"timeZoneId":"Europe/Amsterdam"},"lat":51.82333,"lng":4.88194,"population":4640},{"id":2751320,"name":"Maarn","timezone":{"dstOffset":2,"gmtOffset":1,"timeZoneId":"Europe/Amsterdam"},"lat":52.06417,"lng":5.37083,"population":4618},{"id":2747704,"name":"Schalkhaar","timezone":{"dstOffset":2,"gmtOffset":1,"timeZoneId":"Europe/Amsterdam"},"lat":52.26833,"lng":6.19444,"population":4610},{"id":2756787,"name":"Dirksland","timezone":{"dstOffset":2,"gmtOffset":1,"timeZoneId":"Europe/Amsterdam"},"lat":51.74917,"lng":4.1,"population":4500},{"id":2754978,"name":"Haastrecht","timezone":{"dstOffset":2,"gmtOffset":1,"timeZoneId":"Europe/Amsterdam"},"lat":52.00074,"lng":4.77639,"population":4500},{"id":2744741,"name":"Westerhaar-Vriezenveensewijk","timezone":{"dstOffset":2,"gmtOffset":1,"timeZoneId":"Europe/Amsterdam"},"lat":52.45583,"lng":6.62361,"population":4470},{"id":2745189,"name":"Vries","timezone":{"dstOffset":2,"gmtOffset":1,"timeZoneId":"Europe/Amsterdam"},"lat":53.07417,"lng":6.57778,"population":4465},{"id":2750810,"name":"Mijnsheerenland","timezone":{"dstOffset":2,"gmtOffset":1,"timeZoneId":"Europe/Amsterdam"},"lat":51.79667,"lng":4.4875,"population":4435},{"id":2754821,"name":"Harkema","timezone":{"dstOffset":2,"gmtOffset":1,"timeZoneId":"Europe/Amsterdam"},"lat":53.18333,"lng":6.13333,"population":4300},{"id":2748481,"name":"Posterholt","timezone":{"dstOffset":2,"gmtOffset":1,"timeZoneId":"Europe/Amsterdam"},"lat":51.12333,"lng":6.03472,"population":4278},{"id":2748968,"name":"Oude Wetering","timezone":{"dstOffset":2,"gmtOffset":1,"timeZoneId":"Europe/Amsterdam"},"lat":52.21417,"lng":4.64444,"population":4208},{"id":2756418,"name":"Eefde","timezone":{"dstOffset":2,"gmtOffset":1,"timeZoneId":"Europe/Amsterdam"},"lat":52.16667,"lng":6.225,"population":4203},{"id":2754352,"name":"Herkenbosch","timezone":{"dstOffset":2,"gmtOffset":1,"timeZoneId":"Europe/Amsterdam"},"lat":51.15333,"lng":6.06389,"population":4120},{"id":2747297,"name":"Sint Annaparochie","timezone":{"dstOffset":2,"gmtOffset":1,"timeZoneId":"Europe/Amsterdam"},"lat":53.2762,"lng":5.65727,"population":3990},{"id":2758186,"name":"Bruinisse","timezone":{"dstOffset":2,"gmtOffset":1,"timeZoneId":"Europe/Amsterdam"},"lat":51.66167,"lng":4.09444,"population":3980},{"id":2751875,"name":"Laren","timezone":{"dstOffset":2,"gmtOffset":1,"timeZoneId":"Europe/Amsterdam"},"lat":52.19417,"lng":6.36528,"population":3928},{"id":2752151,"name":"Kunrade","timezone":{"dstOffset":2,"gmtOffset":1,"timeZoneId":"Europe/Amsterdam"},"lat":50.87769,"lng":5.93107,"population":3900},{"id":2757857,"name":"Dalen","timezone":{"dstOffset":2,"gmtOffset":1,"timeZoneId":"Europe/Amsterdam"},"lat":52.69917,"lng":6.75556,"population":3890},{"id":2744179,"name":"Workum","timezone":{"dstOffset":2,"gmtOffset":1,"timeZoneId":"Europe/Amsterdam"},"lat":52.97969,"lng":5.4471,"population":3880},{"id":2747749,"name":"Sas van Gent","timezone":{"dstOffset":2,"gmtOffset":1,"timeZoneId":"Europe/Amsterdam"},"lat":51.2275,"lng":3.79861,"population":3856},{"id":2757224,"name":"Den Ham","timezone":{"dstOffset":2,"gmtOffset":1,"timeZoneId":"Europe/Amsterdam"},"lat":52.46583,"lng":6.49583,"population":3850},{"id":2749685,"name":"Oirsbeek","timezone":{"dstOffset":2,"gmtOffset":1,"timeZoneId":"Europe/Amsterdam"},"lat":50.95083,"lng":5.90833,"population":3850},{"id":2745333,"name":"Vollenhove","timezone":{"dstOffset":2,"gmtOffset":1,"timeZoneId":"Europe/Amsterdam"},"lat":52.68083,"lng":5.95417,"population":3840},{"id":6929980,"name":"Muschberg en Geestenberg","timezone":{"dstOffset":2,"gmtOffset":1,"timeZoneId":"Europe/Amsterdam"},"lat":51.44384,"lng":5.52329,"population":3836},{"id":2749807,"name":"Noordwolde","timezone":{"dstOffset":2,"gmtOffset":1,"timeZoneId":"Europe/Amsterdam"},"lat":52.88964,"lng":6.14153,"population":3800},{"id":2751180,"name":"Mariarade","timezone":{"dstOffset":2,"gmtOffset":1,"timeZoneId":"Europe/Amsterdam"},"lat":50.92906,"lng":5.92738,"population":3770},{"id":2754656,"name":"Heerjansdam","timezone":{"dstOffset":2,"gmtOffset":1,"timeZoneId":"Europe/Amsterdam"},"lat":51.83583,"lng":4.56389,"population":3770},{"id":2755428,"name":"Gorssel","timezone":{"dstOffset":2,"gmtOffset":1,"timeZoneId":"Europe/Amsterdam"},"lat":52.20167,"lng":6.20139,"population":3770},{"id":2745743,"name":"Feanwlden","timezone":{"dstOffset":2,"gmtOffset":1,"timeZoneId":"Europe/Amsterdam"},"lat":53.23558,"lng":5.98832,"population":3714},{"id":2746981,"name":"Spakenburg","timezone":{"dstOffset":2,"gmtOffset":1,"timeZoneId":"Europe/Amsterdam"},"lat":52.25,"lng":5.36667,"population":3700},{"id":2747835,"name":"Ruinen","timezone":{"dstOffset":2,"gmtOffset":1,"timeZoneId":"Europe/Amsterdam"},"lat":52.7625,"lng":6.35417,"population":3675},{"id":2754703,"name":"Heelsum","timezone":{"dstOffset":2,"gmtOffset":1,"timeZoneId":"Europe/Amsterdam"},"lat":51.98417,"lng":5.75833,"population":3659},{"id":2750978,"name":"Melick","timezone":{"dstOffset":2,"gmtOffset":1,"timeZoneId":"Europe/Amsterdam"},"lat":51.15917,"lng":6.01667,"population":3645},{"id":2746354,"name":"'t Hofke","timezone":{"dstOffset":2,"gmtOffset":1,"timeZoneId":"Europe/Amsterdam"},"lat":51.44943,"lng":5.51926,"population":3628},{"id":2748833,"name":"Overloon","timezone":{"dstOffset":2,"gmtOffset":1,"timeZoneId":"Europe/Amsterdam"},"lat":51.57167,"lng":5.94722,"population":3626},{"id":2759878,"name":"Almkerk","timezone":{"dstOffset":2,"gmtOffset":1,"timeZoneId":"Europe/Amsterdam"},"lat":51.77083,"lng":4.95972,"population":3600},{"id":2751161,"name":"Markelo","timezone":{"dstOffset":2,"gmtOffset":1,"timeZoneId":"Europe/Amsterdam"},"lat":52.235,"lng":6.49861,"population":3600},{"id":2747229,"name":"Sint Odilinberg","timezone":{"dstOffset":2,"gmtOffset":1,"timeZoneId":"Europe/Amsterdam"},"lat":51.14333,"lng":6,"population":3576},{"id":2759472,"name":"Balk","timezone":{"dstOffset":2,"gmtOffset":1,"timeZoneId":"Europe/Amsterdam"},"lat":52.89756,"lng":5.57964,"population":3560},{"id":2752130,"name":"Kwintsheul","timezone":{"dstOffset":2,"gmtOffset":1,"timeZoneId":"Europe/Amsterdam"},"lat":52.01333,"lng":4.25556,"population":3560},{"id":2745338,"name":"Volkel","timezone":{"dstOffset":2,"gmtOffset":1,"timeZoneId":"Europe/Amsterdam"},"lat":51.6425,"lng":5.65417,"population":3560},{"id":2745926,"name":"Urmond","timezone":{"dstOffset":2,"gmtOffset":1,"timeZoneId":"Europe/Amsterdam"},"lat":50.99083,"lng":5.77222,"population":3560},{"id":2751253,"name":"Makkum","timezone":{"dstOffset":2,"gmtOffset":1,"timeZoneId":"Europe/Amsterdam"},"lat":53.09513,"lng":5.67946,"population":3527},{"id":2751254,"name":"Makkum","timezone":{"dstOffset":2,"gmtOffset":1,"timeZoneId":"Europe/Amsterdam"},"lat":53.05458,"lng":5.40231,"population":3527},{"id":2759164,"name":"Berg","timezone":{"dstOffset":2,"gmtOffset":1,"timeZoneId":"Europe/Amsterdam"},"lat":50.86167,"lng":5.78333,"population":3500},{"id":2752444,"name":"Kootstertille","timezone":{"dstOffset":2,"gmtOffset":1,"timeZoneId":"Europe/Amsterdam"},"lat":53.21261,"lng":6.09209,"population":3500},{"id":2756561,"name":"Dronryp","timezone":{"dstOffset":2,"gmtOffset":1,"timeZoneId":"Europe/Amsterdam"},"lat":53.2,"lng":5.65,"population":3486},{"id":2754804,"name":"Harskamp","timezone":{"dstOffset":2,"gmtOffset":1,"timeZoneId":"Europe/Amsterdam"},"lat":52.13,"lng":5.75278,"population":3450},{"id":2754507,"name":"Heinenoord","timezone":{"dstOffset":2,"gmtOffset":1,"timeZoneId":"Europe/Amsterdam"},"lat":51.82602,"lng":4.47659,"population":3400},{"id":2750903,"name":"Middelbeers","timezone":{"dstOffset":2,"gmtOffset":1,"timeZoneId":"Europe/Amsterdam"},"lat":51.46667,"lng":5.25,"population":3394},{"id":2756591,"name":"Driel","timezone":{"dstOffset":2,"gmtOffset":1,"timeZoneId":"Europe/Amsterdam"},"lat":51.95917,"lng":5.81389,"population":3366},{"id":6692371,"name":"Jubbega","timezone":{"dstOffset":2,"gmtOffset":1,"timeZoneId":"Europe/Amsterdam"},"lat":53.00396,"lng":6.12183,"population":3359},{"id":2759922,"name":"Akkrum","timezone":{"dstOffset":2,"gmtOffset":1,"timeZoneId":"Europe/Amsterdam"},"lat":53.05024,"lng":5.83087,"population":3290},{"id":2747231,"name":"Sint Nicolaasga","timezone":{"dstOffset":2,"gmtOffset":1,"timeZoneId":"Europe/Amsterdam"},"lat":52.92293,"lng":5.74242,"population":3270},{"id":2751641,"name":"Lienden","timezone":{"dstOffset":2,"gmtOffset":1,"timeZoneId":"Europe/Amsterdam"},"lat":51.94833,"lng":5.51806,"population":3225},{"id":2753379,"name":"IJlst","timezone":{"dstOffset":2,"gmtOffset":1,"timeZoneId":"Europe/Amsterdam"},"lat":53.01009,"lng":5.62312,"population":3180},{"id":2756072,"name":"Ens","timezone":{"dstOffset":2,"gmtOffset":1,"timeZoneId":"Europe/Amsterdam"},"lat":52.63667,"lng":5.82778,"population":3174},{"id":2750624,"name":"Montfort","timezone":{"dstOffset":2,"gmtOffset":1,"timeZoneId":"Europe/Amsterdam"},"lat":51.12583,"lng":5.94861,"population":3145},{"id":2756426,"name":"Ederveen","timezone":{"dstOffset":2,"gmtOffset":1,"timeZoneId":"Europe/Amsterdam"},"lat":52.06333,"lng":5.57778,"population":3100},{"id":2745369,"name":"Voerendaal","timezone":{"dstOffset":2,"gmtOffset":1,"timeZoneId":"Europe/Amsterdam"},"lat":50.88327,"lng":5.92978,"population":3100},{"id":2754752,"name":"Havelte","timezone":{"dstOffset":2,"gmtOffset":1,"timeZoneId":"Europe/Amsterdam"},"lat":52.76941,"lng":6.24015,"population":3090},{"id":2756114,"name":"Emst","timezone":{"dstOffset":2,"gmtOffset":1,"timeZoneId":"Europe/Amsterdam"},"lat":52.31583,"lng":5.97361,"population":3000},{"id":2744122,"name":"Zaamslag","timezone":{"dstOffset":2,"gmtOffset":1,"timeZoneId":"Europe/Amsterdam"},"lat":51.3125,"lng":3.9125,"population":2980},{"id":2747553,"name":"Schinnen","timezone":{"dstOffset":2,"gmtOffset":1,"timeZoneId":"Europe/Amsterdam"},"lat":50.94333,"lng":5.88889,"population":2970},{"id":2752520,"name":"Kollumerzwaag","timezone":{"dstOffset":2,"gmtOffset":1,"timeZoneId":"Europe/Amsterdam"},"lat":53.26224,"lng":6.07544,"population":2960},{"id":6929985,"name":"Lakerlopen","timezone":{"dstOffset":2,"gmtOffset":1,"timeZoneId":"Europe/Amsterdam"},"lat":51.43791,"lng":5.50106,"population":2863},{"id":2754322,"name":"Herveld","timezone":{"dstOffset":2,"gmtOffset":1,"timeZoneId":"Europe/Amsterdam"},"lat":51.90583,"lng":5.75417,"population":2862},{"id":2755317,"name":"Grijpskerk","timezone":{"dstOffset":2,"gmtOffset":1,"timeZoneId":"Europe/Amsterdam"},"lat":53.2625,"lng":6.30833,"population":2809},{"id":2754930,"name":"Hallum","timezone":{"dstOffset":2,"gmtOffset":1,"timeZoneId":"Europe/Amsterdam"},"lat":53.30657,"lng":5.78379,"population":2758},{"id":2750965,"name":"Menaam","timezone":{"dstOffset":2,"gmtOffset":1,"timeZoneId":"Europe/Amsterdam"},"lat":53.21797,"lng":5.66124,"population":2682},{"id":2752547,"name":"Koewacht","timezone":{"dstOffset":2,"gmtOffset":1,"timeZoneId":"Europe/Amsterdam"},"lat":51.22833,"lng":3.97361,"population":2656},{"id":6948945,"name":"Oranjewijk","timezone":{"dstOffset":2,"gmtOffset":1,"timeZoneId":"Europe/Amsterdam"},"lat":52.04922,"lng":4.65374,"population":2650},{"id":2755399,"name":"Goutum","timezone":{"dstOffset":2,"gmtOffset":1,"timeZoneId":"Europe/Amsterdam"},"lat":53.17734,"lng":5.8037,"population":2634},{"id":2752367,"name":"Koudum","timezone":{"dstOffset":2,"gmtOffset":1,"timeZoneId":"Europe/Amsterdam"},"lat":52.91551,"lng":5.44834,"population":2600},{"id":2759342,"name":"Beekbergen","timezone":{"dstOffset":2,"gmtOffset":1,"timeZoneId":"Europe/Amsterdam"},"lat":52.16,"lng":5.96389,"population":2590},{"id":2759286,"name":"Beesel","timezone":{"dstOffset":2,"gmtOffset":1,"timeZoneId":"Europe/Amsterdam"},"lat":51.26833,"lng":6.03889,"population":2557},{"id":2744871,"name":"Wekerom","timezone":{"dstOffset":2,"gmtOffset":1,"timeZoneId":"Europe/Amsterdam"},"lat":52.1125,"lng":5.71389,"population":2540},{"id":2759057,"name":"Berltsum","timezone":{"dstOffset":2,"gmtOffset":1,"timeZoneId":"Europe/Amsterdam"},"lat":53.2437,"lng":5.65101,"population":2530},{"id":2745382,"name":"Vlodrop","timezone":{"dstOffset":2,"gmtOffset":1,"timeZoneId":"Europe/Amsterdam"},"lat":51.13333,"lng":6.07639,"population":2523},{"id":2744608,"name":"West-Terschelling","timezone":{"dstOffset":2,"gmtOffset":1,"timeZoneId":"Europe/Amsterdam"},"lat":53.35911,"lng":5.21482,"population":2520},{"id":2758391,"name":"Bredeweg","timezone":{"dstOffset":2,"gmtOffset":1,"timeZoneId":"Europe/Amsterdam"},"lat":51.76019,"lng":5.94189,"population":2500},{"id":2752192,"name":"Kruisland","timezone":{"dstOffset":2,"gmtOffset":1,"timeZoneId":"Europe/Amsterdam"},"lat":51.56917,"lng":4.40972,"population":2500},{"id":2749653,"name":"Oldemarkt","timezone":{"dstOffset":2,"gmtOffset":1,"timeZoneId":"Europe/Amsterdam"},"lat":52.82083,"lng":5.975,"population":2500},{"id":6948946,"name":"Vondelwijk","timezone":{"dstOffset":2,"gmtOffset":1,"timeZoneId":"Europe/Amsterdam"},"lat":52.05497,"lng":4.65314,"population":2440},{"id":2756451,"name":"Dwingeloo","timezone":{"dstOffset":2,"gmtOffset":1,"timeZoneId":"Europe/Amsterdam"},"lat":52.83417,"lng":6.36944,"population":2430},{"id":2747109,"name":"Sluiskil","timezone":{"dstOffset":2,"gmtOffset":1,"timeZoneId":"Europe/Amsterdam"},"lat":51.27833,"lng":3.83611,"population":2411},{"id":2758007,"name":"Capelle-West","timezone":{"dstOffset":2,"gmtOffset":1,"timeZoneId":"Europe/Amsterdam"},"lat":51.91667,"lng":4.56667,"population":2400},{"id":2749992,"name":"Noardburgum","timezone":{"dstOffset":2,"gmtOffset":1,"timeZoneId":"Europe/Amsterdam"},"lat":53.22135,"lng":6.00523,"population":2385},{"id":2744388,"name":"Willemstad","timezone":{"dstOffset":2,"gmtOffset":1,"timeZoneId":"Europe/Amsterdam"},"lat":51.69167,"lng":4.43889,"population":2362},{"id":2759961,"name":"Aduard","timezone":{"dstOffset":2,"gmtOffset":1,"timeZoneId":"Europe/Amsterdam"},"lat":53.25667,"lng":6.45972,"population":2360},{"id":2749449,"name":"Oosterhout","timezone":{"dstOffset":2,"gmtOffset":1,"timeZoneId":"Europe/Amsterdam"},"lat":51.88,"lng":5.82639,"population":2340},{"id":2754942,"name":"Halfweg","timezone":{"dstOffset":2,"gmtOffset":1,"timeZoneId":"Europe/Amsterdam"},"lat":52.52417,"lng":4.92778,"population":2330},{"id":2747117,"name":"Sluis","timezone":{"dstOffset":2,"gmtOffset":1,"timeZoneId":"Europe/Amsterdam"},"lat":51.30833,"lng":3.38611,"population":2322},{"id":2750117,"name":"Nieuw-Vossemeer","timezone":{"dstOffset":2,"gmtOffset":1,"timeZoneId":"Europe/Amsterdam"},"lat":51.59,"lng":4.21806,"population":2300},{"id":2751709,"name":"Lepelstraat","timezone":{"dstOffset":2,"gmtOffset":1,"timeZoneId":"Europe/Amsterdam"},"lat":51.54833,"lng":4.27639,"population":2300},{"id":2747182,"name":"Sleen","timezone":{"dstOffset":2,"gmtOffset":1,"timeZoneId":"Europe/Amsterdam"},"lat":52.77167,"lng":6.80278,"population":2287},{"id":2757194,"name":"Den Oever","timezone":{"dstOffset":2,"gmtOffset":1,"timeZoneId":"Europe/Amsterdam"},"lat":52.93353,"lng":5.03079,"population":2286},{"id":2755542,"name":"Gytsjerk","timezone":{"dstOffset":2,"gmtOffset":1,"timeZoneId":"Europe/Amsterdam"},"lat":53.24293,"lng":5.89502,"population":2279},{"id":2749203,"name":"Otterlo","timezone":{"dstOffset":2,"gmtOffset":1,"timeZoneId":"Europe/Amsterdam"},"lat":52.1,"lng":5.77222,"population":2230},{"id":2747371,"name":"'s Gravenmoer","timezone":{"dstOffset":2,"gmtOffset":1,"timeZoneId":"Europe/Amsterdam"},"lat":51.65594,"lng":4.94076,"population":2200},{"id":2751524,"name":"Loenen","timezone":{"dstOffset":2,"gmtOffset":1,"timeZoneId":"Europe/Amsterdam"},"lat":52.1175,"lng":6.01944,"population":2140},{"id":2755517,"name":"Giethoorn","timezone":{"dstOffset":2,"gmtOffset":1,"timeZoneId":"Europe/Amsterdam"},"lat":52.74,"lng":6.07917,"population":2130},{"id":2744800,"name":"Westdorpe","timezone":{"dstOffset":2,"gmtOffset":1,"timeZoneId":"Europe/Amsterdam"},"lat":51.2325,"lng":3.82639,"population":2113},{"id":2744191,"name":"Wommels","timezone":{"dstOffset":2,"gmtOffset":1,"timeZoneId":"Europe/Amsterdam"},"lat":53.10883,"lng":5.58749,"population":2104},{"id":2759163,"name":"Berg","timezone":{"dstOffset":2,"gmtOffset":1,"timeZoneId":"Europe/Amsterdam"},"lat":51.00417,"lng":5.77083,"population":2080},{"id":2755732,"name":"Garderen","timezone":{"dstOffset":2,"gmtOffset":1,"timeZoneId":"Europe/Amsterdam"},"lat":52.23083,"lng":5.71389,"population":2060},{"id":2753097,"name":"Kamperland","timezone":{"dstOffset":2,"gmtOffset":1,"timeZoneId":"Europe/Amsterdam"},"lat":51.57167,"lng":3.70417,"population":2049},{"id":2749735,"name":"Odiliapeel","timezone":{"dstOffset":2,"gmtOffset":1,"timeZoneId":"Europe/Amsterdam"},"lat":51.64333,"lng":5.70556,"population":2040},{"id":2754712,"name":"Heeg","timezone":{"dstOffset":2,"gmtOffset":1,"timeZoneId":"Europe/Amsterdam"},"lat":52.9686,"lng":5.61075,"population":2000},{"id":2746051,"name":"Twijzelerheide","timezone":{"dstOffset":2,"gmtOffset":1,"timeZoneId":"Europe/Amsterdam"},"lat":53.24015,"lng":6.04591,"population":2000},{"id":7870372,"name":"Gulden Bodem","timezone":{"dstOffset":2,"gmtOffset":1,"timeZoneId":"Europe/Amsterdam"},"lat":51.99428,"lng":5.8908,"population":2000},{"id":7870373,"name":"Sterrenberg","timezone":{"dstOffset":2,"gmtOffset":1,"timeZoneId":"Europe/Amsterdam"},"lat":51.9935,"lng":5.88387,"population":2000},{"id":7870374,"name":"Burgemeesterswijk","timezone":{"dstOffset":2,"gmtOffset":1,"timeZoneId":"Europe/Amsterdam"},"lat":51.98943,"lng":5.89597,"population":2000},{"id":2748403,"name":"Puth","timezone":{"dstOffset":2,"gmtOffset":1,"timeZoneId":"Europe/Amsterdam"},"lat":50.95417,"lng":5.87361,"population":1990},{"id":2752646,"name":"Klimmen","timezone":{"dstOffset":2,"gmtOffset":1,"timeZoneId":"Europe/Amsterdam"},"lat":50.87583,"lng":5.88056,"population":1980},{"id":2749703,"name":"Oerle","timezone":{"dstOffset":2,"gmtOffset":1,"timeZoneId":"Europe/Amsterdam"},"lat":51.42255,"lng":5.37163,"population":1962},{"id":2758275,"name":"Broekhem","timezone":{"dstOffset":2,"gmtOffset":1,"timeZoneId":"Europe/Amsterdam"},"lat":50.87119,"lng":5.82069,"population":1960},{"id":2759147,"name":"Berg en Dal","timezone":{"dstOffset":2,"gmtOffset":1,"timeZoneId":"Europe/Amsterdam"},"lat":51.82167,"lng":5.91667,"population":1949},{"id":2749120,"name":"Oudehaske","timezone":{"dstOffset":2,"gmtOffset":1,"timeZoneId":"Europe/Amsterdam"},"lat":52.95709,"lng":5.87095,"population":1940},{"id":2755920,"name":"Ferwert","timezone":{"dstOffset":2,"gmtOffset":1,"timeZoneId":"Europe/Amsterdam"},"lat":53.33784,"lng":5.82533,"population":1935},{"id":2755729,"name":"Garyp","timezone":{"dstOffset":2,"gmtOffset":1,"timeZoneId":"Europe/Amsterdam"},"lat":53.16667,"lng":5.96667,"population":1901},{"id":2756050,"name":"Epse","timezone":{"dstOffset":2,"gmtOffset":1,"timeZoneId":"Europe/Amsterdam"},"lat":52.225,"lng":6.2,"population":1900},{"id":2756878,"name":"Diepenheim","timezone":{"dstOffset":2,"gmtOffset":1,"timeZoneId":"Europe/Amsterdam"},"lat":52.2,"lng":6.55556,"population":1900},{"id":2749281,"name":"Opperdoes","timezone":{"dstOffset":2,"gmtOffset":1,"timeZoneId":"Europe/Amsterdam"},"lat":52.75915,"lng":5.07534,"population":1860},{"id":2752950,"name":"Marken","timezone":{"dstOffset":2,"gmtOffset":1,"timeZoneId":"Europe/Amsterdam"},"lat":52.45833,"lng":5.10278,"population":1846},{"id":2756567,"name":"Drogeham","timezone":{"dstOffset":2,"gmtOffset":1,"timeZoneId":"Europe/Amsterdam"},"lat":53.20213,"lng":6.11183,"population":1800},{"id":2759429,"name":"Barchem","timezone":{"dstOffset":2,"gmtOffset":1,"timeZoneId":"Europe/Amsterdam"},"lat":52.12417,"lng":6.44306,"population":1790},{"id":2746009,"name":"Uddel","timezone":{"dstOffset":2,"gmtOffset":1,"timeZoneId":"Europe/Amsterdam"},"lat":52.25917,"lng":5.78056,"population":1790},{"id":6929984,"name":"Villapark","timezone":{"dstOffset":2,"gmtOffset":1,"timeZoneId":"Europe/Amsterdam"},"lat":51.44144,"lng":5.49385,"population":1783},{"id":2749708,"name":"Oentsjerk","timezone":{"dstOffset":2,"gmtOffset":1,"timeZoneId":"Europe/Amsterdam"},"lat":53.25,"lng":5.9,"population":1781},{"id":2759796,"name":"Amstenrade","timezone":{"dstOffset":2,"gmtOffset":1,"timeZoneId":"Europe/Amsterdam"},"lat":50.93917,"lng":5.92361,"population":1770},{"id":2747380,"name":"Sexbierum","timezone":{"dstOffset":2,"gmtOffset":1,"timeZoneId":"Europe/Amsterdam"},"lat":53.21823,"lng":5.48402,"population":1759},{"id":2744219,"name":"Wolfheze","timezone":{"dstOffset":2,"gmtOffset":1,"timeZoneId":"Europe/Amsterdam"},"lat":52.00333,"lng":5.79028,"population":1757},{"id":2746038,"name":"Tynaarlo","timezone":{"dstOffset":2,"gmtOffset":1,"timeZoneId":"Europe/Amsterdam"},"lat":53.0775,"lng":6.61667,"population":1754},{"id":2759781,"name":"Andelst","timezone":{"dstOffset":2,"gmtOffset":1,"timeZoneId":"Europe/Amsterdam"},"lat":51.90833,"lng":5.72917,"population":1735},{"id":2746761,"name":"Steenwijkerwold","timezone":{"dstOffset":2,"gmtOffset":1,"timeZoneId":"Europe/Amsterdam"},"lat":52.80417,"lng":6.06389,"population":1730},{"id":2749136,"name":"Oudega","timezone":{"dstOffset":2,"gmtOffset":1,"timeZoneId":"Europe/Amsterdam"},"lat":53.12504,"lng":5.99888,"population":1723},{"id":2750938,"name":"Merkelbeek","timezone":{"dstOffset":2,"gmtOffset":1,"timeZoneId":"Europe/Amsterdam"},"lat":50.95389,"lng":5.94069,"population":1720},{"id":2748926,"name":"Oud-Loosdrecht","timezone":{"dstOffset":2,"gmtOffset":1,"timeZoneId":"Europe/Amsterdam"},"lat":52.20667,"lng":5.08056,"population":1720},{"id":2749304,"name":"Opeinde","timezone":{"dstOffset":2,"gmtOffset":1,"timeZoneId":"Europe/Amsterdam"},"lat":53.1341,"lng":6.05656,"population":1710},{"id":2759129,"name":"Bergharen","timezone":{"dstOffset":2,"gmtOffset":1,"timeZoneId":"Europe/Amsterdam"},"lat":51.85083,"lng":5.66944,"population":1700},{"id":2744373,"name":"Wilp","timezone":{"dstOffset":2,"gmtOffset":1,"timeZoneId":"Europe/Amsterdam"},"lat":52.21833,"lng":6.15,"population":1700},{"id":2749513,"name":"Oostelbeers","timezone":{"dstOffset":2,"gmtOffset":1,"timeZoneId":"Europe/Amsterdam"},"lat":51.47171,"lng":5.26897,"population":1700},{"id":2752492,"name":"Koningsbosch","timezone":{"dstOffset":2,"gmtOffset":1,"timeZoneId":"Europe/Amsterdam"},"lat":51.05167,"lng":5.95833,"population":1696},{"id":2745885,"name":"Valburg","timezone":{"dstOffset":2,"gmtOffset":1,"timeZoneId":"Europe/Amsterdam"},"lat":51.91167,"lng":5.79028,"population":1678},{"id":2754835,"name":"Harfsen","timezone":{"dstOffset":2,"gmtOffset":1,"timeZoneId":"Europe/Amsterdam"},"lat":52.2075,"lng":6.29722,"population":1670},{"id":2749660,"name":"Oldehove","timezone":{"dstOffset":2,"gmtOffset":1,"timeZoneId":"Europe/Amsterdam"},"lat":53.30333,"lng":6.39583,"population":1648},{"id":2750790,"name":"Minnertsga","timezone":{"dstOffset":2,"gmtOffset":1,"timeZoneId":"Europe/Amsterdam"},"lat":53.25104,"lng":5.59513,"population":1640},{"id":2745018,"name":"Wergea","timezone":{"dstOffset":2,"gmtOffset":1,"timeZoneId":"Europe/Amsterdam"},"lat":53.15145,"lng":5.84404,"population":1622},{"id":2753852,"name":"Holwerd","timezone":{"dstOffset":2,"gmtOffset":1,"timeZoneId":"Europe/Amsterdam"},"lat":53.36815,"lng":5.90073,"population":1620},{"id":2751193,"name":"Mariaheide","timezone":{"dstOffset":2,"gmtOffset":1,"timeZoneId":"Europe/Amsterdam"},"lat":51.63333,"lng":5.58056,"population":1600},{"id":2748286,"name":"Reek","timezone":{"dstOffset":2,"gmtOffset":1,"timeZoneId":"Europe/Amsterdam"},"lat":51.74583,"lng":5.68194,"population":1600},{"id":2749875,"name":"Noordhorn","timezone":{"dstOffset":2,"gmtOffset":1,"timeZoneId":"Europe/Amsterdam"},"lat":53.26167,"lng":6.39583,"population":1584},{"id":2748240,"name":"Renesse","timezone":{"dstOffset":2,"gmtOffset":1,"timeZoneId":"Europe/Amsterdam"},"lat":51.7325,"lng":3.775,"population":1583},{"id":2747671,"name":"Scharnegoutum","timezone":{"dstOffset":2,"gmtOffset":1,"timeZoneId":"Europe/Amsterdam"},"lat":53.06051,"lng":5.67822,"population":1580},{"id":2749430,"name":"Eastermar","timezone":{"dstOffset":2,"gmtOffset":1,"timeZoneId":"Europe/Amsterdam"},"lat":53.17466,"lng":6.05999,"population":1572},{"id":2746311,"name":"Tytsjerk","timezone":{"dstOffset":2,"gmtOffset":1,"timeZoneId":"Europe/Amsterdam"},"lat":53.21343,"lng":5.90961,"population":1545},{"id":2743877,"name":"Zijtaart","timezone":{"dstOffset":2,"gmtOffset":1,"timeZoneId":"Europe/Amsterdam"},"lat":51.5925,"lng":5.54167,"population":1543},{"id":2746023,"name":"Tzummarum","timezone":{"dstOffset":2,"gmtOffset":1,"timeZoneId":"Europe/Amsterdam"},"lat":53.23733,"lng":5.54612,"population":1533},{"id":2745196,"name":"Vreeland","timezone":{"dstOffset":2,"gmtOffset":1,"timeZoneId":"Europe/Amsterdam"},"lat":52.23,"lng":5.03194,"population":1530},{"id":2756349,"name":"Eerde","timezone":{"dstOffset":2,"gmtOffset":1,"timeZoneId":"Europe/Amsterdam"},"lat":51.60417,"lng":5.49861,"population":1521},{"id":2756584,"name":"Driemond","timezone":{"dstOffset":2,"gmtOffset":1,"timeZoneId":"Europe/Amsterdam"},"lat":52.30583,"lng":5.01667,"population":1500},{"id":2758393,"name":"Bredevoort","timezone":{"dstOffset":2,"gmtOffset":1,"timeZoneId":"Europe/Amsterdam"},"lat":51.94167,"lng":6.62083,"population":1500},{"id":2754389,"name":"Hengevelde","timezone":{"dstOffset":2,"gmtOffset":1,"timeZoneId":"Europe/Amsterdam"},"lat":52.19917,"lng":6.63611,"population":1500},{"id":2744869,"name":"Welberg","timezone":{"dstOffset":2,"gmtOffset":1,"timeZoneId":"Europe/Amsterdam"},"lat":51.57667,"lng":4.33056,"population":1500},{"id":2746596,"name":"Stroe","timezone":{"dstOffset":2,"gmtOffset":1,"timeZoneId":"Europe/Amsterdam"},"lat":52.18583,"lng":5.69167,"population":1500},{"id":2749712,"name":"Oene","timezone":{"dstOffset":2,"gmtOffset":1,"timeZoneId":"Europe/Amsterdam"},"lat":52.34417,"lng":6.04861,"population":1500},{"id":7870365,"name":"Hoogkamp","timezone":{"dstOffset":2,"gmtOffset":1,"timeZoneId":"Europe/Amsterdam"},"lat":51.9963,"lng":5.88026,"population":1500},{"id":8449928,"name":"Spechtenkamp","timezone":{"dstOffset":2,"gmtOffset":1,"timeZoneId":"Europe/Amsterdam"},"lat":52.13926,"lng":5.01758,"population":1500},{"id":2758633,"name":"Boornbergum","timezone":{"dstOffset":2,"gmtOffset":1,"timeZoneId":"Europe/Amsterdam"},"lat":53.08284,"lng":6.04578,"population":1497},{"id":2750480,"name":"Nederhemert","timezone":{"dstOffset":2,"gmtOffset":1,"timeZoneId":"Europe/Amsterdam"},"lat":51.76518,"lng":5.16817,"population":1496},{"id":2747865,"name":"Rozendaal","timezone":{"dstOffset":2,"gmtOffset":1,"timeZoneId":"Europe/Amsterdam"},"lat":52.00583,"lng":5.9625,"population":1496},{"id":6697854,"name":"De Knipe","timezone":{"dstOffset":2,"gmtOffset":1,"timeZoneId":"Europe/Amsterdam"},"lat":52.96829,"lng":5.97116,"population":1496},{"id":2750479,"name":"Nederhemert-Noord","timezone":{"dstOffset":2,"gmtOffset":1,"timeZoneId":"Europe/Amsterdam"},"lat":51.76322,"lng":5.17305,"population":1490},{"id":2746120,"name":"Tuk","timezone":{"dstOffset":2,"gmtOffset":1,"timeZoneId":"Europe/Amsterdam"},"lat":52.79667,"lng":6.09444,"population":1490},{"id":2748329,"name":"Randwijk","timezone":{"dstOffset":2,"gmtOffset":1,"timeZoneId":"Europe/Amsterdam"},"lat":51.95333,"lng":5.70833,"population":1487},{"id":2749007,"name":"Oudeschoot","timezone":{"dstOffset":2,"gmtOffset":1,"timeZoneId":"Europe/Amsterdam"},"lat":52.93343,"lng":5.95579,"population":1484},{"id":2751129,"name":"Marrum","timezone":{"dstOffset":2,"gmtOffset":1,"timeZoneId":"Europe/Amsterdam"},"lat":53.32277,"lng":5.80198,"population":1483},{"id":2746407,"name":"Terschuur","timezone":{"dstOffset":2,"gmtOffset":1,"timeZoneId":"Europe/Amsterdam"},"lat":52.165,"lng":5.51667,"population":1480},{"id":2750310,"name":"Nieuwehorne","timezone":{"dstOffset":2,"gmtOffset":1,"timeZoneId":"Europe/Amsterdam"},"lat":52.95113,"lng":6.06342,"population":1472},{"id":2753548,"name":"Houthem","timezone":{"dstOffset":2,"gmtOffset":1,"timeZoneId":"Europe/Amsterdam"},"lat":50.8725,"lng":5.79306,"population":1470},{"id":2754662,"name":"Heerewaarden","timezone":{"dstOffset":2,"gmtOffset":1,"timeZoneId":"Europe/Amsterdam"},"lat":51.81769,"lng":5.393,"population":1466},{"id":2749669,"name":"Aldeboarn","timezone":{"dstOffset":2,"gmtOffset":1,"timeZoneId":"Europe/Amsterdam"},"lat":53.05,"lng":5.9,"population":1453},{"id":2746565,"name":"Sumar","timezone":{"dstOffset":2,"gmtOffset":1,"timeZoneId":"Europe/Amsterdam"},"lat":53.18333,"lng":6,"population":1402},{"id":2746014,"name":"Ubachsberg","timezone":{"dstOffset":2,"gmtOffset":1,"timeZoneId":"Europe/Amsterdam"},"lat":50.85333,"lng":5.94861,"population":1390},{"id":2748864,"name":"Overberg","timezone":{"dstOffset":2,"gmtOffset":1,"timeZoneId":"Europe/Amsterdam"},"lat":52.04,"lng":5.49444,"population":1379},{"id":2747270,"name":"Sint Jacobiparochie","timezone":{"dstOffset":2,"gmtOffset":1,"timeZoneId":"Europe/Amsterdam"},"lat":53.27291,"lng":5.60354,"population":1370},{"id":2747886,"name":"Rottevalle","timezone":{"dstOffset":2,"gmtOffset":1,"timeZoneId":"Europe/Amsterdam"},"lat":53.14523,"lng":6.10411,"population":1357},{"id":2747680,"name":"Scharendijke","timezone":{"dstOffset":2,"gmtOffset":1,"timeZoneId":"Europe/Amsterdam"},"lat":51.73583,"lng":3.84306,"population":1347},{"id":2749061,"name":"Oudemirdum","timezone":{"dstOffset":2,"gmtOffset":1,"timeZoneId":"Europe/Amsterdam"},"lat":52.85019,"lng":5.53544,"population":1330},{"id":2751318,"name":"Maarsbergen","timezone":{"dstOffset":2,"gmtOffset":1,"timeZoneId":"Europe/Amsterdam"},"lat":52.05833,"lng":5.40556,"population":1320},{"id":2744153,"name":"Woudsend","timezone":{"dstOffset":2,"gmtOffset":1,"timeZoneId":"Europe/Amsterdam"},"lat":52.94357,"lng":5.62843,"population":1320},{"id":2759611,"name":"Augustinusga","timezone":{"dstOffset":2,"gmtOffset":1,"timeZoneId":"Europe/Amsterdam"},"lat":53.21785,"lng":6.1617,"population":1300},{"id":2746557,"name":"Surhuizum","timezone":{"dstOffset":2,"gmtOffset":1,"timeZoneId":"Europe/Amsterdam"},"lat":53.20475,"lng":6.17981,"population":1300},{"id":2747551,"name":"Schin op Geul","timezone":{"dstOffset":2,"gmtOffset":1,"timeZoneId":"Europe/Amsterdam"},"lat":50.85417,"lng":5.86944,"population":1300},{"id":2757041,"name":"De Steeg","timezone":{"dstOffset":2,"gmtOffset":1,"timeZoneId":"Europe/Amsterdam"},"lat":52.02,"lng":6.06111,"population":1280},{"id":2753307,"name":"Jirnsum","timezone":{"dstOffset":2,"gmtOffset":1,"timeZoneId":"Europe/Amsterdam"},"lat":53.07753,"lng":5.79254,"population":1278},{"id":2743561,"name":"Zwartebroek","timezone":{"dstOffset":2,"gmtOffset":1,"timeZoneId":"Europe/Amsterdam"},"lat":52.17917,"lng":5.50417,"population":1260},{"id":2751449,"name":"Loosbroek","timezone":{"dstOffset":2,"gmtOffset":1,"timeZoneId":"Europe/Amsterdam"},"lat":51.67833,"lng":5.50694,"population":1260},{"id":2757493,"name":"De Horst","timezone":{"dstOffset":2,"gmtOffset":1,"timeZoneId":"Europe/Amsterdam"},"lat":51.77417,"lng":5.96806,"population":1250},{"id":2758239,"name":"Broeksterwld","timezone":{"dstOffset":2,"gmtOffset":1,"timeZoneId":"Europe/Amsterdam"},"lat":53.27466,"lng":5.99648,"population":1236},{"id":2744327,"name":"Wirdum","timezone":{"dstOffset":2,"gmtOffset":1,"timeZoneId":"Europe/Amsterdam"},"lat":53.14893,"lng":5.80387,"population":1232},{"id":2753887,"name":"Hollum","timezone":{"dstOffset":2,"gmtOffset":1,"timeZoneId":"Europe/Amsterdam"},"lat":53.4394,"lng":5.63805,"population":1230},{"id":2746424,"name":"Ternaard","timezone":{"dstOffset":2,"gmtOffset":1,"timeZoneId":"Europe/Amsterdam"},"lat":53.38203,"lng":5.96523,"population":1230},{"id":2744859,"name":"Wellerlooi","timezone":{"dstOffset":2,"gmtOffset":1,"timeZoneId":"Europe/Amsterdam"},"lat":51.53417,"lng":6.13611,"population":1225},{"id":2746024,"name":"Tzum","timezone":{"dstOffset":2,"gmtOffset":1,"timeZoneId":"Europe/Amsterdam"},"lat":53.15899,"lng":5.56277,"population":1225},{"id":2756438,"name":"Echtenerbrug","timezone":{"dstOffset":2,"gmtOffset":1,"timeZoneId":"Europe/Amsterdam"},"lat":52.87141,"lng":5.82147,"population":1200},{"id":2758081,"name":"Burgh","timezone":{"dstOffset":2,"gmtOffset":1,"timeZoneId":"Europe/Amsterdam"},"lat":51.68917,"lng":3.73333,"population":1200},{"id":2758748,"name":"Boelenslaan","timezone":{"dstOffset":2,"gmtOffset":1,"timeZoneId":"Europe/Amsterdam"},"lat":53.1617,"lng":6.14479,"population":1200},{"id":2759581,"name":"Baak","timezone":{"dstOffset":2,"gmtOffset":1,"timeZoneId":"Europe/Amsterdam"},"lat":52.0775,"lng":6.22778,"population":1200},{"id":2756642,"name":"Drachtstercompagnie","timezone":{"dstOffset":2,"gmtOffset":1,"timeZoneId":"Europe/Amsterdam"},"lat":53.13462,"lng":6.14153,"population":1191},{"id":2747262,"name":"Sint Jansklooster","timezone":{"dstOffset":2,"gmtOffset":1,"timeZoneId":"Europe/Amsterdam"},"lat":52.6775,"lng":6.00556,"population":1190},{"id":2751122,"name":"Marsum","timezone":{"dstOffset":2,"gmtOffset":1,"timeZoneId":"Europe/Amsterdam"},"lat":53.2105,"lng":5.72637,"population":1185},{"id":2750280,"name":"Nieuwenhoorn","timezone":{"dstOffset":2,"gmtOffset":1,"timeZoneId":"Europe/Amsterdam"},"lat":51.85417,"lng":4.14306,"population":1180},{"id":6929953,"name":"Kelpen-Oler","timezone":{"dstOffset":2,"gmtOffset":1,"timeZoneId":"Europe/Amsterdam"},"lat":51.21817,"lng":5.82602,"population":1170},{"id":2758895,"name":"Burdaard","timezone":{"dstOffset":2,"gmtOffset":1,"timeZoneId":"Europe/Amsterdam"},"lat":53.29421,"lng":5.87897,"population":1166},{"id":2759884,"name":"Almen","timezone":{"dstOffset":2,"gmtOffset":1,"timeZoneId":"Europe/Amsterdam"},"lat":52.15833,"lng":6.3,"population":1160},{"id":2759757,"name":"Anjum","timezone":{"dstOffset":2,"gmtOffset":1,"timeZoneId":"Europe/Amsterdam"},"lat":53.37475,"lng":6.12698,"population":1155},{"id":2758549,"name":"Boskamp","timezone":{"dstOffset":2,"gmtOffset":1,"timeZoneId":"Europe/Amsterdam"},"lat":52.33083,"lng":6.12778,"population":1150},{"id":2749284,"name":"Oppenhuizen","timezone":{"dstOffset":2,"gmtOffset":1,"timeZoneId":"Europe/Amsterdam"},"lat":53.01194,"lng":5.69495,"population":1150},{"id":2751212,"name":"Mantgum","timezone":{"dstOffset":2,"gmtOffset":1,"timeZoneId":"Europe/Amsterdam"},"lat":53.12865,"lng":5.71924,"population":1141},