[{"id":3143244,"name":"Oslo","timezone":{"dstOffset":2,"gmtOffset":1,"timeZoneId":"Europe/Oslo"},"lat":59.91273,"lng":10.74609,"population":580000},{"id":3161732,"name":"Bergen","timezone":{"dstOffset":2,"gmtOffset":1,"timeZoneId":"Europe/Oslo"},"lat":60.39299,"lng":5.32415,"population":213585},{"id":3133880,"name":"Trondheim","timezone":{"dstOffset":2,"gmtOffset":1,"timeZoneId":"Europe/Oslo"},"lat":63.43049,"lng":10.39506,"population":147139},{"id":3137115,"name":"Stavanger","timezone":{"dstOffset":2,"gmtOffset":1,"timeZoneId":"Europe/Oslo"},"lat":58.97005,"lng":5.73332,"population":121610},{"id":3159016,"name":"Drammen","timezone":{"dstOffset":2,"gmtOffset":1,"timeZoneId":"Europe/Oslo"},"lat":59.74389,"lng":10.20449,"population":90722},{"id":3156529,"name":"Fredrikstad","timezone":{"dstOffset":2,"gmtOffset":1,"timeZoneId":"Europe/Oslo"},"lat":59.2181,"lng":10.9298,"population":72760},{"id":3149318,"name":"Kristiansand","timezone":{"dstOffset":2,"gmtOffset":1,"timeZoneId":"Europe/Oslo"},"lat":58.14671,"lng":7.9956,"population":63814},{"id":3140321,"name":"Sandnes","timezone":{"dstOffset":2,"gmtOffset":1,"timeZoneId":"Europe/Oslo"},"lat":58.85244,"lng":5.73521,"population":63032},{"id":3133895,"name":"Tromsø","timezone":{"dstOffset":2,"gmtOffset":1,"timeZoneId":"Europe/Oslo"},"lat":69.6489,"lng":18.95508,"population":52436},{"id":3140084,"name":"Sarpsborg","timezone":{"dstOffset":2,"gmtOffset":1,"timeZoneId":"Europe/Oslo"},"lat":59.28391,"lng":11.10962,"population":52159},{"id":3139075,"name":"Skien","timezone":{"dstOffset":2,"gmtOffset":1,"timeZoneId":"Europe/Oslo"},"lat":59.20962,"lng":9.60897,"population":50595},{"id":3163392,"name":"Ålesund","timezone":{"dstOffset":2,"gmtOffset":1,"timeZoneId":"Europe/Oslo"},"lat":62.47225,"lng":6.15492,"population":44096},{"id":3140390,"name":"Sandefjord","timezone":{"dstOffset":2,"gmtOffset":1,"timeZoneId":"Europe/Oslo"},"lat":59.13118,"lng":10.21665,"population":42654},{"id":3153623,"name":"Haugesund","timezone":{"dstOffset":2,"gmtOffset":1,"timeZoneId":"Europe/Oslo"},"lat":59.41378,"lng":5.268,"population":40321},{"id":3134331,"name":"Tønsberg","timezone":{"dstOffset":2,"gmtOffset":1,"timeZoneId":"Europe/Oslo"},"lat":59.26754,"lng":10.40762,"population":38914},{"id":3145375,"name":"Moss","timezone":{"dstOffset":2,"gmtOffset":1,"timeZoneId":"Europe/Oslo"},"lat":59.43403,"lng":10.65771,"population":34492},{"id":3142657,"name":"Porsgrunn","timezone":{"dstOffset":2,"gmtOffset":1,"timeZoneId":"Europe/Oslo"},"lat":59.14054,"lng":9.6561,"population":34377},{"id":3160881,"name":"Bodø","timezone":{"dstOffset":2,"gmtOffset":1,"timeZoneId":"Europe/Oslo"},"lat":67.28,"lng":14.40501,"population":34073},{"id":3162955,"name":"Arendal","timezone":{"dstOffset":2,"gmtOffset":1,"timeZoneId":"Europe/Oslo"},"lat":58.46151,"lng":8.77253,"population":30916},{"id":3154084,"name":"Hamar","timezone":{"dstOffset":2,"gmtOffset":1,"timeZoneId":"Europe/Oslo"},"lat":60.7945,"lng":11.06798,"population":29479},{"id":6697344,"name":"Ytrebygda","timezone":{"dstOffset":2,"gmtOffset":1,"timeZoneId":"Europe/Oslo"},"lat":60.30504,"lng":5.28236,"population":24044},{"id":3148129,"name":"Larvik","timezone":{"dstOffset":2,"gmtOffset":1,"timeZoneId":"Europe/Oslo"},"lat":59.05328,"lng":10.03517,"population":23113},{"id":3154209,"name":"Halden","timezone":{"dstOffset":2,"gmtOffset":1,"timeZoneId":"Europe/Oslo"},"lat":59.12478,"lng":11.38754,"population":21970},{"id":3136947,"name":"Steinkjer","timezone":{"dstOffset":2,"gmtOffset":1,"timeZoneId":"Europe/Oslo"},"lat":64.01487,"lng":11.49537,"population":20000},{"id":3153823,"name":"Harstad","timezone":{"dstOffset":2,"gmtOffset":1,"timeZoneId":"Europe/Oslo"},"lat":68.79833,"lng":16.54165,"population":19433},{"id":3147474,"name":"Lillehammer","timezone":{"dstOffset":2,"gmtOffset":1,"timeZoneId":"Europe/Oslo"},"lat":61.11514,"lng":10.46628,"population":19096},{"id":3145580,"name":"Molde","timezone":{"dstOffset":2,"gmtOffset":1,"timeZoneId":"Europe/Oslo"},"lat":62.73752,"lng":7.15912,"population":18594},{"id":3145614,"name":"Mo i Rana","timezone":{"dstOffset":2,"gmtOffset":1,"timeZoneId":"Europe/Oslo"},"lat":66.31278,"lng":14.14278,"population":17853},{"id":3149563,"name":"Kongsberg","timezone":{"dstOffset":2,"gmtOffset":1,"timeZoneId":"Europe/Oslo"},"lat":59.66858,"lng":9.65017,"population":17667},{"id":3151770,"name":"Horten","timezone":{"dstOffset":2,"gmtOffset":1,"timeZoneId":"Europe/Oslo"},"lat":59.41721,"lng":10.48343,"population":17660},{"id":3155573,"name":"Gjøvik","timezone":{"dstOffset":2,"gmtOffset":1,"timeZoneId":"Europe/Oslo"},"lat":60.79574,"lng":10.69155,"population":17596},{"id":3336587,"name":"Askøy","timezone":{"dstOffset":2,"gmtOffset":1,"timeZoneId":"Europe/Oslo"},"lat":60.4,"lng":5.18333,"population":17224},{"id":3149312,"name":"Kristiansund","timezone":{"dstOffset":2,"gmtOffset":1,"timeZoneId":"Europe/Oslo"},"lat":63.11045,"lng":7.72795,"population":16785},{"id":3144987,"name":"Narvik","timezone":{"dstOffset":2,"gmtOffset":1,"timeZoneId":"Europe/Oslo"},"lat":68.43838,"lng":17.4272,"population":14114},{"id":3147465,"name":"Lillestrøm","timezone":{"dstOffset":2,"gmtOffset":1,"timeZoneId":"Europe/Oslo"},"lat":59.95597,"lng":11.04918,"population":14000},{"id":3151917,"name":"Hønefoss","timezone":{"dstOffset":2,"gmtOffset":1,"timeZoneId":"Europe/Oslo"},"lat":60.16804,"lng":10.25647,"population":13678},{"id":3139081,"name":"Ski","timezone":{"dstOffset":2,"gmtOffset":1,"timeZoneId":"Europe/Oslo"},"lat":59.71949,"lng":10.83576,"population":12513},{"id":3158300,"name":"Elverum","timezone":{"dstOffset":2,"gmtOffset":1,"timeZoneId":"Europe/Oslo"},"lat":60.88191,"lng":11.56231,"population":12490},{"id":3162651,"name":"Askim","timezone":{"dstOffset":2,"gmtOffset":1,"timeZoneId":"Europe/Oslo"},"lat":59.58326,"lng":11.16286,"population":12482},{"id":3150851,"name":"Jessheim","timezone":{"dstOffset":2,"gmtOffset":1,"timeZoneId":"Europe/Oslo"},"lat":60.14151,"lng":11.17515,"population":12365},{"id":847633,"name":"Alta","timezone":{"dstOffset":2,"gmtOffset":1,"timeZoneId":"Europe/Oslo"},"lat":69.96887,"lng":23.27165,"population":12077},{"id":3136765,"name":"Stjørdalshalsen","timezone":{"dstOffset":2,"gmtOffset":1,"timeZoneId":"Europe/Oslo"},"lat":63.4681,"lng":10.92618,"population":11416},{"id":3158960,"name":"Drøbak","timezone":{"dstOffset":2,"gmtOffset":1,"timeZoneId":"Europe/Oslo"},"lat":59.66333,"lng":10.62975,"population":11363},{"id":3149533,"name":"Kongsvinger","timezone":{"dstOffset":2,"gmtOffset":1,"timeZoneId":"Europe/Oslo"},"lat":60.19049,"lng":11.99772,"population":11181},{"id":3147822,"name":"Leirvik","timezone":{"dstOffset":2,"gmtOffset":1,"timeZoneId":"Europe/Oslo"},"lat":59.77977,"lng":5.50051,"population":11028},{"id":3132208,"name":"Vennesla","timezone":{"dstOffset":2,"gmtOffset":1,"timeZoneId":"Europe/Oslo"},"lat":58.26856,"lng":7.97314,"population":10931},{"id":3336585,"name":"Nesoddtangen","timezone":{"dstOffset":2,"gmtOffset":1,"timeZoneId":"Europe/Oslo"},"lat":59.86244,"lng":10.66308,"population":10911},{"id":3146463,"name":"Mandal","timezone":{"dstOffset":2,"gmtOffset":1,"timeZoneId":"Europe/Oslo"},"lat":58.0274,"lng":7.45342,"population":10143},{"id":3145386,"name":"Mosjøen","timezone":{"dstOffset":2,"gmtOffset":1,"timeZoneId":"Europe/Oslo"},"lat":65.83599,"lng":13.19076,"population":9636},{"id":3155041,"name":"Grimstad","timezone":{"dstOffset":2,"gmtOffset":1,"timeZoneId":"Europe/Oslo"},"lat":58.3405,"lng":8.59343,"population":9561},{"id":3158792,"name":"Egersund","timezone":{"dstOffset":2,"gmtOffset":1,"timeZoneId":"Europe/Oslo"},"lat":58.45133,"lng":5.9997,"population":9502},{"id":3145023,"name":"Namsos","timezone":{"dstOffset":2,"gmtOffset":1,"timeZoneId":"Europe/Oslo"},"lat":64.46624,"lng":11.49572,"population":9035},{"id":3137971,"name":"Søgne","timezone":{"dstOffset":2,"gmtOffset":1,"timeZoneId":"Europe/Oslo"},"lat":58.09328,"lng":7.78294,"population":9000},{"id":3142539,"name":"Råholt","timezone":{"dstOffset":2,"gmtOffset":1,"timeZoneId":"Europe/Oslo"},"lat":60.27513,"lng":11.17901,"population":8593},{"id":3156804,"name":"Førde","timezone":{"dstOffset":2,"gmtOffset":1,"timeZoneId":"Europe/Oslo"},"lat":61.45217,"lng":5.85717,"population":8510},{"id":3159894,"name":"Brumunddal","timezone":{"dstOffset":2,"gmtOffset":1,"timeZoneId":"Europe/Oslo"},"lat":60.88095,"lng":10.93948,"population":8441},{"id":3147698,"name":"Levanger","timezone":{"dstOffset":2,"gmtOffset":1,"timeZoneId":"Europe/Oslo"},"lat":63.74644,"lng":11.29963,"population":8411},{"id":3144075,"name":"Notodden","timezone":{"dstOffset":2,"gmtOffset":1,"timeZoneId":"Europe/Oslo"},"lat":59.55936,"lng":9.25853,"population":8306},{"id":3156980,"name":"Florø","timezone":{"dstOffset":2,"gmtOffset":1,"timeZoneId":"Europe/Oslo"},"lat":61.59957,"lng":5.0328,"population":8230},{"id":3159822,"name":"Bryne","timezone":{"dstOffset":2,"gmtOffset":1,"timeZoneId":"Europe/Oslo"},"lat":58.73536,"lng":5.64766,"population":8006},{"id":3162797,"name":"Ås","timezone":{"dstOffset":2,"gmtOffset":1,"timeZoneId":"Europe/Oslo"},"lat":59.66472,"lng":10.79465,"population":7961},{"id":3132176,"name":"Verdal","timezone":{"dstOffset":2,"gmtOffset":1,"timeZoneId":"Europe/Oslo"},"lat":63.79332,"lng":11.4817,"population":7154},{"id":779683,"name":"Hammerfest","timezone":{"dstOffset":2,"gmtOffset":1,"timeZoneId":"Europe/Oslo"},"lat":70.66336,"lng":23.68209,"population":6788},{"id":7288345,"name":"Sogndal","timezone":{"dstOffset":2,"gmtOffset":1,"timeZoneId":"Europe/Oslo"},"lat":61.22908,"lng":7.09674,"population":6700},{"id":3149512,"name":"Kopervik","timezone":{"dstOffset":2,"gmtOffset":1,"timeZoneId":"Europe/Oslo"},"lat":59.28354,"lng":5.30669,"population":6507},{"id":3157686,"name":"Fetsund","timezone":{"dstOffset":2,"gmtOffset":1,"timeZoneId":"Europe/Oslo"},"lat":59.92463,"lng":11.15711,"population":6441},{"id":3146470,"name":"Malvik","timezone":{"dstOffset":2,"gmtOffset":1,"timeZoneId":"Europe/Oslo"},"lat":63.43333,"lng":10.68333,"population":6419},{"id":3336588,"name":"Ørsta","timezone":{"dstOffset":2,"gmtOffset":1,"timeZoneId":"Europe/Oslo"},"lat":62.19983,"lng":6.12904,"population":6337},{"id":3152132,"name":"Holmestrand","timezone":{"dstOffset":2,"gmtOffset":1,"timeZoneId":"Europe/Oslo"},"lat":59.48761,"lng":10.31761,"population":6135},{"id":3162924,"name":"Indre Arna","timezone":{"dstOffset":2,"gmtOffset":1,"timeZoneId":"Europe/Oslo"},"lat":60.41768,"lng":5.47087,"population":6117},{"id":3147467,"name":"Lillesand","timezone":{"dstOffset":2,"gmtOffset":1,"timeZoneId":"Europe/Oslo"},"lat":58.24879,"lng":8.3778,"population":6081},{"id":3142228,"name":"Raufoss","timezone":{"dstOffset":2,"gmtOffset":1,"timeZoneId":"Europe/Oslo"},"lat":60.72604,"lng":10.6133,"population":6052},{"id":3157781,"name":"Fauske","timezone":{"dstOffset":2,"gmtOffset":1,"timeZoneId":"Europe/Oslo"},"lat":67.25883,"lng":15.39181,"population":5953},{"id":3149813,"name":"Kløfta","timezone":{"dstOffset":2,"gmtOffset":1,"timeZoneId":"Europe/Oslo"},"lat":60.07407,"lng":11.13805,"population":5942},{"id":3134865,"name":"Tananger","timezone":{"dstOffset":2,"gmtOffset":1,"timeZoneId":"Europe/Oslo"},"lat":58.93618,"lng":5.5741,"population":5817},{"id":3140301,"name":"Sandnessjøen","timezone":{"dstOffset":2,"gmtOffset":1,"timeZoneId":"Europe/Oslo"},"lat":66.02166,"lng":12.63158,"population":5778},{"id":3227582,"name":"Hommersåk","timezone":{"dstOffset":2,"gmtOffset":1,"timeZoneId":"Europe/Oslo"},"lat":58.92556,"lng":5.85104,"population":5692},{"id":3157090,"name":"Flekkefjord","timezone":{"dstOffset":2,"gmtOffset":1,"timeZoneId":"Europe/Oslo"},"lat":58.29705,"lng":6.66069,"population":5615},{"id":3137091,"name":"Stavern","timezone":{"dstOffset":2,"gmtOffset":1,"timeZoneId":"Europe/Oslo"},"lat":59,"lng":10.03333,"population":5593},{"id":3131329,"name":"Voss","timezone":{"dstOffset":2,"gmtOffset":1,"timeZoneId":"Europe/Oslo"},"lat":60.62869,"lng":6.41474,"population":5571},{"id":3134070,"name":"Tranby","timezone":{"dstOffset":2,"gmtOffset":1,"timeZoneId":"Europe/Oslo"},"lat":59.8085,"lng":10.26114,"population":5552},{"id":3150742,"name":"Jørpeland","timezone":{"dstOffset":2,"gmtOffset":1,"timeZoneId":"Europe/Oslo"},"lat":59.02251,"lng":6.04078,"population":5537},{"id":3145094,"name":"Mysen","timezone":{"dstOffset":2,"gmtOffset":1,"timeZoneId":"Europe/Oslo"},"lat":59.55354,"lng":11.32578,"population":5516},{"id":3131449,"name":"Volda","timezone":{"dstOffset":2,"gmtOffset":1,"timeZoneId":"Europe/Oslo"},"lat":62.146,"lng":6.07108,"population":5376},{"id":3143830,"name":"Odda","timezone":{"dstOffset":2,"gmtOffset":1,"timeZoneId":"Europe/Oslo"},"lat":60.06912,"lng":6.54565,"population":5359},{"id":3132058,"name":"Vestby","timezone":{"dstOffset":2,"gmtOffset":1,"timeZoneId":"Europe/Oslo"},"lat":59.60511,"lng":10.75232,"population":5330},{"id":3149412,"name":"Kragerø","timezone":{"dstOffset":2,"gmtOffset":1,"timeZoneId":"Europe/Oslo"},"lat":58.8693,"lng":9.41494,"population":5158},{"id":777073,"name":"Vadsø","timezone":{"dstOffset":2,"gmtOffset":1,"timeZoneId":"Europe/Oslo"},"lat":70.07348,"lng":29.74943,"population":5139},{"id":3133349,"name":"Ulsteinvik","timezone":{"dstOffset":2,"gmtOffset":1,"timeZoneId":"Europe/Oslo"},"lat":62.34317,"lng":5.84869,"population":5103},{"id":3163443,"name":"Åkrehamn","timezone":{"dstOffset":2,"gmtOffset":1,"timeZoneId":"Europe/Oslo"},"lat":59.26053,"lng":5.18689,"population":5018},{"id":8468896,"name":"Ulsteinvik weather","timezone":{"dstOffset":2,"gmtOffset":1,"timeZoneId":"Europe/Oslo"},"lat":62.34338,"lng":5.84385,"population":5000},{"id":3157679,"name":"Fevik","timezone":{"dstOffset":2,"gmtOffset":1,"timeZoneId":"Europe/Oslo"},"lat":58.3782,"lng":8.67601,"population":4989},{"id":3145080,"name":"Nærbø","timezone":{"dstOffset":2,"gmtOffset":1,"timeZoneId":"Europe/Oslo"},"lat":58.66546,"lng":5.63788,"population":4975},{"id":3141156,"name":"Rotnes","timezone":{"dstOffset":2,"gmtOffset":1,"timeZoneId":"Europe/Oslo"},"lat":60.05707,"lng":10.86135,"population":4705},{"id":3134521,"name":"Tjøme","timezone":{"dstOffset":2,"gmtOffset":1,"timeZoneId":"Europe/Oslo"},"lat":59.1109,"lng":10.3933,"population":4663},{"id":3137405,"name":"Sortland","timezone":{"dstOffset":2,"gmtOffset":1,"timeZoneId":"Europe/Oslo"},"lat":68.69569,"lng":15.40498,"population":4620},{"id":3146125,"name":"Melhus","timezone":{"dstOffset":2,"gmtOffset":1,"timeZoneId":"Europe/Oslo"},"lat":63.28555,"lng":10.27806,"population":4593},{"id":3141747,"name":"Risør","timezone":{"dstOffset":2,"gmtOffset":1,"timeZoneId":"Europe/Oslo"},"lat":58.72057,"lng":9.23422,"population":4475},{"id":3159954,"name":"Brønnøysund","timezone":{"dstOffset":2,"gmtOffset":1,"timeZoneId":"Europe/Oslo"},"lat":65.4625,"lng":12.19973,"population":4366},{"id":3150842,"name":"Jevnaker","timezone":{"dstOffset":2,"gmtOffset":1,"timeZoneId":"Europe/Oslo"},"lat":60.23979,"lng":10.38709,"population":4308},{"id":3140056,"name":"Mirza Rafi Sauda","timezone":{"dstOffset":2,"gmtOffset":1,"timeZoneId":"Europe/Oslo"},"lat":59.65059,"lng":6.35415,"population":4290},{"id":3149720,"name":"Knarvik","timezone":{"dstOffset":2,"gmtOffset":1,"timeZoneId":"Europe/Oslo"},"lat":60.5453,"lng":5.28208,"population":4265},{"id":3135020,"name":"Svolvær","timezone":{"dstOffset":2,"gmtOffset":1,"timeZoneId":"Europe/Oslo"},"lat":68.23417,"lng":14.56834,"population":4197},{"id":3135377,"name":"Sunndalsøra","timezone":{"dstOffset":2,"gmtOffset":1,"timeZoneId":"Europe/Oslo"},"lat":62.67519,"lng":8.56327,"population":4159},{"id":3145689,"name":"Moelv","timezone":{"dstOffset":2,"gmtOffset":1,"timeZoneId":"Europe/Oslo"},"lat":60.93333,"lng":10.7,"population":4049},{"id":3151942,"name":"Hommelvik","timezone":{"dstOffset":2,"gmtOffset":1,"timeZoneId":"Europe/Oslo"},"lat":63.41083,"lng":10.79424,"population":4000},{"id":3135124,"name":"Svelvik","timezone":{"dstOffset":2,"gmtOffset":1,"timeZoneId":"Europe/Oslo"},"lat":59.6137,"lng":10.40872,"population":3926},{"id":3157549,"name":"Finnsnes","timezone":{"dstOffset":2,"gmtOffset":1,"timeZoneId":"Europe/Oslo"},"lat":69.22959,"lng":17.98114,"population":3907},{"id":3142520,"name":"Rakkestad","timezone":{"dstOffset":2,"gmtOffset":1,"timeZoneId":"Europe/Oslo"},"lat":59.42513,"lng":11.34535,"population":3779},{"id":3143513,"name":"Oppdal","timezone":{"dstOffset":2,"gmtOffset":1,"timeZoneId":"Europe/Oslo"},"lat":62.59431,"lng":9.6912,"population":3706},{"id":3146684,"name":"Lyngdal","timezone":{"dstOffset":2,"gmtOffset":1,"timeZoneId":"Europe/Oslo"},"lat":58.1376,"lng":7.07002,"population":3671},{"id":3153861,"name":"Hareid","timezone":{"dstOffset":2,"gmtOffset":1,"timeZoneId":"Europe/Oslo"},"lat":62.37041,"lng":6.02902,"population":3626},{"id":3141682,"name":"Rjukan","timezone":{"dstOffset":2,"gmtOffset":1,"timeZoneId":"Europe/Oslo"},"lat":59.87891,"lng":8.59411,"population":3568},{"id":3137390,"name":"Sørumsand","timezone":{"dstOffset":2,"gmtOffset":1,"timeZoneId":"Europe/Oslo"},"lat":59.98621,"lng":11.24154,"population":3563},{"id":3141332,"name":"Røros","timezone":{"dstOffset":2,"gmtOffset":1,"timeZoneId":"Europe/Oslo"},"lat":62.57468,"lng":11.3842,"population":3496},{"id":3138423,"name":"Skui","timezone":{"dstOffset":2,"gmtOffset":1,"timeZoneId":"Europe/Oslo"},"lat":59.92746,"lng":10.4475,"population":3487},{"id":3143034,"name":"Farnes","timezone":{"dstOffset":2,"gmtOffset":1,"timeZoneId":"Europe/Oslo"},"lat":61.3085,"lng":7.79694,"population":3465},{"id":3146631,"name":"Lysaker","timezone":{"dstOffset":2,"gmtOffset":1,"timeZoneId":"Europe/Oslo"},"lat":59.90994,"lng":10.63545,"population":3439},{"id":3162906,"name":"Årnes","timezone":{"dstOffset":2,"gmtOffset":1,"timeZoneId":"Europe/Oslo"},"lat":60.12237,"lng":11.47005,"population":3289},{"id":3140573,"name":"Sagvåg","timezone":{"dstOffset":2,"gmtOffset":1,"timeZoneId":"Europe/Oslo"},"lat":59.78139,"lng":5.38996,"population":3288},{"id":779303,"name":"Kirkenes","timezone":{"dstOffset":2,"gmtOffset":1,"timeZoneId":"Europe/Oslo"},"lat":69.72706,"lng":30.04578,"population":3282},{"id":3138429,"name":"Skudeneshavn","timezone":{"dstOffset":2,"gmtOffset":1,"timeZoneId":"Europe/Oslo"},"lat":59.14856,"lng":5.25687,"population":3187},{"id":3157162,"name":"Flateby","timezone":{"dstOffset":2,"gmtOffset":1,"timeZoneId":"Europe/Oslo"},"lat":59.82951,"lng":11.15345,"population":3175},{"id":3137245,"name":"Spydeberg","timezone":{"dstOffset":2,"gmtOffset":1,"timeZoneId":"Europe/Oslo"},"lat":59.61709,"lng":11.08559,"population":3166},{"id":3157799,"name":"Farsund","timezone":{"dstOffset":2,"gmtOffset":1,"timeZoneId":"Europe/Oslo"},"lat":58.09479,"lng":6.80468,"population":3151},{"id":3136690,"name":"Stokmarknes","timezone":{"dstOffset":2,"gmtOffset":1,"timeZoneId":"Europe/Oslo"},"lat":68.56462,"lng":14.91075,"population":3119},{"id":3134429,"name":"Tofte","timezone":{"dstOffset":2,"gmtOffset":1,"timeZoneId":"Europe/Oslo"},"lat":59.54275,"lng":10.56138,"population":3109},{"id":3146487,"name":"Måløy","timezone":{"dstOffset":2,"gmtOffset":1,"timeZoneId":"Europe/Oslo"},"lat":61.93535,"lng":5.11362,"population":3062},{"id":3140636,"name":"Sætre","timezone":{"dstOffset":2,"gmtOffset":1,"timeZoneId":"Europe/Oslo"},"lat":59.68129,"lng":10.52749,"population":3009},{"id":3162682,"name":"Åsgårdstrand","timezone":{"dstOffset":2,"gmtOffset":1,"timeZoneId":"Europe/Oslo"},"lat":59.34889,"lng":10.4675,"population":2934},{"id":7288344,"name":"Vik","timezone":{"dstOffset":2,"gmtOffset":1,"timeZoneId":"Europe/Oslo"},"lat":61.05712,"lng":6.57806,"population":2899},{"id":3147104,"name":"Løding","timezone":{"dstOffset":2,"gmtOffset":1,"timeZoneId":"Europe/Oslo"},"lat":67.30055,"lng":14.73852,"population":2835},{"id":3159143,"name":"Dokka","timezone":{"dstOffset":2,"gmtOffset":1,"timeZoneId":"Europe/Oslo"},"lat":60.835,"lng":10.07362,"population":2796},{"id":3141107,"name":"Røyken","timezone":{"dstOffset":2,"gmtOffset":1,"timeZoneId":"Europe/Oslo"},"lat":59.74724,"lng":10.38832,"population":2775},{"id":3205608,"name":"Vormedal","timezone":{"dstOffset":2,"gmtOffset":1,"timeZoneId":"Europe/Oslo"},"lat":59.35607,"lng":5.31962,"population":2774},{"id":3163146,"name":"Andenes","timezone":{"dstOffset":2,"gmtOffset":1,"timeZoneId":"Europe/Oslo"},"lat":69.31428,"lng":16.11939,"population":2766},{"id":3336591,"name":"Vedavågen","timezone":{"dstOffset":2,"gmtOffset":1,"timeZoneId":"Europe/Oslo"},"lat":59.29483,"lng":5.21874,"population":2728},{"id":3133402,"name":"Ulefoss","timezone":{"dstOffset":2,"gmtOffset":1,"timeZoneId":"Europe/Oslo"},"lat":59.28245,"lng":9.26548,"population":2697},{"id":3162475,"name":"Auli","timezone":{"dstOffset":2,"gmtOffset":1,"timeZoneId":"Europe/Oslo"},"lat":60.0345,"lng":11.36046,"population":2638},{"id":3136725,"name":"Stokke","timezone":{"dstOffset":2,"gmtOffset":1,"timeZoneId":"Europe/Oslo"},"lat":59.22255,"lng":10.30055,"population":2618},{"id":3141310,"name":"Rørvik","timezone":{"dstOffset":2,"gmtOffset":1,"timeZoneId":"Europe/Oslo"},"lat":64.86185,"lng":11.23969,"population":2615},{"id":3131189,"name":"Skålevik","timezone":{"dstOffset":2,"gmtOffset":1,"timeZoneId":"Europe/Oslo"},"lat":58.07955,"lng":8.01602,"population":2599},{"id":3140825,"name":"Rygge","timezone":{"dstOffset":2,"gmtOffset":1,"timeZoneId":"Europe/Oslo"},"lat":59.37762,"lng":10.75034,"population":2567},{"id":3144369,"name":"Nordfjordeid","timezone":{"dstOffset":2,"gmtOffset":1,"timeZoneId":"Europe/Oslo"},"lat":61.9122,"lng":5.98557,"population":2553},{"id":3134776,"name":"Tau","timezone":{"dstOffset":2,"gmtOffset":1,"timeZoneId":"Europe/Oslo"},"lat":59.06481,"lng":5.9225,"population":2548},{"id":779554,"name":"Honningsvåg","timezone":{"dstOffset":2,"gmtOffset":1,"timeZoneId":"Europe/Oslo"},"lat":70.98209,"lng":25.97037,"population":2541},{"id":3155422,"name":"Gol","timezone":{"dstOffset":2,"gmtOffset":1,"timeZoneId":"Europe/Oslo"},"lat":60.7014,"lng":8.94572,"population":2530},{"id":3160911,"name":"Bø","timezone":{"dstOffset":2,"gmtOffset":1,"timeZoneId":"Europe/Oslo"},"lat":59.41299,"lng":9.0693,"population":2522},{"id":3141548,"name":"Rognan","timezone":{"dstOffset":2,"gmtOffset":1,"timeZoneId":"Europe/Oslo"},"lat":67.10021,"lng":15.39086,"population":2499},{"id":3135813,"name":"Stranda","timezone":{"dstOffset":2,"gmtOffset":1,"timeZoneId":"Europe/Oslo"},"lat":62.30864,"lng":6.93717,"population":2499},{"id":7280466,"name":"Frosta","timezone":{"dstOffset":2,"gmtOffset":1,"timeZoneId":"Europe/Oslo"},"lat":63.5891,"lng":10.7423,"population":2495},{"id":3131246,"name":"Ytre Arna","timezone":{"dstOffset":2,"gmtOffset":1,"timeZoneId":"Europe/Oslo"},"lat":60.46175,"lng":5.43265,"population":2484},{"id":3132644,"name":"Varhaug","timezone":{"dstOffset":2,"gmtOffset":1,"timeZoneId":"Europe/Oslo"},"lat":58.6181,"lng":5.65702,"population":2484},{"id":3148602,"name":"Kyrksæterøra","timezone":{"dstOffset":2,"gmtOffset":1,"timeZoneId":"Europe/Oslo"},"lat":63.29057,"lng":9.08909,"population":2471},{"id":3146897,"name":"Løten","timezone":{"dstOffset":2,"gmtOffset":1,"timeZoneId":"Europe/Oslo"},"lat":60.81941,"lng":11.34209,"population":2458},{"id":3131538,"name":"Vinstra","timezone":{"dstOffset":2,"gmtOffset":1,"timeZoneId":"Europe/Oslo"},"lat":61.59496,"lng":9.75134,"population":2449},{"id":3131684,"name":"Vikersund","timezone":{"dstOffset":2,"gmtOffset":1,"timeZoneId":"Europe/Oslo"},"lat":59.96838,"lng":9.99107,"population":2448},{"id":3336590,"name":"Ryggebyen","timezone":{"dstOffset":2,"gmtOffset":1,"timeZoneId":"Europe/Oslo"},"lat":59.375,"lng":10.75,"population":2416},{"id":3137169,"name":"Stange","timezone":{"dstOffset":2,"gmtOffset":1,"timeZoneId":"Europe/Oslo"},"lat":60.71803,"lng":11.19417,"population":2416},{"id":3139765,"name":"Setermoen","timezone":{"dstOffset":2,"gmtOffset":1,"timeZoneId":"Europe/Oslo"},"lat":68.86099,"lng":18.34857,"population":2410},{"id":3147026,"name":"Lom","timezone":{"dstOffset":2,"gmtOffset":1,"timeZoneId":"Europe/Oslo"},"lat":61.83772,"lng":8.56842,"population":2406},{"id":3146270,"name":"Maura","timezone":{"dstOffset":2,"gmtOffset":1,"timeZoneId":"Europe/Oslo"},"lat":60.2583,"lng":11.03192,"population":2400},{"id":780643,"name":"Bjørnevatn","timezone":{"dstOffset":2,"gmtOffset":1,"timeZoneId":"Europe/Oslo"},"lat":69.66745,"lng":29.98722,"population":2392},{"id":777682,"name":"Skjervøy","timezone":{"dstOffset":2,"gmtOffset":1,"timeZoneId":"Europe/Oslo"},"lat":70.03114,"lng":20.97141,"population":2376},{"id":7626371,"name":"Elnesvågen","timezone":{"dstOffset":2,"gmtOffset":1,"timeZoneId":"Europe/Oslo"},"lat":62.85426,"lng":7.13769,"population":2362},{"id":3133498,"name":"Tynset","timezone":{"dstOffset":2,"gmtOffset":1,"timeZoneId":"Europe/Oslo"},"lat":62.27594,"lng":10.78241,"population":2356},{"id":8504433,"name":"Billingstad","timezone":{"dstOffset":2,"gmtOffset":1,"timeZoneId":"Europe/Oslo"},"lat":59.87548,"lng":10.4823,"population":2349},{"id":3161346,"name":"Bjørkelangen","timezone":{"dstOffset":2,"gmtOffset":1,"timeZoneId":"Europe/Oslo"},"lat":59.88357,"lng":11.56396,"population":2346},{"id":3147720,"name":"Lervik","timezone":{"dstOffset":2,"gmtOffset":1,"timeZoneId":"Europe/Oslo"},"lat":59.27119,"lng":10.7461,"population":2331},{"id":3146942,"name":"Løpsmarka","timezone":{"dstOffset":2,"gmtOffset":1,"timeZoneId":"Europe/Oslo"},"lat":67.31343,"lng":14.44934,"population":2308},{"id":3163410,"name":"Ål","timezone":{"dstOffset":2,"gmtOffset":1,"timeZoneId":"Europe/Oslo"},"lat":60.63024,"lng":8.56071,"population":2278},{"id":3155913,"name":"Geilo","timezone":{"dstOffset":2,"gmtOffset":1,"timeZoneId":"Europe/Oslo"},"lat":60.53369,"lng":8.20539,"population":2276},{"id":3151574,"name":"Høyanger","timezone":{"dstOffset":2,"gmtOffset":1,"timeZoneId":"Europe/Oslo"},"lat":61.22348,"lng":6.08471,"population":2266},{"id":3161532,"name":"Birkeland","timezone":{"dstOffset":2,"gmtOffset":1,"timeZoneId":"Europe/Oslo"},"lat":58.33091,"lng":8.23229,"population":2254},{"id":3133819,"name":"Innbygda","timezone":{"dstOffset":2,"gmtOffset":1,"timeZoneId":"Europe/Oslo"},"lat":61.31484,"lng":12.26374,"population":2250},{"id":3162385,"name":"Aursmoen","timezone":{"dstOffset":2,"gmtOffset":1,"timeZoneId":"Europe/Oslo"},"lat":59.92763,"lng":11.44275,"population":2173},{"id":3139244,"name":"Skarnes","timezone":{"dstOffset":2,"gmtOffset":1,"timeZoneId":"Europe/Oslo"},"lat":60.25391,"lng":11.68485,"population":2172},{"id":779082,"name":"Lakselv","timezone":{"dstOffset":2,"gmtOffset":1,"timeZoneId":"Europe/Oslo"},"lat":70.05133,"lng":24.97182,"population":2168},{"id":780717,"name":"Båtsfjord","timezone":{"dstOffset":2,"gmtOffset":1,"timeZoneId":"Europe/Oslo"},"lat":70.62924,"lng":29.69479,"population":2166},{"id":3146160,"name":"Melbu","timezone":{"dstOffset":2,"gmtOffset":1,"timeZoneId":"Europe/Oslo"},"lat":68.50246,"lng":14.79962,"population":2161},{"id":3140431,"name":"Sandane","timezone":{"dstOffset":2,"gmtOffset":1,"timeZoneId":"Europe/Oslo"},"lat":61.77277,"lng":6.21496,"population":2149},{"id":3153694,"name":"Hauge i Dalane","timezone":{"dstOffset":2,"gmtOffset":1,"timeZoneId":"Europe/Oslo"},"lat":58.34361,"lng":6.28121,"population":2148},{"id":3160310,"name":"Brattvåg","timezone":{"dstOffset":2,"gmtOffset":1,"timeZoneId":"Europe/Oslo"},"lat":62.59991,"lng":6.44426,"population":2146},{"id":3144110,"name":"Norheimsund","timezone":{"dstOffset":2,"gmtOffset":1,"timeZoneId":"Europe/Oslo"},"lat":60.37089,"lng":6.14562,"population":2146},{"id":3147498,"name":"Liknes","timezone":{"dstOffset":2,"gmtOffset":1,"timeZoneId":"Europe/Oslo"},"lat":58.31216,"lng":6.9618,"population":2141},{"id":3157977,"name":"Evjen","timezone":{"dstOffset":2,"gmtOffset":1,"timeZoneId":"Europe/Oslo"},"lat":68.26667,"lng":13.73333,"population":2127},{"id":3142061,"name":"Rensvik","timezone":{"dstOffset":2,"gmtOffset":1,"timeZoneId":"Europe/Oslo"},"lat":63.09843,"lng":7.82026,"population":2121},{"id":3135601,"name":"Stryn","timezone":{"dstOffset":2,"gmtOffset":1,"timeZoneId":"Europe/Oslo"},"lat":61.90259,"lng":6.7179,"population":2106},{"id":3151719,"name":"Hov","timezone":{"dstOffset":2,"gmtOffset":1,"timeZoneId":"Europe/Oslo"},"lat":60.6987,"lng":10.35193,"population":2095},{"id":3345453,"name":"Vestnes","timezone":{"dstOffset":2,"gmtOffset":1,"timeZoneId":"Europe/Oslo"},"lat":62.62544,"lng":7.08696,"population":2088},{"id":3144733,"name":"Nesbyen","timezone":{"dstOffset":2,"gmtOffset":1,"timeZoneId":"Europe/Oslo"},"lat":60.56809,"lng":9.10274,"population":2086},{"id":777019,"name":"Vardø","timezone":{"dstOffset":2,"gmtOffset":1,"timeZoneId":"Europe/Oslo"},"lat":70.37048,"lng":31.11066,"population":2075},{"id":2729907,"name":"Longyearbyen","timezone":{"dstOffset":2,"gmtOffset":1,"timeZoneId":"Arctic/Longyearbyen"},"lat":78.22334,"lng":15.64689,"population":2060},{"id":3229577,"name":"Årøysund","timezone":{"dstOffset":2,"gmtOffset":1,"timeZoneId":"Europe/Oslo"},"lat":59.18321,"lng":10.45742,"population":2052},{"id":3163155,"name":"Åndalsnes","timezone":{"dstOffset":2,"gmtOffset":1,"timeZoneId":"Europe/Oslo"},"lat":62.56749,"lng":7.68709,"population":2035},{"id":3141982,"name":"Rena","timezone":{"dstOffset":2,"gmtOffset":1,"timeZoneId":"Europe/Oslo"},"lat":61.13222,"lng":11.37156,"population":2009},{"id":3152884,"name":"Hermansverk","timezone":{"dstOffset":2,"gmtOffset":1,"timeZoneId":"Europe/Oslo"},"lat":61.18461,"lng":6.85016,"population":2000},{"id":779330,"name":"Kautokeino","timezone":{"dstOffset":2,"gmtOffset":1,"timeZoneId":"Europe/Oslo"},"lat":69.01247,"lng":23.04116,"population":2000},{"id":3145148,"name":"Myre","timezone":{"dstOffset":2,"gmtOffset":1,"timeZoneId":"Europe/Oslo"},"lat":69.10588,"lng":15.96308,"population":1995},{"id":3232860,"name":"Myre","timezone":{"dstOffset":2,"gmtOffset":1,"timeZoneId":"Europe/Oslo"},"lat":68.914,"lng":15.07843,"population":1994},{"id":3157889,"name":"Fagerstrand","timezone":{"dstOffset":2,"gmtOffset":1,"timeZoneId":"Europe/Oslo"},"lat":59.73746,"lng":10.59404,"population":1990},{"id":3133681,"name":"Tvedestrand","timezone":{"dstOffset":2,"gmtOffset":1,"timeZoneId":"Europe/Oslo"},"lat":58.62203,"lng":8.93147,"population":1975},{"id":3137304,"name":"Spetalen","timezone":{"dstOffset":2,"gmtOffset":1,"timeZoneId":"Europe/Oslo"},"lat":60.18333,"lng":11.9,"population":1969},{"id":3132720,"name":"Vanse","timezone":{"dstOffset":2,"gmtOffset":1,"timeZoneId":"Europe/Oslo"},"lat":58.09812,"lng":6.69184,"population":1953},{"id":3154539,"name":"Gullhaug","timezone":{"dstOffset":2,"gmtOffset":1,"timeZoneId":"Europe/Oslo"},"lat":59.5013,"lng":10.25224,"population":1912},{"id":779350,"name":"Karasjok","timezone":{"dstOffset":2,"gmtOffset":1,"timeZoneId":"Europe/Oslo"},"lat":69.47187,"lng":25.51122,"population":1908},{"id":3161059,"name":"Blakstad","timezone":{"dstOffset":2,"gmtOffset":1,"timeZoneId":"Europe/Oslo"},"lat":59.8191,"lng":10.4645,"population":1898},{"id":3138701,"name":"Skogn","timezone":{"dstOffset":2,"gmtOffset":1,"timeZoneId":"Europe/Oslo"},"lat":63.70374,"lng":11.19262,"population":1884},{"id":3152989,"name":"Hemsedal","timezone":{"dstOffset":2,"gmtOffset":1,"timeZoneId":"Europe/Oslo"},"lat":60.86293,"lng":8.55337,"population":1876},{"id":3153517,"name":"Hauknes","timezone":{"dstOffset":2,"gmtOffset":1,"timeZoneId":"Europe/Oslo"},"lat":66.28333,"lng":14.06667,"population":1864},{"id":3138955,"name":"Skjeberg","timezone":{"dstOffset":2,"gmtOffset":1,"timeZoneId":"Europe/Oslo"},"lat":59.21148,"lng":11.19025,"population":1862},{"id":3151272,"name":"Hylkje","timezone":{"dstOffset":2,"gmtOffset":1,"timeZoneId":"Europe/Oslo"},"lat":60.51028,"lng":5.35444,"population":1853},{"id":3160100,"name":"Brekstad","timezone":{"dstOffset":2,"gmtOffset":1,"timeZoneId":"Europe/Oslo"},"lat":63.68697,"lng":9.66541,"population":1835},{"id":3144534,"name":"Nodeland","timezone":{"dstOffset":2,"gmtOffset":1,"timeZoneId":"Europe/Oslo"},"lat":58.15517,"lng":7.83576,"population":1834},{"id":3139826,"name":"Selvik","timezone":{"dstOffset":2,"gmtOffset":1,"timeZoneId":"Europe/Oslo"},"lat":59.56645,"lng":10.26004,"population":1829},{"id":3139819,"name":"Sem","timezone":{"dstOffset":2,"gmtOffset":1,"timeZoneId":"Europe/Oslo"},"lat":59.2823,"lng":10.33004,"population":1827},{"id":3147102,"name":"Lødingen","timezone":{"dstOffset":2,"gmtOffset":1,"timeZoneId":"Europe/Oslo"},"lat":68.41373,"lng":15.99626,"population":1808},{"id":3150437,"name":"Karlshus","timezone":{"dstOffset":2,"gmtOffset":1,"timeZoneId":"Europe/Oslo"},"lat":59.35195,"lng":10.87226,"population":1801},{"id":3158046,"name":"Espeland","timezone":{"dstOffset":2,"gmtOffset":1,"timeZoneId":"Europe/Oslo"},"lat":60.38249,"lng":5.4657,"population":1793},{"id":3157897,"name":"Fagernes","timezone":{"dstOffset":2,"gmtOffset":1,"timeZoneId":"Europe/Oslo"},"lat":60.98584,"lng":9.23236,"population":1788},{"id":3131824,"name":"Vigrestad","timezone":{"dstOffset":2,"gmtOffset":1,"timeZoneId":"Europe/Oslo"},"lat":58.57103,"lng":5.68182,"population":1764},{"id":3145617,"name":"Moi","timezone":{"dstOffset":2,"gmtOffset":1,"timeZoneId":"Europe/Oslo"},"lat":58.45674,"lng":6.55184,"population":1740},{"id":847634,"name":"Rypefjord","timezone":{"dstOffset":2,"gmtOffset":1,"timeZoneId":"Europe/Oslo"},"lat":70.64126,"lng":23.67212,"population":1731},{"id":3143427,"name":"Ørje","timezone":{"dstOffset":2,"gmtOffset":1,"timeZoneId":"Europe/Oslo"},"lat":59.48023,"lng":11.66016,"population":1722},{"id":3139148,"name":"Skaun","timezone":{"dstOffset":2,"gmtOffset":1,"timeZoneId":"Europe/Oslo"},"lat":63.25149,"lng":10.05236,"population":1682},{"id":3150639,"name":"Kabelvåg","timezone":{"dstOffset":2,"gmtOffset":1,"timeZoneId":"Europe/Oslo"},"lat":68.21066,"lng":14.47554,"population":1638},{"id":3142754,"name":"Øystese","timezone":{"dstOffset":2,"gmtOffset":1,"timeZoneId":"Europe/Oslo"},"lat":60.38825,"lng":6.19251,"population":1634},{"id":3138747,"name":"Skodje","timezone":{"dstOffset":2,"gmtOffset":1,"timeZoneId":"Europe/Oslo"},"lat":62.50468,"lng":6.69322,"population":1634},{"id":3138624,"name":"Skoppum","timezone":{"dstOffset":2,"gmtOffset":1,"timeZoneId":"Europe/Oslo"},"lat":59.38613,"lng":10.41078,"population":1633},{"id":3155567,"name":"Justvik","timezone":{"dstOffset":2,"gmtOffset":1,"timeZoneId":"Europe/Oslo"},"lat":58.19691,"lng":8.03107,"population":1630},{"id":3155152,"name":"Gravdal","timezone":{"dstOffset":2,"gmtOffset":1,"timeZoneId":"Europe/Oslo"},"lat":68.11832,"lng":13.55339,"population":1624},{"id":3156521,"name":"Frekhaug","timezone":{"dstOffset":2,"gmtOffset":1,"timeZoneId":"Europe/Oslo"},"lat":60.51321,"lng":5.24252,"population":1610},{"id":3132428,"name":"Vatne","timezone":{"dstOffset":2,"gmtOffset":1,"timeZoneId":"Europe/Oslo"},"lat":62.55826,"lng":6.61708,"population":1609},{"id":3143120,"name":"Otta","timezone":{"dstOffset":2,"gmtOffset":1,"timeZoneId":"Europe/Oslo"},"lat":61.7712,"lng":9.53529,"population":1602},{"id":3143368,"name":"Ørnes","timezone":{"dstOffset":2,"gmtOffset":1,"timeZoneId":"Europe/Oslo"},"lat":66.86878,"lng":13.70579,"population":1538},{"id":3162970,"name":"Årdalstangen","timezone":{"dstOffset":2,"gmtOffset":1,"timeZoneId":"Europe/Oslo"},"lat":61.23581,"lng":7.7037,"population":1510},{"id":6693002,"name":"Sjølyststranda","timezone":{"dstOffset":2,"gmtOffset":1,"timeZoneId":"Europe/Oslo"},"lat":59.92105,"lng":10.68017,"population":1500},{"id":3146049,"name":"Melsomvik","timezone":{"dstOffset":2,"gmtOffset":1,"timeZoneId":"Europe/Oslo"},"lat":59.22394,"lng":10.33616,"population":1498},{"id":3154704,"name":"Grua","timezone":{"dstOffset":2,"gmtOffset":1,"timeZoneId":"Europe/Oslo"},"lat":60.25701,"lng":10.66222,"population":1477},{"id":3149577,"name":"Kolvereid","timezone":{"dstOffset":2,"gmtOffset":1,"timeZoneId":"Europe/Oslo"},"lat":64.86549,"lng":11.60465,"population":1467},{"id":3133053,"name":"Vågåmo","timezone":{"dstOffset":2,"gmtOffset":1,"timeZoneId":"Europe/Oslo"},"lat":61.87505,"lng":9.09671,"population":1463},{"id":3160630,"name":"Borkenes","timezone":{"dstOffset":2,"gmtOffset":1,"timeZoneId":"Europe/Oslo"},"lat":68.77261,"lng":16.17115,"population":1460},{"id":777381,"name":"Storslett","timezone":{"dstOffset":2,"gmtOffset":1,"timeZoneId":"Europe/Oslo"},"lat":69.76783,"lng":21.02466,"population":1455},{"id":3146811,"name":"Lunde","timezone":{"dstOffset":2,"gmtOffset":1,"timeZoneId":"Europe/Oslo"},"lat":59.29832,"lng":9.10268,"population":1422},{"id":3158578,"name":"Eike","timezone":{"dstOffset":2,"gmtOffset":1,"timeZoneId":"Europe/Oslo"},"lat":59.39833,"lng":5.36389,"population":1408},{"id":3133663,"name":"Tveit","timezone":{"dstOffset":2,"gmtOffset":1,"timeZoneId":"Europe/Oslo"},"lat":58.23366,"lng":8.12199,"population":1397},{"id":3140398,"name":"Sande","timezone":{"dstOffset":2,"gmtOffset":1,"timeZoneId":"Europe/Oslo"},"lat":59.58679,"lng":10.20809,"population":1389},{"id":3148138,"name":"Larkollen","timezone":{"dstOffset":2,"gmtOffset":1,"timeZoneId":"Europe/Oslo"},"lat":59.33196,"lng":10.66688,"population":1373},{"id":3163079,"name":"Åneby","timezone":{"dstOffset":2,"gmtOffset":1,"timeZoneId":"Europe/Oslo"},"lat":60.08926,"lng":10.86998,"population":1373},{"id":3138532,"name":"Skotterud","timezone":{"dstOffset":2,"gmtOffset":1,"timeZoneId":"Europe/Oslo"},"lat":59.98281,"lng":12.12825,"population":1361},{"id":3152862,"name":"Herre","timezone":{"dstOffset":2,"gmtOffset":1,"timeZoneId":"Europe/Oslo"},"lat":59.10351,"lng":9.56195,"population":1356},{"id":3163506,"name":"Ågotnes","timezone":{"dstOffset":2,"gmtOffset":1,"timeZoneId":"Europe/Oslo"},"lat":60.40306,"lng":5.01927,"population":1344},{"id":3134349,"name":"Tomter","timezone":{"dstOffset":2,"gmtOffset":1,"timeZoneId":"Europe/Oslo"},"lat":59.6591,"lng":10.99487,"population":1307},{"id":3154321,"name":"Hagavik","timezone":{"dstOffset":2,"gmtOffset":1,"timeZoneId":"Europe/Oslo"},"lat":60.18076,"lng":5.40146,"population":1305},{"id":3138479,"name":"Skreia","timezone":{"dstOffset":2,"gmtOffset":1,"timeZoneId":"Europe/Oslo"},"lat":60.65257,"lng":10.93564,"population":1285},{"id":3157436,"name":"Fitjar","timezone":{"dstOffset":2,"gmtOffset":1,"timeZoneId":"Europe/Oslo"},"lat":59.91803,"lng":5.31674,"population":1280},{"id":3131178,"name":"Strai","timezone":{"dstOffset":2,"gmtOffset":1,"timeZoneId":"Europe/Oslo"},"lat":58.1893,"lng":7.92826,"population":1266},{"id":3131848,"name":"Vigeland","timezone":{"dstOffset":2,"gmtOffset":1,"timeZoneId":"Europe/Oslo"},"lat":58.08437,"lng":7.30497,"population":1258},{"id":3150261,"name":"Kirkenær","timezone":{"dstOffset":2,"gmtOffset":1,"timeZoneId":"Europe/Oslo"},"lat":60.4579,"lng":12.05855,"population":1252},{"id":3152995,"name":"Hemnesberget","timezone":{"dstOffset":2,"gmtOffset":1,"timeZoneId":"Europe/Oslo"},"lat":66.22489,"lng":13.61643,"population":1243},{"id":3162032,"name":"Barkåker","timezone":{"dstOffset":2,"gmtOffset":1,"timeZoneId":"Europe/Oslo"},"lat":59.31859,"lng":10.38963,"population":1238},{"id":3146508,"name":"Malm","timezone":{"dstOffset":2,"gmtOffset":1,"timeZoneId":"Europe/Oslo"},"lat":64.07534,"lng":11.22398,"population":1230},{"id":3161456,"name":"Bjerkvik","timezone":{"dstOffset":2,"gmtOffset":1,"timeZoneId":"Europe/Oslo"},"lat":68.54917,"lng":17.55709,"population":1220},{"id":3142626,"name":"Prestestranda","timezone":{"dstOffset":2,"gmtOffset":1,"timeZoneId":"Europe/Oslo"},"lat":59.09773,"lng":9.05866,"population":1215},{"id":3144661,"name":"Nesna","timezone":{"dstOffset":2,"gmtOffset":1,"timeZoneId":"Europe/Oslo"},"lat":66.19817,"lng":13.01844,"population":1211},{"id":3155487,"name":"Glomfjord","timezone":{"dstOffset":2,"gmtOffset":1,"timeZoneId":"Europe/Oslo"},"lat":66.81663,"lng":13.94404,"population":1204},{"id":3132893,"name":"Våler","timezone":{"dstOffset":2,"gmtOffset":1,"timeZoneId":"Europe/Oslo"},"lat":60.67122,"lng":11.83477,"population":1188},{"id":3139894,"name":"Seljord","timezone":{"dstOffset":2,"gmtOffset":1,"timeZoneId":"Europe/Oslo"},"lat":59.48477,"lng":8.63017,"population":1185},{"id":3149510,"name":"Koppang","timezone":{"dstOffset":2,"gmtOffset":1,"timeZoneId":"Europe/Oslo"},"lat":61.57219,"lng":11.04659,"population":1182},{"id":3147854,"name":"Leirsund","timezone":{"dstOffset":2,"gmtOffset":1,"timeZoneId":"Europe/Oslo"},"lat":59.99682,"lng":11.08746,"population":1177},{"id":3135132,"name":"Svelgen","timezone":{"dstOffset":2,"gmtOffset":1,"timeZoneId":"Europe/Oslo"},"lat":61.76976,"lng":5.29544,"population":1173},{"id":3134993,"name":"Syfteland","timezone":{"dstOffset":2,"gmtOffset":1,"timeZoneId":"Europe/Oslo"},"lat":60.23803,"lng":5.45285,"population":1170},{"id":3159438,"name":"Dale","timezone":{"dstOffset":2,"gmtOffset":1,"timeZoneId":"Europe/Oslo"},"lat":60.58639,"lng":5.81888,"population":1167},{"id":3145357,"name":"Mosterhamn","timezone":{"dstOffset":2,"gmtOffset":1,"timeZoneId":"Europe/Oslo"},"lat":59.69919,"lng":5.38585,"population":1167},{"id":3134357,"name":"Tomra","timezone":{"dstOffset":2,"gmtOffset":1,"timeZoneId":"Europe/Oslo"},"lat":62.58118,"lng":6.93106,"population":1167},{"id":6545367,"name":"Neskollen","timezone":{"dstOffset":2,"gmtOffset":1,"timeZoneId":"Europe/Oslo"},"lat":60.12159,"lng":11.33926,"population":1157},{"id":3159107,"name":"Dombås","timezone":{"dstOffset":2,"gmtOffset":1,"timeZoneId":"Europe/Oslo"},"lat":62.07554,"lng":9.12785,"population":1156},{"id":3158697,"name":"Eide","timezone":{"dstOffset":2,"gmtOffset":1,"timeZoneId":"Europe/Oslo"},"lat":62.91735,"lng":7.44669,"population":1155},{"id":3135728,"name":"Straumen","timezone":{"dstOffset":2,"gmtOffset":1,"timeZoneId":"Europe/Oslo"},"lat":63.87162,"lng":11.29617,"population":1147},{"id":3142060,"name":"Reinsvoll","timezone":{"dstOffset":2,"gmtOffset":1,"timeZoneId":"Europe/Oslo"},"lat":60.67977,"lng":10.62175,"population":1145},{"id":3163608,"name":"Åfjord","timezone":{"dstOffset":2,"gmtOffset":1,"timeZoneId":"Europe/Oslo"},"lat":63.96068,"lng":10.22468,"population":1145},{"id":3160491,"name":"Botngård","timezone":{"dstOffset":2,"gmtOffset":1,"timeZoneId":"Europe/Oslo"},"lat":63.76484,"lng":9.80863,"population":1144},{"id":3162884,"name":"Åros","timezone":{"dstOffset":2,"gmtOffset":1,"timeZoneId":"Europe/Oslo"},"lat":59.7061,"lng":10.51092,"population":1142},{"id":779622,"name":"Havøysund","timezone":{"dstOffset":2,"gmtOffset":1,"timeZoneId":"Europe/Oslo"},"lat":70.99634,"lng":24.66217,"population":1138},{"id":3139557,"name":"Sjøholt","timezone":{"dstOffset":2,"gmtOffset":1,"timeZoneId":"Europe/Oslo"},"lat":62.48263,"lng":6.81376,"population":1133},{"id":3149726,"name":"Knappstad","timezone":{"dstOffset":2,"gmtOffset":1,"timeZoneId":"Europe/Oslo"},"lat":59.62424,"lng":11.03274,"population":1133},{"id":3141032,"name":"Rubbestadneset","timezone":{"dstOffset":2,"gmtOffset":1,"timeZoneId":"Europe/Oslo"},"lat":59.81559,"lng":5.26822,"population":1130},{"id":3148569,"name":"Lærdal","timezone":{"dstOffset":2,"gmtOffset":1,"timeZoneId":"Europe/Oslo"},"lat":61.10001,"lng":7.47374,"population":1110},{"id":3156470,"name":"Frogner","timezone":{"dstOffset":2,"gmtOffset":1,"timeZoneId":"Europe/Oslo"},"lat":60.02463,"lng":11.10284,"population":1108},{"id":3161724,"name":"Berger","timezone":{"dstOffset":2,"gmtOffset":1,"timeZoneId":"Europe/Oslo"},"lat":59.54994,"lng":10.38641,"population":1108},{"id":3147763,"name":"Lena","timezone":{"dstOffset":2,"gmtOffset":1,"timeZoneId":"Europe/Oslo"},"lat":60.67391,"lng":10.81317,"population":1092},{"id":3147441,"name":"Lindås","timezone":{"dstOffset":2,"gmtOffset":1,"timeZoneId":"Europe/Oslo"},"lat":60.73639,"lng":5.16102,"population":1087},{"id":780687,"name":"Berlevåg","timezone":{"dstOffset":2,"gmtOffset":1,"timeZoneId":"Europe/Oslo"},"lat":70.85778,"lng":29.08636,"population":1085},{"id":3132051,"name":"Vestbygd","timezone":{"dstOffset":2,"gmtOffset":1,"timeZoneId":"Europe/Oslo"},"lat":58.09991,"lng":6.58696,"population":1083},{"id":3138713,"name":"Skoger","timezone":{"dstOffset":2,"gmtOffset":1,"timeZoneId":"Europe/Oslo"},"lat":59.71327,"lng":10.25356,"population":1082},{"id":3133448,"name":"Tysvær","timezone":{"dstOffset":2,"gmtOffset":1,"timeZoneId":"Europe/Oslo"},"lat":59.33204,"lng":5.48981,"population":1077},{"id":3144953,"name":"Naustdal","timezone":{"dstOffset":2,"gmtOffset":1,"timeZoneId":"Europe/Oslo"},"lat":61.51108,"lng":5.71694,"population":1071},{"id":6697345,"name":"Sandsli","timezone":{"dstOffset":2,"gmtOffset":1,"timeZoneId":"Europe/Oslo"},"lat":60.30323,"lng":5.28554,"population":1070},{"id":3146831,"name":"Lundamo","timezone":{"dstOffset":2,"gmtOffset":1,"timeZoneId":"Europe/Oslo"},"lat":63.15216,"lng":10.28555,"population":1063},{"id":3154907,"name":"Grong","timezone":{"dstOffset":2,"gmtOffset":1,"timeZoneId":"Europe/Oslo"},"lat":64.46459,"lng":12.31601,"population":1052},{"id":3149727,"name":"Knappskog","timezone":{"dstOffset":2,"gmtOffset":1,"timeZoneId":"Europe/Oslo"},"lat":60.37906,"lng":5.05602,"population":1045},{"id":3162668,"name":"Ask","timezone":{"dstOffset":2,"gmtOffset":1,"timeZoneId":"Europe/Oslo"},"lat":60.07131,"lng":11.0362,"population":1038},{"id":6545362,"name":"Fjellfoten","timezone":{"dstOffset":2,"gmtOffset":1,"timeZoneId":"Europe/Oslo"},"lat":60.08967,"lng":11.47222,"population":1029},{"id":3136618,"name":"Storebø","timezone":{"dstOffset":2,"gmtOffset":1,"timeZoneId":"Europe/Oslo"},"lat":60.09485,"lng":5.22705,"population":1026},{"id":3151288,"name":"Hvittingfoss","timezone":{"dstOffset":2,"gmtOffset":1,"timeZoneId":"Europe/Oslo"},"lat":59.48572,"lng":10.01173,"population":1016},{"id":3152548,"name":"Hjelset","timezone":{"dstOffset":2,"gmtOffset":1,"timeZoneId":"Europe/Oslo"},"lat":62.7805,"lng":7.49277,"population":1011},{"id":3207861,"name":"Tingvoll","timezone":{"dstOffset":2,"gmtOffset":1,"timeZoneId":"Europe/Oslo"},"lat":62.91318,"lng":8.20526,"population":1005},{"id":3158015,"name":"Etne","timezone":{"dstOffset":2,"gmtOffset":1,"timeZoneId":"Europe/Oslo"},"lat":59.66528,"lng":5.93708,"population":1002},{"id":3159433,"name":"Dale","timezone":{"dstOffset":2,"gmtOffset":1,"timeZoneId":"Europe/Oslo"},"lat":61.36353,"lng":5.40036,"population":988},{"id":779261,"name":"Kjøllefjord","timezone":{"dstOffset":2,"gmtOffset":1,"timeZoneId":"Europe/Oslo"},"lat":70.94574,"lng":27.3465,"population":975},{"id":3146023,"name":"Meråker","timezone":{"dstOffset":2,"gmtOffset":1,"timeZoneId":"Europe/Oslo"},"lat":63.41406,"lng":11.74298,"population":961},{"id":3150002,"name":"Kjøpsvik","timezone":{"dstOffset":2,"gmtOffset":1,"timeZoneId":"Europe/Oslo"},"lat":68.09696,"lng":16.37416,"population":960},{"id":3135137,"name":"Sveio","timezone":{"dstOffset":2,"gmtOffset":1,"timeZoneId":"Europe/Oslo"},"lat":59.5419,"lng":5.35178,"population":960},{"id":3162108,"name":"Ballangen","timezone":{"dstOffset":2,"gmtOffset":1,"timeZoneId":"Europe/Oslo"},"lat":68.34283,"lng":16.83145,"population":956},{"id":3140452,"name":"Sand","timezone":{"dstOffset":2,"gmtOffset":1,"timeZoneId":"Europe/Oslo"},"lat":60.3922,"lng":11.5403,"population":946},{"id":3141292,"name":"Rosendal","timezone":{"dstOffset":2,"gmtOffset":1,"timeZoneId":"Europe/Oslo"},"lat":59.98589,"lng":6.01157,"population":945},{"id":3161622,"name":"Berkåk","timezone":{"dstOffset":2,"gmtOffset":1,"timeZoneId":"Europe/Oslo"},"lat":62.82496,"lng":10.01177,"population":914},{"id":3158615,"name":"Eidsvåg","timezone":{"dstOffset":2,"gmtOffset":1,"timeZoneId":"Europe/Oslo"},"lat":62.77656,"lng":8.0655,"population":891},{"id":3139676,"name":"Siljan","timezone":{"dstOffset":2,"gmtOffset":1,"timeZoneId":"Europe/Oslo"},"lat":59.28843,"lng":9.71,"population":891},{"id":3143628,"name":"Ølen","timezone":{"dstOffset":2,"gmtOffset":1,"timeZoneId":"Europe/Oslo"},"lat":59.60437,"lng":5.80799,"population":891},{"id":3136023,"name":"Storsteinnes","timezone":{"dstOffset":2,"gmtOffset":1,"timeZoneId":"Europe/Oslo"},"lat":69.24081,"lng":19.23437,"population":890},{"id":3154441,"name":"Gvarv","timezone":{"dstOffset":2,"gmtOffset":1,"timeZoneId":"Europe/Oslo"},"lat":59.38767,"lng":9.1724,"population":871},{"id":3134016,"name":"Tretten","timezone":{"dstOffset":2,"gmtOffset":1,"timeZoneId":"Europe/Oslo"},"lat":61.31423,"lng":10.30066,"population":859},{"id":3149492,"name":"Korgen","timezone":{"dstOffset":2,"gmtOffset":1,"timeZoneId":"Europe/Oslo"},"lat":66.07662,"lng":13.8216,"population":858},{"id":3145649,"name":"Moen","timezone":{"dstOffset":2,"gmtOffset":1,"timeZoneId":"Europe/Oslo"},"lat":69.13043,"lng":18.61226,"population":840},{"id":3135726,"name":"Straumen","timezone":{"dstOffset":2,"gmtOffset":1,"timeZoneId":"Europe/Oslo"},"lat":67.34769,"lng":15.60493,"population":827},{"id":778829,"name":"Lyngseidet","timezone":{"dstOffset":2,"gmtOffset":1,"timeZoneId":"Europe/Oslo"},"lat":69.57629,"lng":20.21887,"population":821},{"id":3146451,"name":"Manger","timezone":{"dstOffset":2,"gmtOffset":1,"timeZoneId":"Europe/Oslo"},"lat":60.64145,"lng":5.04136,"population":814},{"id":3133983,"name":"Trofors","timezone":{"dstOffset":2,"gmtOffset":1,"timeZoneId":"Europe/Oslo"},"lat":65.53335,"lng":13.40631,"population":808},{"id":3159400,"name":"Dalen","timezone":{"dstOffset":2,"gmtOffset":1,"timeZoneId":"Europe/Oslo"},"lat":59.44499,"lng":8.00492,"population":801},{"id":3162116,"name":"Balestrand","timezone":{"dstOffset":2,"gmtOffset":1,"timeZoneId":"Europe/Oslo"},"lat":61.20962,"lng":6.53608,"population":769},{"id":3134327,"name":"Tonstad","timezone":{"dstOffset":2,"gmtOffset":1,"timeZoneId":"Europe/Oslo"},"lat":58.66263,"lng":6.71694,"population":751},{"id":778707,"name":"Mehamn","timezone":{"dstOffset":2,"gmtOffset":1,"timeZoneId":"Europe/Oslo"},"lat":71.04137,"lng":27.85133,"population":742},{"id":3138076,"name":"Snåase","timezone":{"dstOffset":2,"gmtOffset":1,"timeZoneId":"Europe/Oslo"},"lat":64.2457,"lng":12.37779,"population":733},{"id":3139516,"name":"Sjøvegan","timezone":{"dstOffset":2,"gmtOffset":1,"timeZoneId":"Europe/Oslo"},"lat":68.87363,"lng":17.84706,"population":723},{"id":3131683,"name":"Vikeså","timezone":{"dstOffset":2,"gmtOffset":1,"timeZoneId":"Europe/Oslo"},"lat":58.63759,"lng":6.09133,"population":715},{"id":3139914,"name":"Selje","timezone":{"dstOffset":2,"gmtOffset":1,"timeZoneId":"Europe/Oslo"},"lat":62.0444,"lng":5.34739,"population":694},{"id":3139597,"name":"Sistranda","timezone":{"dstOffset":2,"gmtOffset":1,"timeZoneId":"Europe/Oslo"},"lat":63.72523,"lng":8.83318,"population":685},{"id":3163269,"name":"Alvdal","timezone":{"dstOffset":2,"gmtOffset":1,"timeZoneId":"Europe/Oslo"},"lat":62.10766,"lng":10.63073,"population":677},{"id":3133314,"name":"Ulvik","timezone":{"dstOffset":2,"gmtOffset":1,"timeZoneId":"Europe/Oslo"},"lat":60.56791,"lng":6.91645,"population":675},{"id":3151056,"name":"Inndyr","timezone":{"dstOffset":2,"gmtOffset":1,"timeZoneId":"Europe/Oslo"},"lat":67.03353,"lng":14.02663,"population":666},{"id":3141866,"name":"Rindal","timezone":{"dstOffset":2,"gmtOffset":1,"timeZoneId":"Europe/Oslo"},"lat":63.05547,"lng":9.21151,"population":649},{"id":3134404,"name":"Tolga","timezone":{"dstOffset":2,"gmtOffset":1,"timeZoneId":"Europe/Oslo"},"lat":62.40898,"lng":10.99883,"population":646},{"id":3138976,"name":"Skjærhalden","timezone":{"dstOffset":2,"gmtOffset":1,"timeZoneId":"Europe/Oslo"},"lat":59.02526,"lng":11.03685,"population":642},{"id":3148726,"name":"Kviteseid","timezone":{"dstOffset":2,"gmtOffset":1,"timeZoneId":"Europe/Oslo"},"lat":59.40223,"lng":8.49267,"population":640},{"id":3143303,"name":"Os","timezone":{"dstOffset":2,"gmtOffset":1,"timeZoneId":"Europe/Oslo"},"lat":62.49647,"lng":11.22326,"population":626},{"id":3134658,"name":"Terråk","timezone":{"dstOffset":2,"gmtOffset":1,"timeZoneId":"Europe/Oslo"},"lat":65.087,"lng":12.37148,"population":623},{"id":3151452,"name":"Hundorp","timezone":{"dstOffset":2,"gmtOffset":1,"timeZoneId":"Europe/Oslo"},"lat":61.55523,"lng":9.94069,"population":615},{"id":3162199,"name":"Bagn","timezone":{"dstOffset":2,"gmtOffset":1,"timeZoneId":"Europe/Oslo"},"lat":60.82249,"lng":9.55207,"population":607},{"id":3157994,"name":"Evenskjer","timezone":{"dstOffset":2,"gmtOffset":1,"timeZoneId":"Europe/Oslo"},"lat":68.58283,"lng":16.57203,"population":601},{"id":3162412,"name":"Aure","timezone":{"dstOffset":2,"gmtOffset":1,"timeZoneId":"Europe/Oslo"},"lat":63.2679,"lng":8.52912,"population":596},{"id":3156868,"name":"Folldal","timezone":{"dstOffset":2,"gmtOffset":1,"timeZoneId":"Europe/Oslo"},"lat":62.13246,"lng":9.9968,"population":586},{"id":3163215,"name":"Åmli","timezone":{"dstOffset":2,"gmtOffset":1,"timeZoneId":"Europe/Oslo"},"lat":58.76566,"lng":8.48392,"population":572},{"id":3158668,"name":"Eidfjord","timezone":{"dstOffset":2,"gmtOffset":1,"timeZoneId":"Europe/Oslo"},"lat":60.4675,"lng":7.07193,"population":569},{"id":3147769,"name":"Leland","timezone":{"dstOffset":2,"gmtOffset":1,"timeZoneId":"Europe/Oslo"},"lat":66.06406,"lng":12.94325,"population":563},{"id":3150699,"name":"Judaberg","timezone":{"dstOffset":2,"gmtOffset":1,"timeZoneId":"Europe/Oslo"},"lat":59.17204,"lng":5.87617,"population":560},{"id":3137469,"name":"Sørland","timezone":{"dstOffset":2,"gmtOffset":1,"timeZoneId":"Europe/Oslo"},"lat":67.66564,"lng":12.69784,"population":556},{"id":3145171,"name":"Myra","timezone":{"dstOffset":2,"gmtOffset":1,"timeZoneId":"Europe/Oslo"},"lat":58.74921,"lng":8.86254,"population":544},{"id":3140396,"name":"Sande","timezone":{"dstOffset":2,"gmtOffset":1,"timeZoneId":"Europe/Oslo"},"lat":61.32511,"lng":5.79773,"population":542},{"id":3227904,"name":"Vikevåg","timezone":{"dstOffset":2,"gmtOffset":1,"timeZoneId":"Europe/Oslo"},"lat":59.09754,"lng":5.6979,"population":529},{"id":778362,"name":"Øksfjord","timezone":{"dstOffset":2,"gmtOffset":1,"timeZoneId":"Europe/Oslo"},"lat":70.23936,"lng":22.3507,"population":515},{"id":3146978,"name":"Lonevåg","timezone":{"dstOffset":2,"gmtOffset":1,"timeZoneId":"Europe/Oslo"},"lat":60.52556,"lng":5.49563,"population":513},{"id":3148133,"name":"Larsnes","timezone":{"dstOffset":2,"gmtOffset":1,"timeZoneId":"Europe/Oslo"},"lat":62.20282,"lng":5.57729,"population":511},{"id":3157656,"name":"Fillan","timezone":{"dstOffset":2,"gmtOffset":1,"timeZoneId":"Europe/Oslo"},"lat":63.60638,"lng":8.96961,"population":510},{"id":3157766,"name":"Fedje","timezone":{"dstOffset":2,"gmtOffset":1,"timeZoneId":"Europe/Oslo"},"lat":60.7789,"lng":4.71485,"population":480},{"id":3136903,"name":"Steinshamn","timezone":{"dstOffset":2,"gmtOffset":1,"timeZoneId":"Europe/Oslo"},"lat":62.78389,"lng":6.47065,"population":475},{"id":3145922,"name":"Midsund","timezone":{"dstOffset":2,"gmtOffset":1,"timeZoneId":"Europe/Oslo"},"lat":62.67387,"lng":6.67412,"population":468},{"id":3142623,"name":"Prestfoss","timezone":{"dstOffset":2,"gmtOffset":1,"timeZoneId":"Europe/Oslo"},"lat":60.04343,"lng":9.6352,"population":465},{"id":3155247,"name":"Granvin","timezone":{"dstOffset":2,"gmtOffset":1,"timeZoneId":"Europe/Oslo"},"lat":60.52408,"lng":6.7194,"population":460},{"id":6639661,"name":"Kinsarvik","timezone":{"dstOffset":2,"gmtOffset":1,"timeZoneId":"Europe/Oslo"},"lat":60.37567,"lng":6.71948,"population":459},{"id":3148002,"name":"Lauvsnes","timezone":{"dstOffset":2,"gmtOffset":1,"timeZoneId":"Europe/Oslo"},"lat":64.50061,"lng":10.89396,"population":453},{"id":3159049,"name":"Dovre","timezone":{"dstOffset":2,"gmtOffset":1,"timeZoneId":"Europe/Oslo"},"lat":61.9875,"lng":9.25556,"population":439},{"id":3154639,"name":"Gryllefjord","timezone":{"dstOffset":2,"gmtOffset":1,"timeZoneId":"Europe/Oslo"},"lat":69.36304,"lng":17.05284,"population":439},{"id":3158558,"name":"Eikelandsosen","timezone":{"dstOffset":2,"gmtOffset":1,"timeZoneId":"Europe/Oslo"},"lat":60.24175,"lng":5.74433,"population":434},{"id":3160846,"name":"Ránda","timezone":{"dstOffset":2,"gmtOffset":1,"timeZoneId":"Europe/Oslo"},"lat":68.52647,"lng":16.9928,"population":392},{"id":3131781,"name":"Vik","timezone":{"dstOffset":2,"gmtOffset":1,"timeZoneId":"Europe/Oslo"},"lat":65.31254,"lng":12.16734,"population":365},{"id":3145589,"name":"Fyresdal","timezone":{"dstOffset":2,"gmtOffset":1,"timeZoneId":"Europe/Oslo"},"lat":59.18343,"lng":8.0921,"population":359},{"id":3142127,"name":"Reine","timezone":{"dstOffset":2,"gmtOffset":1,"timeZoneId":"Europe/Oslo"},"lat":67.93249,"lng":13.08955,"population":342},{"id":3153910,"name":"Hansnes","timezone":{"dstOffset":2,"gmtOffset":1,"timeZoneId":"Europe/Oslo"},"lat":69.96701,"lng":19.62752,"population":342},{"id":3161969,"name":"Batnfjordsøra","timezone":{"dstOffset":2,"gmtOffset":1,"timeZoneId":"Europe/Oslo"},"lat":62.89463,"lng":7.67251,"population":339},{"id":3155676,"name":"Gjerstad","timezone":{"dstOffset":2,"gmtOffset":1,"timeZoneId":"Europe/Oslo"},"lat":58.88083,"lng":9.01861,"population":339},{"id":3144113,"name":"Noresund","timezone":{"dstOffset":2,"gmtOffset":1,"timeZoneId":"Europe/Oslo"},"lat":60.17985,"lng":9.62411,"population":330},{"id":3156642,"name":"Fossby","timezone":{"dstOffset":2,"gmtOffset":1,"timeZoneId":"Europe/Oslo"},"lat":59.22218,"lng":11.69928,"population":318},{"id":778346,"name":"Olderdalen","timezone":{"dstOffset":2,"gmtOffset":1,"timeZoneId":"Europe/Oslo"},"lat":69.60407,"lng":20.53272,"population":312},{"id":3142371,"name":"Ranemsletta","timezone":{"dstOffset":2,"gmtOffset":1,"timeZoneId":"Europe/Oslo"},"lat":64.49447,"lng":11.94912,"population":307},{"id":3155536,"name":"Gladstad","timezone":{"dstOffset":2,"gmtOffset":1,"timeZoneId":"Europe/Oslo"},"lat":65.67683,"lng":11.96218,"population":300},{"id":3135739,"name":"Straume","timezone":{"dstOffset":2,"gmtOffset":1,"timeZoneId":"Europe/Oslo"},"lat":68.6888,"lng":14.47205,"population":291},{"id":3151676,"name":"Hovden","timezone":{"dstOffset":2,"gmtOffset":1,"timeZoneId":"Europe/Oslo"},"lat":59.56045,"lng":7.3567,"population":265},{"id":3141061,"name":"Røyrvik","timezone":{"dstOffset":2,"gmtOffset":1,"timeZoneId":"Europe/Oslo"},"lat":64.88394,"lng":13.56256,"population":254},{"id":3153869,"name":"Hardbakke","timezone":{"dstOffset":2,"gmtOffset":1,"timeZoneId":"Europe/Oslo"},"lat":61.07562,"lng":4.84111,"population":235},{"id":7535941,"name":"Olonkinbyen","timezone":{"dstOffset":2,"gmtOffset":1,"timeZoneId":"Arctic/Longyearbyen"},"lat":70.9221,"lng":-8.7187,"population":14},{"id":3226622,"name":"Oppeid","timezone":{"dstOffset":2,"gmtOffset":1,"timeZoneId":"Europe/Oslo"},"lat":68.08522,"lng":15.60942,"population":0},{"id":3156680,"name":"Fosnavåg","timezone":{"dstOffset":2,"gmtOffset":1,"timeZoneId":"Europe/Oslo"},"lat":62.34194,"lng":5.63396,"population":0},{"id":3157238,"name":"Flå","timezone":{"dstOffset":2,"gmtOffset":1,"timeZoneId":"Europe/Oslo"},"lat":60.43021,"lng":9.46197,"population":0},{"id":3157982,"name":"Evje","timezone":{"dstOffset":2,"gmtOffset":1,"timeZoneId":"Europe/Oslo"},"lat":58.58569,"lng":7.80362,"population":0},{"id":3158444,"name":"Eivindvik","timezone":{"dstOffset":2,"gmtOffset":1,"timeZoneId":"Europe/Oslo"},"lat":60.98133,"lng":5.07497,"population":0},{"id":3158608,"name":"Eidsvoll","timezone":{"dstOffset":2,"gmtOffset":1,"timeZoneId":"Europe/Oslo"},"lat":60.3311,"lng":11.26264,"population":0},{"id":3159582,"name":"Bygland","timezone":{"dstOffset":2,"gmtOffset":1,"timeZoneId":"Europe/Oslo"},"lat":58.8285,"lng":7.79616,"population":0},{"id":3159905,"name":"Bruflat","timezone":{"dstOffset":2,"gmtOffset":1,"timeZoneId":"Europe/Oslo"},"lat":60.88781,"lng":9.64143,"population":0},{"id":3160082,"name":"Svortland","timezone":{"dstOffset":2,"gmtOffset":1,"timeZoneId":"Europe/Oslo"},"lat":59.79284,"lng":5.17226,"population":0},{"id":3139431,"name":"Skaland","timezone":{"dstOffset":2,"gmtOffset":1,"timeZoneId":"Europe/Oslo"},"lat":69.44456,"lng":17.29832,"population":0},{"id":3139530,"name":"Skjønhaug","timezone":{"dstOffset":2,"gmtOffset":1,"timeZoneId":"Europe/Oslo"},"lat":59.64069,"lng":11.31591,"population":0},{"id":3140112,"name":"Sandvika","timezone":{"dstOffset":2,"gmtOffset":1,"timeZoneId":"Europe/Oslo"},"lat":64.46377,"lng":13.59125,"population":0},{"id":3140128,"name":"Sandvika","timezone":{"dstOffset":2,"gmtOffset":1,"timeZoneId":"Europe/Oslo"},"lat":59.89073,"lng":10.52774,"population":0},{"id":3141214,"name":"Røst","timezone":{"dstOffset":2,"gmtOffset":1,"timeZoneId":"Europe/Oslo"},"lat":67.51754,"lng":12.1176,"population":0},{"id":3141469,"name":"Rollag","timezone":{"dstOffset":2,"gmtOffset":1,"timeZoneId":"Europe/Oslo"},"lat":59.98431,"lng":9.29644,"population":0},{"id":3141671,"name":"Roa","timezone":{"dstOffset":2,"gmtOffset":1,"timeZoneId":"Europe/Oslo"},"lat":60.29093,"lng":10.61585,"population":0},{"id":3142396,"name":"Randaberg","timezone":{"dstOffset":2,"gmtOffset":1,"timeZoneId":"Europe/Oslo"},"lat":58.99955,"lng":5.61871,"population":0},{"id":3142502,"name":"Ramberg","timezone":{"dstOffset":2,"gmtOffset":1,"timeZoneId":"Europe/Oslo"},"lat":68.08991,"lng":13.22989,"population":0},{"id":3143237,"name":"Osøyro","timezone":{"dstOffset":2,"gmtOffset":1,"timeZoneId":"Europe/Oslo"},"lat":60.18385,"lng":5.4638,"population":0},{"id":3143423,"name":"Orkanger","timezone":{"dstOffset":2,"gmtOffset":1,"timeZoneId":"Europe/Oslo"},"lat":63.30668,"lng":9.85025,"population":0},{"id":3145021,"name":"Namsskogan","timezone":{"dstOffset":2,"gmtOffset":1,"timeZoneId":"Europe/Oslo"},"lat":64.92886,"lng":13.15954,"population":0},{"id":3145573,"name":"Moldjord","timezone":{"dstOffset":2,"gmtOffset":1,"timeZoneId":"Europe/Oslo"},"lat":67.00601,"lng":14.5743,"population":0},{"id":3145716,"name":"Mo","timezone":{"dstOffset":2,"gmtOffset":1,"timeZoneId":"Europe/Oslo"},"lat":60.81625,"lng":5.80575,"population":0},{"id":3145757,"name":"Mjøndalen","timezone":{"dstOffset":2,"gmtOffset":1,"timeZoneId":"Europe/Oslo"},"lat":59.75075,"lng":10.02477,"population":0},{"id":3146315,"name":"Masfjorden","timezone":{"dstOffset":2,"gmtOffset":1,"timeZoneId":"Europe/Oslo"},"lat":60.79887,"lng":5.30418,"population":0},{"id":3147747,"name":"Lensvik","timezone":{"dstOffset":2,"gmtOffset":1,"timeZoneId":"Europe/Oslo"},"lat":63.51389,"lng":9.80611,"population":0},{"id":3147788,"name":"Leknes","timezone":{"dstOffset":2,"gmtOffset":1,"timeZoneId":"Europe/Oslo"},"lat":65.1,"lng":11.7,"population":0},{"id":3148346,"name":"Langevåg","timezone":{"dstOffset":2,"gmtOffset":1,"timeZoneId":"Europe/Oslo"},"lat":62.44085,"lng":6.19138,"population":0},{"id":3148354,"name":"Langesund","timezone":{"dstOffset":2,"gmtOffset":1,"timeZoneId":"Europe/Oslo"},"lat":59.00071,"lng":9.74876,"population":0},{"id":3149239,"name":"Krokstadøra","timezone":{"dstOffset":2,"gmtOffset":1,"timeZoneId":"Europe/Oslo"},"lat":63.40099,"lng":9.50062,"population":0},{"id":3149525,"name":"Konsmo","timezone":{"dstOffset":2,"gmtOffset":1,"timeZoneId":"Europe/Oslo"},"lat":58.28529,"lng":7.35598,"population":0},{"id":3149640,"name":"Kolbotn","timezone":{"dstOffset":2,"gmtOffset":1,"timeZoneId":"Europe/Oslo"},"lat":59.81056,"lng":10.80389,"population":0},{"id":3149864,"name":"Kleppestø","timezone":{"dstOffset":2,"gmtOffset":1,"timeZoneId":"Europe/Oslo"},"lat":60.40844,"lng":5.2276,"population":0},{"id":3150805,"name":"Jondal","timezone":{"dstOffset":2,"gmtOffset":1,"timeZoneId":"Europe/Oslo"},"lat":60.27561,"lng":6.25229,"population":0},{"id":3150911,"name":"Jaren","timezone":{"dstOffset":2,"gmtOffset":1,"timeZoneId":"Europe/Oslo"},"lat":60.39273,"lng":10.56155,"population":0},{"id":3151001,"name":"Isdalstø","timezone":{"dstOffset":2,"gmtOffset":1,"timeZoneId":"Europe/Oslo"},"lat":60.55519,"lng":5.26942,"population":0},{"id":3151265,"name":"Hyllestad","timezone":{"dstOffset":2,"gmtOffset":1,"timeZoneId":"Europe/Oslo"},"lat":61.17109,"lng":5.29603,"population":0},{"id":3151882,"name":"Hopen","timezone":{"dstOffset":2,"gmtOffset":1,"timeZoneId":"Europe/Oslo"},"lat":63.46539,"lng":8.01437,"population":0},{"id":3152308,"name":"Hol","timezone":{"dstOffset":2,"gmtOffset":1,"timeZoneId":"Europe/Oslo"},"lat":68.54902,"lng":16.39218,"population":0},{"id":3152327,"name":"Hokksund","timezone":{"dstOffset":2,"gmtOffset":1,"timeZoneId":"Europe/Oslo"},"lat":59.77077,"lng":9.90987,"population":0},{"id":3153364,"name":"Heggenes","timezone":{"dstOffset":2,"gmtOffset":1,"timeZoneId":"Europe/Oslo"},"lat":61.14383,"lng":9.06942,"population":0},{"id":3154000,"name":"Hamnvik","timezone":{"dstOffset":2,"gmtOffset":1,"timeZoneId":"Europe/Oslo"},"lat":68.77927,"lng":17.17179,"population":0},{"id":3155196,"name":"Gratangen","timezone":{"dstOffset":2,"gmtOffset":1,"timeZoneId":"Europe/Oslo"},"lat":68.65,"lng":17.68333,"population":0},{"id":3162272,"name":"Austrheim","timezone":{"dstOffset":2,"gmtOffset":1,"timeZoneId":"Europe/Oslo"},"lat":60.7774,"lng":4.9323,"population":0},{"id":3162657,"name":"Asker","timezone":{"dstOffset":2,"gmtOffset":1,"timeZoneId":"Europe/Oslo"},"lat":59.83333,"lng":10.43721,"population":0},{"id":3162795,"name":"Aas","timezone":{"dstOffset":2,"gmtOffset":1,"timeZoneId":"Europe/Oslo"},"lat":63.05,"lng":11.65,"population":0},{"id":3162903,"name":"Årnes","timezone":{"dstOffset":2,"gmtOffset":1,"timeZoneId":"Europe/Oslo"},"lat":63.96114,"lng":10.22601,"population":0},{"id":3163198,"name":"Åmot","timezone":{"dstOffset":2,"gmtOffset":1,"timeZoneId":"Europe/Oslo"},"lat":59.56974,"lng":7.98871,"population":0},{"id":3163379,"name":"Ålgård","timezone":{"dstOffset":2,"gmtOffset":1,"timeZoneId":"Europe/Oslo"},"lat":58.76417,"lng":5.85253,"population":0},{"id":3163394,"name":"Ålen","timezone":{"dstOffset":2,"gmtOffset":1,"timeZoneId":"Europe/Oslo"},"lat":62.84185,"lng":11.3013,"population":0},{"id":3134011,"name":"Treungen","timezone":{"dstOffset":2,"gmtOffset":1,"timeZoneId":"Europe/Oslo"},"lat":59.02064,"lng":8.5202,"population":0},{"id":3134552,"name":"Tjeldstø","timezone":{"dstOffset":2,"gmtOffset":1,"timeZoneId":"Europe/Oslo"},"lat":60.59623,"lng":4.84449,"population":0},{"id":3134599,"name":"Tingvatn","timezone":{"dstOffset":2,"gmtOffset":1,"timeZoneId":"Europe/Oslo"},"lat":58.3757,"lng":7.2197,"population":0},{"id":3134827,"name":"Tangvall","timezone":{"dstOffset":2,"gmtOffset":1,"timeZoneId":"Europe/Oslo"},"lat":58.09781,"lng":7.81529,"population":0},{"id":3137863,"name":"Solfjellsjøen","timezone":{"dstOffset":2,"gmtOffset":1,"timeZoneId":"Europe/Oslo"},"lat":66.11667,"lng":12.48333,"population":0},{"id":3137942,"name":"Sola","timezone":{"dstOffset":2,"gmtOffset":1,"timeZoneId":"Europe/Oslo"},"lat":58.88854,"lng":5.65285,"population":0},{"id":3137973,"name":"Sogndalsfjøra","timezone":{"dstOffset":2,"gmtOffset":1,"timeZoneId":"Europe/Oslo"},"lat":61.22575,"lng":7.10178,"population":0},{"id":3138304,"name":"Slemmestad","timezone":{"dstOffset":2,"gmtOffset":1,"timeZoneId":"Europe/Oslo"},"lat":59.78074,"lng":10.49701,"population":0},{"id":3131653,"name":"Vikøyri","timezone":{"dstOffset":2,"gmtOffset":1,"timeZoneId":"Europe/Oslo"},"lat":61.08708,"lng":6.57914,"population":0},{"id":3131901,"name":"Vevelstad","timezone":{"dstOffset":2,"gmtOffset":1,"timeZoneId":"Europe/Oslo"},"lat":65.6978,"lng":12.43706,"population":0},{"id":3132735,"name":"Vangsvika","timezone":{"dstOffset":2,"gmtOffset":1,"timeZoneId":"Europe/Oslo"},"lat":69.17057,"lng":17.73416,"population":0},{"id":3132852,"name":"Valle","timezone":{"dstOffset":2,"gmtOffset":1,"timeZoneId":"Europe/Oslo"},"lat":59.21259,"lng":7.53559,"population":0},{"id":3132864,"name":"Valldal","timezone":{"dstOffset":2,"gmtOffset":1,"timeZoneId":"Europe/Oslo"},"lat":62.29782,"lng":7.26374,"population":0},{"id":3133145,"name":"Utsira","timezone":{"dstOffset":2,"gmtOffset":1,"timeZoneId":"Europe/Oslo"},"lat":59.3057,"lng":4.8862,"population":0},{"id":3133425,"name":"Uggdal","timezone":{"dstOffset":2,"gmtOffset":1,"timeZoneId":"Europe/Oslo"},"lat":60.00402,"lng":5.52876,"population":0},{"id":3133464,"name":"Tysse","timezone":{"dstOffset":2,"gmtOffset":1,"timeZoneId":"Europe/Oslo"},"lat":60.37404,"lng":5.75952,"population":0},{"id":777032,"name":"Varangerbotn","timezone":{"dstOffset":2,"gmtOffset":1,"timeZoneId":"Europe/Oslo"},"lat":70.17278,"lng":28.55598,"population":0},{"id":779146,"name":"Kvalsund","timezone":{"dstOffset":2,"gmtOffset":1,"timeZoneId":"Europe/Oslo"},"lat":70.50271,"lng":23.97974,"population":0},{"id":780524,"name":"Burfjord","timezone":{"dstOffset":2,"gmtOffset":1,"timeZoneId":"Europe/Oslo"},"lat":69.93804,"lng":22.05205,"population":0},{"id":7626135,"name":"Rømskog","timezone":{"dstOffset":2,"gmtOffset":1,"timeZoneId":"Europe/Oslo"},"lat":59.7497,"lng":11.8112,"population":0},{"id":7626136,"name":"Meieribyen","timezone":{"dstOffset":2,"gmtOffset":1,"timeZoneId":"Europe/Oslo"},"lat":59.47453,"lng":11.16083,"population":0},{"id":7626137,"name":"Kirkebygda","timezone":{"dstOffset":2,"gmtOffset":1,"timeZoneId":"Europe/Oslo"},"lat":59.4921,"lng":10.87432,"population":0},{"id":7626138,"name":"Elvestad","timezone":{"dstOffset":2,"gmtOffset":1,"timeZoneId":"Europe/Oslo"},"lat":59.62401,"lng":10.9508,"population":0},{"id":7626251,"name":"Forsand","timezone":{"dstOffset":2,"gmtOffset":1,"timeZoneId":"Europe/Oslo"},"lat":58.9033,"lng":6.1048,"population":0},{"id":7626323,"name":"Fjerdingby","timezone":{"dstOffset":2,"gmtOffset":1,"timeZoneId":"Europe/Oslo"},"lat":59.92626,"lng":11.06527,"population":0},{"id":7626324,"name":"Kirkebygda","timezone":{"dstOffset":2,"gmtOffset":1,"timeZoneId":"Europe/Oslo"},"lat":59.76452,"lng":11.14492,"population":0},{"id":7626325,"name":"Kjenn","timezone":{"dstOffset":2,"gmtOffset":1,"timeZoneId":"Europe/Oslo"},"lat":59.93098,"lng":10.95373,"population":0},{"id":7626326,"name":"Teigebyen","timezone":{"dstOffset":2,"gmtOffset":1,"timeZoneId":"Europe/Oslo"},"lat":60.22069,"lng":11.0176,"population":0},{"id":7626327,"name":"Hurdal","timezone":{"dstOffset":2,"gmtOffset":1,"timeZoneId":"Europe/Oslo"},"lat":60.43518,"lng":11.06707,"population":0},{"id":7626328,"name":"Flisa","timezone":{"dstOffset":2,"gmtOffset":1,"timeZoneId":"Europe/Oslo"},"lat":60.61318,"lng":12.01088,"population":0},{"id":7626329,"name":"Bergset","timezone":{"dstOffset":2,"gmtOffset":1,"timeZoneId":"Europe/Oslo"},"lat":61.89126,"lng":11.07769,"population":0},{"id":7626330,"name":"Engerdal","timezone":{"dstOffset":2,"gmtOffset":1,"timeZoneId":"Europe/Oslo"},"lat":61.75904,"lng":11.95937,"population":0},{"id":7626331,"name":"Lesja","timezone":{"dstOffset":2,"gmtOffset":1,"timeZoneId":"Europe/Oslo"},"lat":62.11837,"lng":8.86424,"population":0},{"id":7626332,"name":"Bismo","timezone":{"dstOffset":2,"gmtOffset":1,"timeZoneId":"Europe/Oslo"},"lat":61.88406,"lng":8.26665,"population":0},{"id":7626334,"name":"Ringebu","timezone":{"dstOffset":2,"gmtOffset":1,"timeZoneId":"Europe/Oslo"},"lat":61.52965,"lng":10.13889,"population":0},{"id":7626335,"name":"Segalstad bru","timezone":{"dstOffset":2,"gmtOffset":1,"timeZoneId":"Europe/Oslo"},"lat":61.22819,"lng":10.22255,"population":0},{"id":7626336,"name":"Slidre","timezone":{"dstOffset":2,"gmtOffset":1,"timeZoneId":"Europe/Oslo"},"lat":61.08802,"lng":8.98141,"population":0},{"id":7626337,"name":"Vang","timezone":{"dstOffset":2,"gmtOffset":1,"timeZoneId":"Europe/Oslo"},"lat":61.12529,"lng":8.5729,"population":0},{"id":7626338,"name":"Vik","timezone":{"dstOffset":2,"gmtOffset":1,"timeZoneId":"Europe/Oslo"},"lat":60.07706,"lng":10.27908,"population":0},{"id":7626339,"name":"Trøim","timezone":{"dstOffset":2,"gmtOffset":1,"timeZoneId":"Europe/Oslo"},"lat":60.86114,"lng":8.56537,"population":0},{"id":7626340,"name":"Hol","timezone":{"dstOffset":2,"gmtOffset":1,"timeZoneId":"Europe/Oslo"},"lat":60.61511,"lng":8.29398,"population":0},{"id":7626341,"name":"Lierbyen","timezone":{"dstOffset":2,"gmtOffset":1,"timeZoneId":"Europe/Oslo"},"lat":59.78651,"lng":10.24448,"population":0},{"id":7626342,"name":"Lampeland","timezone":{"dstOffset":2,"gmtOffset":1,"timeZoneId":"Europe/Oslo"},"lat":59.83486,"lng":9.57912,"population":0},{"id":7626343,"name":"Rødberg","timezone":{"dstOffset":2,"gmtOffset":1,"timeZoneId":"Europe/Oslo"},"lat":60.26722,"lng":8.94721,"population":0},{"id":7626344,"name":"Hof","timezone":{"dstOffset":2,"gmtOffset":1,"timeZoneId":"Europe/Oslo"},"lat":59.53013,"lng":10.09032,"population":0},{"id":7626345,"name":"Revetal","timezone":{"dstOffset":2,"gmtOffset":1,"timeZoneId":"Europe/Oslo"},"lat":59.3724,"lng":10.26308,"population":0},{"id":7626346,"name":"Andebu","timezone":{"dstOffset":2,"gmtOffset":1,"timeZoneId":"Europe/Oslo"},"lat":59.30592,"lng":10.17653,"population":0},{"id":7626347,"name":"Borgheim","timezone":{"dstOffset":2,"gmtOffset":1,"timeZoneId":"Europe/Oslo"},"lat":59.22629,"lng":10.40745,"population":0},{"id":7626348,"name":"Svarstad","timezone":{"dstOffset":2,"gmtOffset":1,"timeZoneId":"Europe/Oslo"},"lat":59.40168,"lng":9.96144,"population":0},{"id":7626349,"name":"Sauland","timezone":{"dstOffset":2,"gmtOffset":1,"timeZoneId":"Europe/Oslo"},"lat":59.6161,"lng":8.93755,"population":0},{"id":7626350,"name":"Blakstad","timezone":{"dstOffset":2,"gmtOffset":1,"timeZoneId":"Europe/Oslo"},"lat":58.5046,"lng":8.64648,"population":0},{"id":7626351,"name":"Birketveit","timezone":{"dstOffset":2,"gmtOffset":1,"timeZoneId":"Europe/Oslo"},"lat":58.45909,"lng":7.91692,"population":0},{"id":7626352,"name":"Helland","timezone":{"dstOffset":2,"gmtOffset":1,"timeZoneId":"Europe/Oslo"},"lat":58.19344,"lng":7.52431,"population":0},{"id":7626353,"name":"Kyrkjebygda","timezone":{"dstOffset":2,"gmtOffset":1,"timeZoneId":"Europe/Oslo"},"lat":58.61523,"lng":7.41391,"population":0},{"id":7626354,"name":"Kleppe","timezone":{"dstOffset":2,"gmtOffset":1,"timeZoneId":"Europe/Oslo"},"lat":58.77423,"lng":5.62936,"population":0},{"id":7626355,"name":"Hjelmelandsvågen","timezone":{"dstOffset":2,"gmtOffset":1,"timeZoneId":"Europe/Oslo"},"lat":59.23692,"lng":6.17907,"population":0},{"id":7626356,"name":"Sand","timezone":{"dstOffset":2,"gmtOffset":1,"timeZoneId":"Europe/Oslo"},"lat":59.48468,"lng":6.25109,"population":0},{"id":7626357,"name":"Ydstebøhamn","timezone":{"dstOffset":2,"gmtOffset":1,"timeZoneId":"Europe/Oslo"},"lat":59.06227,"lng":5.40249,"population":0},{"id":7626358,"name":"Bokn","timezone":{"dstOffset":2,"gmtOffset":1,"timeZoneId":"Europe/Oslo"},"lat":59.23062,"lng":5.43524,"population":0},{"id":7626359,"name":"Aksdal","timezone":{"dstOffset":2,"gmtOffset":1,"timeZoneId":"Europe/Oslo"},"lat":59.42408,"lng":5.44553,"population":0},{"id":7626360,"name":"Skogsvågen","timezone":{"dstOffset":2,"gmtOffset":1,"timeZoneId":"Europe/Oslo"},"lat":60.25512,"lng":5.10161,"population":0},{"id":7626361,"name":"Straume","timezone":{"dstOffset":2,"gmtOffset":1,"timeZoneId":"Europe/Oslo"},"lat":60.36131,"lng":5.12199,"population":0},{"id":7626362,"name":"Aurlandsvangen","timezone":{"dstOffset":2,"gmtOffset":1,"timeZoneId":"Europe/Oslo"},"lat":60.90578,"lng":7.18706,"population":0},{"id":7626363,"name":"Gaupne","timezone":{"dstOffset":2,"gmtOffset":1,"timeZoneId":"Europe/Oslo"},"lat":61.40472,"lng":7.29458,"population":0},{"id":7626364,"name":"Askvoll","timezone":{"dstOffset":2,"gmtOffset":1,"timeZoneId":"Europe/Oslo"},"lat":61.34673,"lng":5.06224,"population":0},{"id":7626365,"name":"Hornindal","timezone":{"dstOffset":2,"gmtOffset":1,"timeZoneId":"Europe/Oslo"},"lat":61.96921,"lng":6.52418,"population":0},{"id":7626366,"name":"Fiskå","timezone":{"dstOffset":2,"gmtOffset":1,"timeZoneId":"Europe/Oslo"},"lat":62.10059,"lng":5.55788,"population":0},{"id":7626367,"name":"Stordal","timezone":{"dstOffset":2,"gmtOffset":1,"timeZoneId":"Europe/Oslo"},"lat":62.38203,"lng":6.98629,"population":0},{"id":7626368,"name":"Sykkylven","timezone":{"dstOffset":2,"gmtOffset":1,"timeZoneId":"Europe/Oslo"},"lat":62.39594,"lng":6.5875,"population":0},{"id":7626369,"name":"Valderøy","timezone":{"dstOffset":2,"gmtOffset":1,"timeZoneId":"Europe/Oslo"},"lat":62.5007,"lng":6.13472,"population":0},{"id":7626370,"name":"Falkhytta","timezone":{"dstOffset":2,"gmtOffset":1,"timeZoneId":"Europe/Oslo"},"lat":62.805,"lng":6.88722,"population":0},{"id":7626372,"name":"Bruhagen","timezone":{"dstOffset":2,"gmtOffset":1,"timeZoneId":"Europe/Oslo"},"lat":63.05259,"lng":7.63416,"population":0},{"id":7626373,"name":"Surnadal","timezone":{"dstOffset":2,"gmtOffset":1,"timeZoneId":"Europe/Oslo"},"lat":62.97397,"lng":8.72472,"population":0},{"id":7626374,"name":"Liabøen","timezone":{"dstOffset":2,"gmtOffset":1,"timeZoneId":"Europe/Oslo"},"lat":63.12249,"lng":8.31587,"population":0},{"id":7626375,"name":"Rissa","timezone":{"dstOffset":2,"gmtOffset":1,"timeZoneId":"Europe/Oslo"},"lat":63.58368,"lng":9.95989,"population":0},{"id":7626376,"name":"Roan","timezone":{"dstOffset":2,"gmtOffset":1,"timeZoneId":"Europe/Oslo"},"lat":64.17269,"lng":10.22898,"population":0},{"id":7626377,"name":"Steinsdalen","timezone":{"dstOffset":2,"gmtOffset":1,"timeZoneId":"Europe/Oslo"},"lat":64.29875,"lng":10.51284,"population":0},{"id":7626378,"name":"Meldal","timezone":{"dstOffset":2,"gmtOffset":1,"timeZoneId":"Europe/Oslo"},"lat":63.04721,"lng":9.71337,"population":0},{"id":7626379,"name":"Støren","timezone":{"dstOffset":2,"gmtOffset":1,"timeZoneId":"Europe/Oslo"},"lat":63.0391,"lng":10.28501,"population":0},{"id":7626380,"name":"Børsa","timezone":{"dstOffset":2,"gmtOffset":1,"timeZoneId":"Europe/Oslo"},"lat":63.32672,"lng":10.0692,"population":0},{"id":7626381,"name":"Klæbu","timezone":{"dstOffset":2,"gmtOffset":1,"timeZoneId":"Europe/Oslo"},"lat":63.29762,"lng":10.48261,"population":0},{"id":7626382,"name":"Mebonden","timezone":{"dstOffset":2,"gmtOffset":1,"timeZoneId":"Europe/Oslo"},"lat":63.23034,"lng":11.03099,"population":0},{"id":7626384,"name":"Leksvik","timezone":{"dstOffset":2,"gmtOffset":1,"timeZoneId":"Europe/Oslo"},"lat":63.67274,"lng":10.6232,"population":0},{"id":7626386,"name":"Namdalseid","timezone":{"dstOffset":2,"gmtOffset":1,"timeZoneId":"Europe/Oslo"},"lat":64.22186,"lng":11.22319,"population":0},{"id":7626388,"name":"Høylandet","timezone":{"dstOffset":2,"gmtOffset":1,"timeZoneId":"Europe/Oslo"},"lat":64.62887,"lng":12.30206,"population":0},{"id":7626389,"name":"Jøa","timezone":{"dstOffset":2,"gmtOffset":1,"timeZoneId":"Europe/Oslo"},"lat":64.6591,"lng":11.26535,"population":0},{"id":7626391,"name":"Silvalen","timezone":{"dstOffset":2,"gmtOffset":1,"timeZoneId":"Europe/Oslo"},"lat":65.9832,"lng":12.28856,"population":0},{"id":7626393,"name":"Hattfjelldal","timezone":{"dstOffset":2,"gmtOffset":1,"timeZoneId":"Europe/Oslo"},"lat":65.59736,"lng":13.98791,"population":0},{"id":7626395,"name":"Lurøy","timezone":{"dstOffset":2,"gmtOffset":1,"timeZoneId":"Europe/Oslo"},"lat":66.41887,"lng":12.84248,"population":0},{"id":7626396,"name":"Husøya","timezone":{"dstOffset":2,"gmtOffset":1,"timeZoneId":"Europe/Oslo"},"lat":66.50159,"lng":12.09645,"population":0},{"id":7626397,"name":"Vågaholmen","timezone":{"dstOffset":2,"gmtOffset":1,"timeZoneId":"Europe/Oslo"},"lat":66.71367,"lng":13.28711,"population":0},{"id":7626398,"name":"Leinesfjorden","timezone":{"dstOffset":2,"gmtOffset":1,"timeZoneId":"Europe/Oslo"},"lat":67.77548,"lng":15.01545,"population":0},{"id":7626400,"name":"Leknes","timezone":{"dstOffset":2,"gmtOffset":1,"timeZoneId":"Europe/Oslo"},"lat":68.14746,"lng":13.61151,"population":0},{"id":7626402,"name":"Tennevoll","timezone":{"dstOffset":2,"gmtOffset":1,"timeZoneId":"Europe/Oslo"},"lat":68.7471,"lng":17.80621,"population":0},{"id":7626403,"name":"Sørreisa","timezone":{"dstOffset":2,"gmtOffset":1,"timeZoneId":"Europe/Oslo"},"lat":69.14527,"lng":18.15292,"population":0},{"id":7626404,"name":"Brøstadbotn","timezone":{"dstOffset":2,"gmtOffset":1,"timeZoneId":"Europe/Oslo"},"lat":69.08873,"lng":17.69489,"population":0},{"id":7626405,"name":"Hatteng","timezone":{"dstOffset":2,"gmtOffset":1,"timeZoneId":"Europe/Oslo"},"lat":69.27072,"lng":19.95944,"population":0},{"id":7626406,"name":"Breivikbotn","timezone":{"dstOffset":2,"gmtOffset":1,"timeZoneId":"Europe/Oslo"},"lat":70.58877,"lng":22.28712,"population":0},{"id":7626407,"name":"Tana bru","timezone":{"dstOffset":2,"gmtOffset":1,"timeZoneId":"Europe/Oslo"},"lat":70.19909,"lng":28.19039,"population":0},{"id":6695932,"name":"Skei","timezone":{"dstOffset":2,"gmtOffset":1,"timeZoneId":"Europe/Oslo"},"lat":61.5715,"lng":6.4791,"population":0},{"id":6951004,"name":"Stjørdal","timezone":{"dstOffset":2,"gmtOffset":1,"timeZoneId":"Europe/Oslo"},"lat":63.46803,"lng":10.91776,"population":0}]