[{"id":3166645,"name":"Serravalle","timezone":{"dstOffset":2,"gmtOffset":1,"timeZoneId":"Europe/San_Marino"},"lat":43.96897,"lng":12.48167,"population":9258},{"id":3181793,"name":"Borgo Maggiore","timezone":{"dstOffset":2,"gmtOffset":1,"timeZoneId":"Europe/San_Marino"},"lat":43.94193,"lng":12.44738,"population":6424},{"id":3168070,"name":"City of San Marino","timezone":{"dstOffset":2,"gmtOffset":1,"timeZoneId":"Europe/San_Marino"},"lat":43.93667,"lng":12.44639,"population":4500},{"id":3177542,"name":"Domagnano","timezone":{"dstOffset":2,"gmtOffset":1,"timeZoneId":"Europe/San_Marino"},"lat":43.95279,"lng":12.47008,"population":3161},{"id":3176966,"name":"Fiorentino","timezone":{"dstOffset":2,"gmtOffset":1,"timeZoneId":"Europe/San_Marino"},"lat":43.91001,"lng":12.45738,"population":2510},{"id":3183500,"name":"Acquaviva","timezone":{"dstOffset":2,"gmtOffset":1,"timeZoneId":"Europe/San_Marino"},"lat":43.94593,"lng":12.4185,"population":1530},{"id":3177299,"name":"Faetano","timezone":{"dstOffset":2,"gmtOffset":1,"timeZoneId":"Europe/San_Marino"},"lat":43.92831,"lng":12.49798,"population":1177},{"id":3170472,"name":"Poggio di Chiesanuova","timezone":{"dstOffset":2,"gmtOffset":1,"timeZoneId":"Europe/San_Marino"},"lat":43.90451,"lng":12.42142,"population":951},{"id":3172906,"name":"Monte Giardino","timezone":{"dstOffset":2,"gmtOffset":1,"timeZoneId":"Europe/San_Marino"},"lat":43.90878,"lng":12.48201,"population":910}]