[{"id":1609350,"name":"Bangkok","timezone":{"dstOffset":7,"gmtOffset":7,"timeZoneId":"Asia/Bangkok"},"lat":13.75398,"lng":100.50144,"population":5104476},{"id":1606590,"name":"Mueang Samut Prakan","timezone":{"dstOffset":7,"gmtOffset":7,"timeZoneId":"Asia/Bangkok"},"lat":13.59934,"lng":100.59675,"population":388920},{"id":1608133,"name":"Nonthaburi","timezone":{"dstOffset":7,"gmtOffset":7,"timeZoneId":"Asia/Bangkok"},"lat":13.86075,"lng":100.51477,"population":291555},{"id":1605239,"name":"Udon Thani","timezone":{"dstOffset":7,"gmtOffset":7,"timeZoneId":"Asia/Bangkok"},"lat":17.41567,"lng":102.78589,"population":247231},{"id":1611110,"name":"Chon Buri","timezone":{"dstOffset":7,"gmtOffset":7,"timeZoneId":"Asia/Bangkok"},"lat":13.3622,"lng":100.98345,"population":219164},{"id":1608529,"name":"Nakhon Ratchasima","timezone":{"dstOffset":7,"gmtOffset":7,"timeZoneId":"Asia/Bangkok"},"lat":14.97066,"lng":102.10196,"population":208781},{"id":1153671,"name":"Chiang Mai","timezone":{"dstOffset":7,"gmtOffset":7,"timeZoneId":"Asia/Bangkok"},"lat":18.79038,"lng":98.98468,"population":200952},{"id":1610780,"name":"Hat Yai","timezone":{"dstOffset":7,"gmtOffset":7,"timeZoneId":"Asia/Bangkok"},"lat":7.00836,"lng":100.47668,"population":191696},{"id":1608048,"name":"Pak Kret","timezone":{"dstOffset":7,"gmtOffset":7,"timeZoneId":"Asia/Bangkok"},"lat":13.91301,"lng":100.49883,"population":182926},{"id":1606250,"name":"Si Racha","timezone":{"dstOffset":7,"gmtOffset":7,"timeZoneId":"Asia/Bangkok"},"lat":13.17372,"lng":100.93111,"population":178916},{"id":1607508,"name":"Amphoe Phra Pradaeng","timezone":{"dstOffset":7,"gmtOffset":7,"timeZoneId":"Asia/Bangkok"},"lat":13.65854,"lng":100.53362,"population":171333},{"id":1152473,"name":"Lampang","timezone":{"dstOffset":7,"gmtOffset":7,"timeZoneId":"Asia/Bangkok"},"lat":18.29232,"lng":99.49277,"population":156139},{"id":1609776,"name":"Khon Kaen","timezone":{"dstOffset":7,"gmtOffset":7,"timeZoneId":"Asia/Bangkok"},"lat":16.44671,"lng":102.833,"population":147579},{"id":1150515,"name":"Surat Thani","timezone":{"dstOffset":7,"gmtOffset":7,"timeZoneId":"Asia/Bangkok"},"lat":9.14011,"lng":99.33311,"population":127201},{"id":1613769,"name":"Ban Rangsit","timezone":{"dstOffset":7,"gmtOffset":7,"timeZoneId":"Asia/Bangkok"},"lat":14.02775,"lng":100.75603,"population":123382},{"id":1605245,"name":"Ubon Ratchathani","timezone":{"dstOffset":7,"gmtOffset":7,"timeZoneId":"Asia/Bangkok"},"lat":15.23844,"lng":104.84866,"population":122533},{"id":1151933,"name":"Nakhon Si Thammarat","timezone":{"dstOffset":7,"gmtOffset":7,"timeZoneId":"Asia/Bangkok"},"lat":8.43333,"lng":99.96667,"population":120836},{"id":1609899,"name":"Khlong Luang","timezone":{"dstOffset":7,"gmtOffset":7,"timeZoneId":"Asia/Bangkok"},"lat":14.06467,"lng":100.64578,"population":118551},{"id":1608534,"name":"Nakhon Pathom","timezone":{"dstOffset":7,"gmtOffset":7,"timeZoneId":"Asia/Bangkok"},"lat":13.8196,"lng":100.04427,"population":117927},{"id":1607017,"name":"Rayong","timezone":{"dstOffset":7,"gmtOffset":7,"timeZoneId":"Asia/Bangkok"},"lat":12.68095,"lng":101.25798,"population":106737},{"id":1607708,"name":"Phitsanulok","timezone":{"dstOffset":7,"gmtOffset":7,"timeZoneId":"Asia/Bangkok"},"lat":16.82481,"lng":100.25858,"population":103427},{"id":1611269,"name":"Chanthaburi","timezone":{"dstOffset":7,"gmtOffset":7,"timeZoneId":"Asia/Bangkok"},"lat":12.60961,"lng":102.10447,"population":99819},{"id":1614295,"name":"Pattaya","timezone":{"dstOffset":7,"gmtOffset":7,"timeZoneId":"Asia/Bangkok"},"lat":12.93333,"lng":100.88333,"population":97296},{"id":1604870,"name":"Yala","timezone":{"dstOffset":7,"gmtOffset":7,"timeZoneId":"Asia/Bangkok"},"lat":6.53995,"lng":101.28128,"population":93558},{"id":1150954,"name":"Ratchaburi","timezone":{"dstOffset":7,"gmtOffset":7,"timeZoneId":"Asia/Bangkok"},"lat":13.53671,"lng":99.81712,"population":92448},{"id":1608527,"name":"Nakhon Sawan","timezone":{"dstOffset":7,"gmtOffset":7,"timeZoneId":"Asia/Bangkok"},"lat":15.70472,"lng":100.13717,"population":91802},{"id":1151254,"name":"Phuket","timezone":{"dstOffset":7,"gmtOffset":7,"timeZoneId":"Asia/Bangkok"},"lat":7.89059,"lng":98.3981,"population":89072},{"id":1601579,"name":"Ban Mai","timezone":{"dstOffset":7,"gmtOffset":7,"timeZoneId":"Asia/Bangkok"},"lat":7.20411,"lng":100.54508,"population":86899},{"id":1606147,"name":"Songkhla","timezone":{"dstOffset":7,"gmtOffset":7,"timeZoneId":"Asia/Bangkok"},"lat":7.19882,"lng":100.5951,"population":84264},{"id":1607532,"name":"Ayutthaya","timezone":{"dstOffset":7,"gmtOffset":7,"timeZoneId":"Asia/Bangkok"},"lat":14.35167,"lng":100.57739,"population":81962},{"id":1153669,"name":"Chiang Rai","timezone":{"dstOffset":7,"gmtOffset":7,"timeZoneId":"Asia/Bangkok"},"lat":19.90858,"lng":99.8325,"population":78756},{"id":1619434,"name":"Bang Kruai","timezone":{"dstOffset":7,"gmtOffset":7,"timeZoneId":"Asia/Bangkok"},"lat":13.805,"lng":100.47283,"population":78305},{"id":1606790,"name":"Sakon Nakhon","timezone":{"dstOffset":7,"gmtOffset":7,"timeZoneId":"Asia/Bangkok"},"lat":17.16116,"lng":104.14725,"population":76237},{"id":1609395,"name":"Krathum Baen","timezone":{"dstOffset":7,"gmtOffset":7,"timeZoneId":"Asia/Bangkok"},"lat":13.6533,"lng":100.25972,"population":72819},{"id":1606418,"name":"Saraburi","timezone":{"dstOffset":7,"gmtOffset":7,"timeZoneId":"Asia/Bangkok"},"lat":14.53333,"lng":100.91667,"population":67763},{"id":1150007,"name":"Trang","timezone":{"dstOffset":7,"gmtOffset":7,"timeZoneId":"Asia/Bangkok"},"lat":7.55633,"lng":99.61141,"population":66713},{"id":1606386,"name":"Sattahip","timezone":{"dstOffset":7,"gmtOffset":7,"timeZoneId":"Asia/Bangkok"},"lat":12.66644,"lng":100.90073,"population":65444},{"id":1153081,"name":"Kanchanaburi","timezone":{"dstOffset":7,"gmtOffset":7,"timeZoneId":"Asia/Bangkok"},"lat":14.00412,"lng":99.54832,"population":63699},{"id":1608232,"name":"Nong Khai","timezone":{"dstOffset":7,"gmtOffset":7,"timeZoneId":"Asia/Bangkok"},"lat":17.87847,"lng":102.742,"population":63609},{"id":1606588,"name":"Samut Sakhon","timezone":{"dstOffset":7,"gmtOffset":7,"timeZoneId":"Asia/Bangkok"},"lat":13.54753,"lng":100.27362,"population":63498},{"id":1617111,"name":"Ban Lam Luk Ka","timezone":{"dstOffset":7,"gmtOffset":7,"timeZoneId":"Asia/Bangkok"},"lat":13.97738,"lng":100.77776,"population":60700},{"id":1153090,"name":"Kamphaeng Phet","timezone":{"dstOffset":7,"gmtOffset":7,"timeZoneId":"Asia/Bangkok"},"lat":16.48344,"lng":99.52153,"population":58787},{"id":1611407,"name":"Chaiyaphum","timezone":{"dstOffset":7,"gmtOffset":7,"timeZoneId":"Asia/Bangkok"},"lat":15.81047,"lng":102.02881,"population":58350},{"id":1605215,"name":"Uttaradit","timezone":{"dstOffset":7,"gmtOffset":7,"timeZoneId":"Asia/Bangkok"},"lat":17.62557,"lng":100.09421,"population":58313},{"id":1609032,"name":"Lopburi","timezone":{"dstOffset":7,"gmtOffset":7,"timeZoneId":"Asia/Bangkok"},"lat":14.79808,"lng":100.65397,"population":57761},{"id":1155139,"name":"Ban Pong","timezone":{"dstOffset":7,"gmtOffset":7,"timeZoneId":"Asia/Bangkok"},"lat":13.81629,"lng":99.87739,"population":57559},{"id":1607512,"name":"Phra Phutthabat","timezone":{"dstOffset":7,"gmtOffset":7,"timeZoneId":"Asia/Bangkok"},"lat":14.72526,"lng":100.79536,"population":57008},{"id":1153557,"name":"Chumphon","timezone":{"dstOffset":7,"gmtOffset":7,"timeZoneId":"Asia/Bangkok"},"lat":10.4957,"lng":99.17971,"population":55835},{"id":1609610,"name":"Klaeng","timezone":{"dstOffset":7,"gmtOffset":7,"timeZoneId":"Asia/Bangkok"},"lat":12.77972,"lng":101.64831,"population":55619},{"id":1610469,"name":"Kalasin","timezone":{"dstOffset":7,"gmtOffset":7,"timeZoneId":"Asia/Bangkok"},"lat":16.43281,"lng":103.50658,"population":55102},{"id":1606033,"name":"Suphan Buri","timezone":{"dstOffset":7,"gmtOffset":7,"timeZoneId":"Asia/Bangkok"},"lat":14.47418,"lng":100.12218,"population":53399},{"id":1150275,"name":"Tha Maka","timezone":{"dstOffset":7,"gmtOffset":7,"timeZoneId":"Asia/Bangkok"},"lat":13.9,"lng":99.76667,"population":52907},{"id":1117652,"name":"Talat Yai","timezone":{"dstOffset":7,"gmtOffset":7,"timeZoneId":"Asia/Bangkok"},"lat":7.88481,"lng":98.40008,"population":52192},{"id":1608900,"name":"Maha Sarakham","timezone":{"dstOffset":7,"gmtOffset":7,"timeZoneId":"Asia/Bangkok"},"lat":16.18483,"lng":103.30067,"population":51584},{"id":1607737,"name":"Phetchabun","timezone":{"dstOffset":7,"gmtOffset":7,"timeZoneId":"Asia/Bangkok"},"lat":16.41904,"lng":101.16056,"population":50656},{"id":1153269,"name":"Hua Hin","timezone":{"dstOffset":7,"gmtOffset":7,"timeZoneId":"Asia/Bangkok"},"lat":12.57065,"lng":99.95876,"population":50456},{"id":1154689,"name":"Ko Samui","timezone":{"dstOffset":7,"gmtOffset":7,"timeZoneId":"Asia/Bangkok"},"lat":9.53567,"lng":99.93567,"population":50000},{"id":1611439,"name":"Chachoengsao","timezone":{"dstOffset":7,"gmtOffset":7,"timeZoneId":"Asia/Bangkok"},"lat":13.6882,"lng":101.07156,"population":49741},{"id":1153807,"name":"Cha-am","timezone":{"dstOffset":7,"gmtOffset":7,"timeZoneId":"Asia/Bangkok"},"lat":12.8,"lng":99.96667,"population":49375},{"id":1608057,"name":"Pak Chong","timezone":{"dstOffset":7,"gmtOffset":7,"timeZoneId":"Asia/Bangkok"},"lat":14.70802,"lng":101.41614,"population":48999},{"id":1608409,"name":"Narathiwat","timezone":{"dstOffset":7,"gmtOffset":7,"timeZoneId":"Asia/Bangkok"},"lat":6.42639,"lng":101.82308,"population":47771},{"id":1151063,"name":"Pran Buri","timezone":{"dstOffset":7,"gmtOffset":7,"timeZoneId":"Asia/Bangkok"},"lat":12.38487,"lng":99.90158,"population":47293},{"id":1606030,"name":"Surin","timezone":{"dstOffset":7,"gmtOffset":7,"timeZoneId":"Asia/Bangkok"},"lat":14.88181,"lng":103.49364,"population":46673},{"id":1149698,"name":"Phetchaburi","timezone":{"dstOffset":7,"gmtOffset":7,"timeZoneId":"Asia/Bangkok"},"lat":13.11189,"lng":99.94467,"population":46601},{"id":1611026,"name":"Chum Phae","timezone":{"dstOffset":7,"gmtOffset":7,"timeZoneId":"Asia/Bangkok"},"lat":16.5443,"lng":102.09924,"population":46335},{"id":1606939,"name":"Sadao","timezone":{"dstOffset":7,"gmtOffset":7,"timeZoneId":"Asia/Bangkok"},"lat":6.63883,"lng":100.42342,"population":46236},{"id":1606239,"name":"Si Sa Ket","timezone":{"dstOffset":7,"gmtOffset":7,"timeZoneId":"Asia/Bangkok"},"lat":15.11481,"lng":104.32938,"population":44751},{"id":1152188,"name":"Mae Sot","timezone":{"dstOffset":7,"gmtOffset":7,"timeZoneId":"Asia/Bangkok"},"lat":16.71667,"lng":98.56667,"population":44563},{"id":1607978,"name":"Pattani","timezone":{"dstOffset":7,"gmtOffset":7,"timeZoneId":"Asia/Bangkok"},"lat":6.86814,"lng":101.25009,"population":43690},{"id":1607779,"name":"Phatthalung","timezone":{"dstOffset":7,"gmtOffset":7,"timeZoneId":"Asia/Bangkok"},"lat":7.61786,"lng":100.07792,"population":43522},{"id":1152468,"name":"Lamphun","timezone":{"dstOffset":7,"gmtOffset":7,"timeZoneId":"Asia/Bangkok"},"lat":18.58054,"lng":99.00745,"population":43196},{"id":1605069,"name":"Warin Chamrap","timezone":{"dstOffset":7,"gmtOffset":7,"timeZoneId":"Asia/Bangkok"},"lat":15.19319,"lng":104.8628,"population":43102},{"id":1606050,"name":"Su-ngai Kolok","timezone":{"dstOffset":7,"gmtOffset":7,"timeZoneId":"Asia/Bangkok"},"lat":6.02977,"lng":101.96586,"population":42776},{"id":1605467,"name":"Tha Yang","timezone":{"dstOffset":7,"gmtOffset":7,"timeZoneId":"Asia/Bangkok"},"lat":12.95772,"lng":99.90555,"population":42602},{"id":1614465,"name":"Ban Phaeo","timezone":{"dstOffset":7,"gmtOffset":7,"timeZoneId":"Asia/Bangkok"},"lat":13.59072,"lng":100.10748,"population":41904},{"id":1619602,"name":"Bang Bua Thong","timezone":{"dstOffset":7,"gmtOffset":7,"timeZoneId":"Asia/Bangkok"},"lat":13.91783,"lng":100.42403,"population":41567},{"id":1608239,"name":"Nong Khae","timezone":{"dstOffset":7,"gmtOffset":7,"timeZoneId":"Asia/Bangkok"},"lat":14.34062,"lng":100.86733,"population":41067},{"id":1608597,"name":"Mukdahan","timezone":{"dstOffset":7,"gmtOffset":7,"timeZoneId":"Asia/Bangkok"},"lat":16.54531,"lng":104.72351,"population":40480},{"id":1156257,"name":"Ban Na","timezone":{"dstOffset":7,"gmtOffset":7,"timeZoneId":"Asia/Bangkok"},"lat":17.01717,"lng":99.73283,"population":40174},{"id":1619423,"name":"Bang Lamung","timezone":{"dstOffset":7,"gmtOffset":7,"timeZoneId":"Asia/Bangkok"},"lat":13.04704,"lng":100.92891,"population":39620},{"id":1607001,"name":"Roi Et","timezone":{"dstOffset":7,"gmtOffset":7,"timeZoneId":"Asia/Bangkok"},"lat":16.0567,"lng":103.65309,"population":39328},{"id":1605024,"name":"Wichian Buri","timezone":{"dstOffset":7,"gmtOffset":7,"timeZoneId":"Asia/Bangkok"},"lat":15.65778,"lng":101.10603,"population":39272},{"id":6696291,"name":"Wichit","timezone":{"dstOffset":7,"gmtOffset":7,"timeZoneId":"Asia/Bangkok"},"lat":7.8894,"lng":98.38523,"population":38701},{"id":1607552,"name":"Phrae","timezone":{"dstOffset":7,"gmtOffset":7,"timeZoneId":"Asia/Bangkok"},"lat":18.14589,"lng":100.14103,"population":38538},{"id":1152227,"name":"Mae Chan","timezone":{"dstOffset":7,"gmtOffset":7,"timeZoneId":"Asia/Bangkok"},"lat":20.14675,"lng":99.85256,"population":37672},{"id":1606638,"name":"Sam Phran","timezone":{"dstOffset":7,"gmtOffset":7,"timeZoneId":"Asia/Bangkok"},"lat":13.72698,"lng":100.21526,"population":37115},{"id":1150533,"name":"New Sukhothai","timezone":{"dstOffset":7,"gmtOffset":7,"timeZoneId":"Asia/Bangkok"},"lat":17.00778,"lng":99.823,"population":37000},{"id":1610227,"name":"Kantharalak","timezone":{"dstOffset":7,"gmtOffset":7,"timeZoneId":"Asia/Bangkok"},"lat":14.64056,"lng":104.64992,"population":36621},{"id":1151340,"name":"Photharam","timezone":{"dstOffset":7,"gmtOffset":7,"timeZoneId":"Asia/Bangkok"},"lat":13.69234,"lng":99.84969,"population":36248},{"id":1607725,"name":"Phichit","timezone":{"dstOffset":7,"gmtOffset":7,"timeZoneId":"Asia/Bangkok"},"lat":16.44184,"lng":100.34879,"population":35760},{"id":1610940,"name":"Det Udom","timezone":{"dstOffset":7,"gmtOffset":7,"timeZoneId":"Asia/Bangkok"},"lat":14.90598,"lng":105.07836,"population":35669},{"id":1614455,"name":"Ban Phai","timezone":{"dstOffset":7,"gmtOffset":7,"timeZoneId":"Asia/Bangkok"},"lat":16.05997,"lng":102.73097,"population":35583},{"id":1605677,"name":"Tha Bo","timezone":{"dstOffset":7,"gmtOffset":7,"timeZoneId":"Asia/Bangkok"},"lat":17.85003,"lng":102.58139,"population":35292},{"id":1609071,"name":"Loei","timezone":{"dstOffset":7,"gmtOffset":7,"timeZoneId":"Asia/Bangkok"},"lat":17.49052,"lng":101.72749,"population":35273},{"id":1606586,"name":"Samut Songkhram","timezone":{"dstOffset":7,"gmtOffset":7,"timeZoneId":"Asia/Bangkok"},"lat":13.41456,"lng":100.00264,"population":35065},{"id":1153035,"name":"Kathu","timezone":{"dstOffset":7,"gmtOffset":7,"timeZoneId":"Asia/Bangkok"},"lat":7.91779,"lng":98.33322,"population":34835},{"id":1621060,"name":"Amnat Charoen","timezone":{"dstOffset":7,"gmtOffset":7,"timeZoneId":"Asia/Bangkok"},"lat":15.85851,"lng":104.62883,"population":34769},{"id":1608531,"name":"Nakhon Phanom","timezone":{"dstOffset":7,"gmtOffset":7,"timeZoneId":"Asia/Bangkok"},"lat":17.41081,"lng":104.77856,"population":34595},{"id":1606376,"name":"Satun","timezone":{"dstOffset":7,"gmtOffset":7,"timeZoneId":"Asia/Bangkok"},"lat":6.62314,"lng":100.06676,"population":34544},{"id":1608269,"name":"Nong Bua Lamphu","timezone":{"dstOffset":7,"gmtOffset":7,"timeZoneId":"Asia/Bangkok"},"lat":17.20406,"lng":102.44068,"population":34401},{"id":7091912,"name":"Ban Ratsada","timezone":{"dstOffset":7,"gmtOffset":7,"timeZoneId":"Asia/Bangkok"},"lat":7.90963,"lng":98.40248,"population":33534},{"id":1151074,"name":"Prachuap Khiri Khan","timezone":{"dstOffset":7,"gmtOffset":7,"timeZoneId":"Asia/Bangkok"},"lat":11.82098,"lng":99.7841,"population":33521},{"id":1150732,"name":"San Kamphaeng","timezone":{"dstOffset":7,"gmtOffset":7,"timeZoneId":"Asia/Bangkok"},"lat":18.74486,"lng":99.11953,"population":32950},{"id":1607280,"name":"Prachin Buri","timezone":{"dstOffset":7,"gmtOffset":7,"timeZoneId":"Asia/Bangkok"},"lat":14.04992,"lng":101.36864,"population":32600},{"id":1152633,"name":"Krabi","timezone":{"dstOffset":7,"gmtOffset":7,"timeZoneId":"Asia/Bangkok"},"lat":8.07257,"lng":98.91052,"population":31219},{"id":1604452,"name":"Ban Khlong Bang Sao Thong","timezone":{"dstOffset":7,"gmtOffset":7,"timeZoneId":"Asia/Bangkok"},"lat":13.64172,"lng":100.83272,"population":31153},{"id":1604771,"name":"Yaring","timezone":{"dstOffset":7,"gmtOffset":7,"timeZoneId":"Asia/Bangkok"},"lat":6.86617,"lng":101.36894,"population":31111},{"id":1604654,"name":"Na Klang","timezone":{"dstOffset":7,"gmtOffset":7,"timeZoneId":"Asia/Bangkok"},"lat":17.3072,"lng":102.18886,"population":31024},{"id":1610503,"name":"Kaeng Khoi","timezone":{"dstOffset":7,"gmtOffset":7,"timeZoneId":"Asia/Bangkok"},"lat":14.58617,"lng":100.99758,"population":30332},{"id":1611635,"name":"Betong","timezone":{"dstOffset":7,"gmtOffset":7,"timeZoneId":"Asia/Bangkok"},"lat":5.77434,"lng":101.07231,"population":29604},{"id":1157683,"name":"Bang Phae","timezone":{"dstOffset":7,"gmtOffset":7,"timeZoneId":"Asia/Bangkok"},"lat":13.69157,"lng":99.92982,"population":29548},{"id":1614336,"name":"Ban Phan Don","timezone":{"dstOffset":7,"gmtOffset":7,"timeZoneId":"Asia/Bangkok"},"lat":17.14272,"lng":102.97261,"population":29211},{"id":1610505,"name":"Kaeng Khro","timezone":{"dstOffset":7,"gmtOffset":7,"timeZoneId":"Asia/Bangkok"},"lat":16.10864,"lng":102.25808,"population":29056},{"id":1948015,"name":"Amphoe Sikhiu","timezone":{"dstOffset":7,"gmtOffset":7,"timeZoneId":"Asia/Bangkok"},"lat":14.89944,"lng":101.70833,"population":28681},{"id":1606807,"name":"Sa Kaeo","timezone":{"dstOffset":7,"gmtOffset":7,"timeZoneId":"Asia/Bangkok"},"lat":13.81411,"lng":102.07222,"population":28497},{"id":1620919,"name":"Bang Bo District","timezone":{"dstOffset":7,"gmtOffset":7,"timeZoneId":"Asia/Bangkok"},"lat":13.58333,"lng":100.81667,"population":28376},{"id":1611453,"name":"Buriram","timezone":{"dstOffset":7,"gmtOffset":7,"timeZoneId":"Asia/Bangkok"},"lat":14.99433,"lng":103.10392,"population":28283},{"id":1150085,"name":"Thung Song","timezone":{"dstOffset":7,"gmtOffset":7,"timeZoneId":"Asia/Bangkok"},"lat":8.16453,"lng":99.68039,"population":28223},{"id":1620254,"name":"Ban Chang","timezone":{"dstOffset":7,"gmtOffset":7,"timeZoneId":"Asia/Bangkok"},"lat":12.72543,"lng":101.0553,"population":28204},{"id":1620875,"name":"Ban Bang Kadi Pathum Thani","timezone":{"dstOffset":7,"gmtOffset":7,"timeZoneId":"Asia/Bangkok"},"lat":13.99904,"lng":100.54962,"population":27911},{"id":1608191,"name":"Nong Phai","timezone":{"dstOffset":7,"gmtOffset":7,"timeZoneId":"Asia/Bangkok"},"lat":15.99025,"lng":101.06183,"population":27756},{"id":1152194,"name":"Mae Sai","timezone":{"dstOffset":7,"gmtOffset":7,"timeZoneId":"Asia/Bangkok"},"lat":20.43353,"lng":99.87617,"population":27520},{"id":1150246,"name":"Tha Muang","timezone":{"dstOffset":7,"gmtOffset":7,"timeZoneId":"Asia/Bangkok"},"lat":13.96118,"lng":99.64122,"population":26746},{"id":1150921,"name":"Ron Phibun","timezone":{"dstOffset":7,"gmtOffset":7,"timeZoneId":"Asia/Bangkok"},"lat":8.17911,"lng":99.85425,"population":26621},{"id":1620442,"name":"Ban Talat Bueng","timezone":{"dstOffset":7,"gmtOffset":7,"timeZoneId":"Asia/Bangkok"},"lat":13.07147,"lng":101.00314,"population":26113},{"id":1150624,"name":"Si Satchanalai","timezone":{"dstOffset":7,"gmtOffset":7,"timeZoneId":"Asia/Bangkok"},"lat":17.51692,"lng":99.75978,"population":25942},{"id":1151211,"name":"Phunphin","timezone":{"dstOffset":7,"gmtOffset":7,"timeZoneId":"Asia/Bangkok"},"lat":9.11072,"lng":99.23208,"population":25810},{"id":1619363,"name":"Bang Pakong","timezone":{"dstOffset":7,"gmtOffset":7,"timeZoneId":"Asia/Bangkok"},"lat":13.54297,"lng":100.99333,"population":25620},{"id":1611424,"name":"Chai Badan","timezone":{"dstOffset":7,"gmtOffset":7,"timeZoneId":"Asia/Bangkok"},"lat":15.2,"lng":101.13333,"population":25196},{"id":1608033,"name":"Pak Phanang","timezone":{"dstOffset":7,"gmtOffset":7,"timeZoneId":"Asia/Bangkok"},"lat":8.35109,"lng":100.20195,"population":25014},{"id":1609324,"name":"Kut Chap","timezone":{"dstOffset":7,"gmtOffset":7,"timeZoneId":"Asia/Bangkok"},"lat":17.4257,"lng":102.56692,"population":24696},{"id":1608452,"name":"Nan","timezone":{"dstOffset":7,"gmtOffset":7,"timeZoneId":"Asia/Bangkok"},"lat":18.78378,"lng":100.77899,"population":24670},{"id":1150965,"name":"Ranong","timezone":{"dstOffset":7,"gmtOffset":7,"timeZoneId":"Asia/Bangkok"},"lat":9.96583,"lng":98.63476,"population":24561},{"id":1607983,"name":"Pathum Thani","timezone":{"dstOffset":7,"gmtOffset":7,"timeZoneId":"Asia/Bangkok"},"lat":14.01346,"lng":100.53049,"population":24547},{"id":1150490,"name":"Tak","timezone":{"dstOffset":7,"gmtOffset":7,"timeZoneId":"Asia/Bangkok"},"lat":16.86968,"lng":99.12898,"population":24149},{"id":1153464,"name":"Dok Kham Tai","timezone":{"dstOffset":7,"gmtOffset":7,"timeZoneId":"Asia/Bangkok"},"lat":19.16242,"lng":99.99342,"population":23824},{"id":1620371,"name":"Ban Bueng","timezone":{"dstOffset":7,"gmtOffset":7,"timeZoneId":"Asia/Bangkok"},"lat":13.311,"lng":101.11214,"population":23509},{"id":1610459,"name":"Kamalasai","timezone":{"dstOffset":7,"gmtOffset":7,"timeZoneId":"Asia/Bangkok"},"lat":16.33839,"lng":103.57564,"population":23393},{"id":1117656,"name":"Ban Talat Nua","timezone":{"dstOffset":7,"gmtOffset":7,"timeZoneId":"Asia/Bangkok"},"lat":7.88489,"lng":98.38557,"population":23381},{"id":1611135,"name":"Chok Chai","timezone":{"dstOffset":7,"gmtOffset":7,"timeZoneId":"Asia/Bangkok"},"lat":14.72844,"lng":102.16524,"population":23337},{"id":1153513,"name":"Damnoen Saduak","timezone":{"dstOffset":7,"gmtOffset":7,"timeZoneId":"Asia/Bangkok"},"lat":13.51824,"lng":99.95469,"population":23296},{"id":1605601,"name":"Tha Mai","timezone":{"dstOffset":7,"gmtOffset":7,"timeZoneId":"Asia/Bangkok"},"lat":12.62137,"lng":102.0048,"population":22445},{"id":1605221,"name":"Uthai Thani","timezone":{"dstOffset":7,"gmtOffset":7,"timeZoneId":"Asia/Bangkok"},"lat":15.37939,"lng":100.0245,"population":22219},{"id":1608424,"name":"Nang Rong","timezone":{"dstOffset":7,"gmtOffset":7,"timeZoneId":"Asia/Bangkok"},"lat":14.6377,"lng":102.79138,"population":21961},{"id":1607838,"name":"Phanat Nikhom","timezone":{"dstOffset":7,"gmtOffset":7,"timeZoneId":"Asia/Bangkok"},"lat":13.44581,"lng":101.18445,"population":21924},{"id":1156046,"name":"Ban Na San","timezone":{"dstOffset":7,"gmtOffset":7,"timeZoneId":"Asia/Bangkok"},"lat":8.80036,"lng":99.36372,"population":21900},{"id":1605754,"name":"Taphan Hin","timezone":{"dstOffset":7,"gmtOffset":7,"timeZoneId":"Asia/Bangkok"},"lat":16.22094,"lng":100.41978,"population":21895},{"id":1152953,"name":"Khanu Woralaksaburi","timezone":{"dstOffset":7,"gmtOffset":7,"timeZoneId":"Asia/Bangkok"},"lat":16.0617,"lng":99.86058,"population":21889},{"id":1599640,"name":"Ban Nong Wua So","timezone":{"dstOffset":7,"gmtOffset":7,"timeZoneId":"Asia/Bangkok"},"lat":17.2675,"lng":103.22472,"population":21722},{"id":1604769,"name":"Yasothon","timezone":{"dstOffset":7,"gmtOffset":7,"timeZoneId":"Asia/Bangkok"},"lat":15.79408,"lng":104.1451,"population":21643},{"id":1605279,"name":"Trat","timezone":{"dstOffset":7,"gmtOffset":7,"timeZoneId":"Asia/Bangkok"},"lat":12.24364,"lng":102.51514,"population":21590},{"id":1608539,"name":"Nakhon Nayok","timezone":{"dstOffset":7,"gmtOffset":7,"timeZoneId":"Asia/Bangkok"},"lat":14.20463,"lng":101.21295,"population":21309},{"id":1151426,"name":"Phayao","timezone":{"dstOffset":7,"gmtOffset":7,"timeZoneId":"Asia/Bangkok"},"lat":19.19203,"lng":99.87883,"population":21058},{"id":1609345,"name":"Kuchinarai","timezone":{"dstOffset":7,"gmtOffset":7,"timeZoneId":"Asia/Bangkok"},"lat":16.541,"lng":104.05004,"population":20532},{"id":1619369,"name":"Bang Pa-in","timezone":{"dstOffset":7,"gmtOffset":7,"timeZoneId":"Asia/Bangkok"},"lat":14.22783,"lng":100.57589,"population":20484},{"id":1621020,"name":"Amphoe Aranyaprathet","timezone":{"dstOffset":7,"gmtOffset":7,"timeZoneId":"Asia/Bangkok"},"lat":13.69276,"lng":102.50128,"population":20236},{"id":1610538,"name":"Kabin Buri","timezone":{"dstOffset":7,"gmtOffset":7,"timeZoneId":"Asia/Bangkok"},"lat":13.95114,"lng":101.71769,"population":20212},{"id":1606270,"name":"Sing Buri","timezone":{"dstOffset":7,"gmtOffset":7,"timeZoneId":"Asia/Bangkok"},"lat":14.88786,"lng":100.40464,"population":20046},{"id":1607730,"name":"Phibun Mangsahan","timezone":{"dstOffset":7,"gmtOffset":7,"timeZoneId":"Asia/Bangkok"},"lat":15.24467,"lng":105.22908,"population":19883},{"id":1150681,"name":"Sawankhalok","timezone":{"dstOffset":7,"gmtOffset":7,"timeZoneId":"Asia/Bangkok"},"lat":17.31597,"lng":99.83186,"population":19805},{"id":1607068,"name":"Ranot","timezone":{"dstOffset":7,"gmtOffset":7,"timeZoneId":"Asia/Bangkok"},"lat":7.77768,"lng":100.32134,"population":19780},{"id":1117823,"name":"Sam Roi Yot","timezone":{"dstOffset":7,"gmtOffset":7,"timeZoneId":"Asia/Bangkok"},"lat":12.27081,"lng":99.87203,"population":19709},{"id":1619650,"name":"Ban Dung","timezone":{"dstOffset":7,"gmtOffset":7,"timeZoneId":"Asia/Bangkok"},"lat":17.699,"lng":103.25957,"population":19479},{"id":1607865,"name":"Phak Hai","timezone":{"dstOffset":7,"gmtOffset":7,"timeZoneId":"Asia/Bangkok"},"lat":14.45736,"lng":100.36989,"population":19386},{"id":1608462,"name":"Nam Som","timezone":{"dstOffset":7,"gmtOffset":7,"timeZoneId":"Asia/Bangkok"},"lat":17.77036,"lng":102.18947,"population":19324},{"id":1605018,"name":"Wiset Chaichan","timezone":{"dstOffset":7,"gmtOffset":7,"timeZoneId":"Asia/Bangkok"},"lat":14.5945,"lng":100.33825,"population":19129},{"id":1605509,"name":"Tha Ruea","timezone":{"dstOffset":7,"gmtOffset":7,"timeZoneId":"Asia/Bangkok"},"lat":14.56739,"lng":100.72598,"population":19116},{"id":1152562,"name":"Kui Buri","timezone":{"dstOffset":7,"gmtOffset":7,"timeZoneId":"Asia/Bangkok"},"lat":12.08283,"lng":99.85431,"population":19046},{"id":1619437,"name":"Bang Krathum","timezone":{"dstOffset":7,"gmtOffset":7,"timeZoneId":"Asia/Bangkok"},"lat":16.57831,"lng":100.30034,"population":18874},{"id":1607793,"name":"Phan Thong","timezone":{"dstOffset":7,"gmtOffset":7,"timeZoneId":"Asia/Bangkok"},"lat":13.46804,"lng":101.09532,"population":18708},{"id":1609795,"name":"Khon Buri","timezone":{"dstOffset":7,"gmtOffset":7,"timeZoneId":"Asia/Bangkok"},"lat":14.52541,"lng":102.24591,"population":18596},{"id":1610185,"name":"Kaset Wisai","timezone":{"dstOffset":7,"gmtOffset":7,"timeZoneId":"Asia/Bangkok"},"lat":15.65558,"lng":103.58361,"population":18569},{"id":1152919,"name":"Khao Yoi","timezone":{"dstOffset":7,"gmtOffset":7,"timeZoneId":"Asia/Bangkok"},"lat":13.24025,"lng":99.82428,"population":18506},{"id":1150154,"name":"Thoen","timezone":{"dstOffset":7,"gmtOffset":7,"timeZoneId":"Asia/Bangkok"},"lat":17.61289,"lng":99.21612,"population":18459},{"id":1608136,"name":"Non Sung","timezone":{"dstOffset":7,"gmtOffset":7,"timeZoneId":"Asia/Bangkok"},"lat":15.18014,"lng":102.25694,"population":18399},{"id":1154677,"name":"Ban Tak","timezone":{"dstOffset":7,"gmtOffset":7,"timeZoneId":"Asia/Bangkok"},"lat":17.04325,"lng":99.08128,"population":18384},{"id":7091861,"name":"Chalong","timezone":{"dstOffset":7,"gmtOffset":7,"timeZoneId":"Asia/Bangkok"},"lat":7.84468,"lng":98.33897,"population":18072},{"id":1153386,"name":"Hang Dong","timezone":{"dstOffset":7,"gmtOffset":7,"timeZoneId":"Asia/Bangkok"},"lat":18.68703,"lng":98.91939,"population":17931},{"id":1619415,"name":"Bang Len","timezone":{"dstOffset":7,"gmtOffset":7,"timeZoneId":"Asia/Bangkok"},"lat":14.02188,"lng":100.17183,"population":17914},{"id":1150728,"name":"San Pa Tong","timezone":{"dstOffset":7,"gmtOffset":7,"timeZoneId":"Asia/Bangkok"},"lat":18.62828,"lng":98.89572,"population":17773},{"id":1611106,"name":"Chon Daen","timezone":{"dstOffset":7,"gmtOffset":7,"timeZoneId":"Asia/Bangkok"},"lat":16.18953,"lng":100.85958,"population":17567},{"id":1152377,"name":"Lat Yao","timezone":{"dstOffset":7,"gmtOffset":7,"timeZoneId":"Asia/Bangkok"},"lat":15.751,"lng":99.78925,"population":17506},{"id":1613284,"name":"Ban Selaphum","timezone":{"dstOffset":7,"gmtOffset":7,"timeZoneId":"Asia/Bangkok"},"lat":16.01667,"lng":103.95,"population":17412},{"id":1152202,"name":"Mae Ramat","timezone":{"dstOffset":7,"gmtOffset":7,"timeZoneId":"Asia/Bangkok"},"lat":16.98403,"lng":98.51665,"population":17316},{"id":1609043,"name":"Lom Sak","timezone":{"dstOffset":7,"gmtOffset":7,"timeZoneId":"Asia/Bangkok"},"lat":16.77983,"lng":101.24225,"population":17309},{"id":1605957,"name":"Tak Bai","timezone":{"dstOffset":7,"gmtOffset":7,"timeZoneId":"Asia/Bangkok"},"lat":6.25947,"lng":102.05461,"population":17241},{"id":1607439,"name":"Phu Khiao","timezone":{"dstOffset":7,"gmtOffset":7,"timeZoneId":"Asia/Bangkok"},"lat":16.3765,"lng":102.12853,"population":17122},{"id":1610943,"name":"Den Chai","timezone":{"dstOffset":7,"gmtOffset":7,"timeZoneId":"Asia/Bangkok"},"lat":17.98372,"lng":100.05217,"population":17019},{"id":1595679,"name":"Nong Kung Si","timezone":{"dstOffset":7,"gmtOffset":7,"timeZoneId":"Asia/Bangkok"},"lat":16.65,"lng":103.3,"population":17001},{"id":1610187,"name":"Kaset Sombun","timezone":{"dstOffset":7,"gmtOffset":7,"timeZoneId":"Asia/Bangkok"},"lat":16.28053,"lng":101.95422,"population":16996},{"id":1607083,"name":"Ra-ngae","timezone":{"dstOffset":7,"gmtOffset":7,"timeZoneId":"Asia/Bangkok"},"lat":6.29678,"lng":101.72844,"population":16862},{"id":1619276,"name":"Bang Rakam","timezone":{"dstOffset":7,"gmtOffset":7,"timeZoneId":"Asia/Bangkok"},"lat":16.75847,"lng":100.11742,"population":16841},{"id":1611492,"name":"Bua Yai","timezone":{"dstOffset":7,"gmtOffset":7,"timeZoneId":"Asia/Bangkok"},"lat":15.58552,"lng":102.42587,"population":16832},{"id":1606350,"name":"Sawang Daen Din","timezone":{"dstOffset":7,"gmtOffset":7,"timeZoneId":"Asia/Bangkok"},"lat":17.47531,"lng":103.45753,"population":16825},{"id":1153850,"name":"Bo Phloi","timezone":{"dstOffset":7,"gmtOffset":7,"timeZoneId":"Asia/Bangkok"},"lat":14.32517,"lng":99.51467,"population":16786},{"id":1150210,"name":"Thap Than","timezone":{"dstOffset":7,"gmtOffset":7,"timeZoneId":"Asia/Bangkok"},"lat":15.46063,"lng":99.89166,"population":16615},{"id":1619616,"name":"Bang Ban","timezone":{"dstOffset":7,"gmtOffset":7,"timeZoneId":"Asia/Bangkok"},"lat":14.37394,"lng":100.48528,"population":16588},{"id":1153241,"name":"Huai Yot","timezone":{"dstOffset":7,"gmtOffset":7,"timeZoneId":"Asia/Bangkok"},"lat":7.78937,"lng":99.63469,"population":16586},{"id":1606343,"name":"Seka","timezone":{"dstOffset":7,"gmtOffset":7,"timeZoneId":"Asia/Bangkok"},"lat":17.92851,"lng":103.95519,"population":16493},{"id":1605119,"name":"Wang Nam Yen","timezone":{"dstOffset":7,"gmtOffset":7,"timeZoneId":"Asia/Bangkok"},"lat":13.50325,"lng":102.18115,"population":16299},{"id":1152432,"name":"Lang Suan","timezone":{"dstOffset":7,"gmtOffset":7,"timeZoneId":"Asia/Bangkok"},"lat":9.94561,"lng":99.07847,"population":16142},{"id":1607435,"name":"Phu Kradueng","timezone":{"dstOffset":7,"gmtOffset":7,"timeZoneId":"Asia/Bangkok"},"lat":16.88425,"lng":101.88467,"population":16079},{"id":1609278,"name":"Laem Sing","timezone":{"dstOffset":7,"gmtOffset":7,"timeZoneId":"Asia/Bangkok"},"lat":12.48164,"lng":102.07375,"population":16066},{"id":1607801,"name":"Phanom Sarakham","timezone":{"dstOffset":7,"gmtOffset":7,"timeZoneId":"Asia/Bangkok"},"lat":13.74787,"lng":101.3553,"population":16057},{"id":1616658,"name":"Ban Mo","timezone":{"dstOffset":7,"gmtOffset":7,"timeZoneId":"Asia/Bangkok"},"lat":14.61544,"lng":100.72731,"population":15959},{"id":1605118,"name":"Wang Noi","timezone":{"dstOffset":7,"gmtOffset":7,"timeZoneId":"Asia/Bangkok"},"lat":14.22689,"lng":100.7155,"population":15865},{"id":1605102,"name":"Wang Saphung","timezone":{"dstOffset":7,"gmtOffset":7,"timeZoneId":"Asia/Bangkok"},"lat":17.30097,"lng":101.7685,"population":15747},{"id":1619400,"name":"Bang Mun Nak","timezone":{"dstOffset":7,"gmtOffset":7,"timeZoneId":"Asia/Bangkok"},"lat":16.02781,"lng":100.37917,"population":15616},{"id":1151528,"name":"Pa Sang","timezone":{"dstOffset":7,"gmtOffset":7,"timeZoneId":"Asia/Bangkok"},"lat":18.52617,"lng":98.93936,"population":15607},{"id":1610963,"name":"Dan Khun Thot","timezone":{"dstOffset":7,"gmtOffset":7,"timeZoneId":"Asia/Bangkok"},"lat":15.2085,"lng":101.77138,"population":15580},{"id":1607257,"name":"Prakhon Chai","timezone":{"dstOffset":7,"gmtOffset":7,"timeZoneId":"Asia/Bangkok"},"lat":14.60592,"lng":103.12081,"population":15564},{"id":1605538,"name":"Thap Khlo","timezone":{"dstOffset":7,"gmtOffset":7,"timeZoneId":"Asia/Bangkok"},"lat":16.16003,"lng":100.59656,"population":15528},{"id":1611416,"name":"Chainat","timezone":{"dstOffset":7,"gmtOffset":7,"timeZoneId":"Asia/Bangkok"},"lat":15.18636,"lng":100.12353,"population":15469},{"id":1603235,"name":"Ban Huai Thalaeng","timezone":{"dstOffset":7,"gmtOffset":7,"timeZoneId":"Asia/Bangkok"},"lat":14.98333,"lng":102.65,"population":15352},{"id":1619281,"name":"Bang Racham","timezone":{"dstOffset":7,"gmtOffset":7,"timeZoneId":"Asia/Bangkok"},"lat":14.892,"lng":100.31728,"population":15313},{"id":1607615,"name":"Phon Charoen","timezone":{"dstOffset":7,"gmtOffset":7,"timeZoneId":"Asia/Bangkok"},"lat":18.03333,"lng":103.16667,"population":15208},{"id":1609990,"name":"Khao Wong","timezone":{"dstOffset":7,"gmtOffset":7,"timeZoneId":"Asia/Bangkok"},"lat":16.70008,"lng":104.0902,"population":15184},{"id":1153646,"name":"Chom Bueng","timezone":{"dstOffset":7,"gmtOffset":7,"timeZoneId":"Asia/Bangkok"},"lat":13.62,"lng":99.59169,"population":15143},{"id":1157662,"name":"Bang Saphan","timezone":{"dstOffset":7,"gmtOffset":7,"timeZoneId":"Asia/Bangkok"},"lat":11.21259,"lng":99.51167,"population":15134},{"id":1608541,"name":"Nakhon Luang","timezone":{"dstOffset":7,"gmtOffset":7,"timeZoneId":"Asia/Bangkok"},"lat":14.46281,"lng":100.60832,"population":15008},{"id":1620989,"name":"Bamnet Narong","timezone":{"dstOffset":7,"gmtOffset":7,"timeZoneId":"Asia/Bangkok"},"lat":15.50189,"lng":101.68982,"population":14890},{"id":6941772,"name":"Patong","timezone":{"dstOffset":7,"gmtOffset":7,"timeZoneId":"Asia/Bangkok"},"lat":7.89607,"lng":98.29661,"population":14797},{"id":1610911,"name":"Amphoe Doembang Nangbuat","timezone":{"dstOffset":7,"gmtOffset":7,"timeZoneId":"Asia/Bangkok"},"lat":14.83333,"lng":100.1,"population":14671},{"id":1607617,"name":"Phon","timezone":{"dstOffset":7,"gmtOffset":7,"timeZoneId":"Asia/Bangkok"},"lat":15.816,"lng":102.59981,"population":14596},{"id":1611197,"name":"Chiang Khong","timezone":{"dstOffset":7,"gmtOffset":7,"timeZoneId":"Asia/Bangkok"},"lat":20.26125,"lng":100.40461,"population":14505},{"id":1612722,"name":"Ban Thai Tan","timezone":{"dstOffset":7,"gmtOffset":7,"timeZoneId":"Asia/Bangkok"},"lat":14.62161,"lng":100.48739,"population":14430},{"id":1605483,"name":"That Phanom","timezone":{"dstOffset":7,"gmtOffset":7,"timeZoneId":"Asia/Bangkok"},"lat":16.93636,"lng":104.71039,"population":14424},{"id":1607324,"name":"Pong","timezone":{"dstOffset":7,"gmtOffset":7,"timeZoneId":"Asia/Bangkok"},"lat":19.14931,"lng":100.27522,"population":14392},{"id":1606040,"name":"Sung Noen","timezone":{"dstOffset":7,"gmtOffset":7,"timeZoneId":"Asia/Bangkok"},"lat":14.8992,"lng":101.82075,"population":14365},{"id":1606851,"name":"Sai Buri","timezone":{"dstOffset":7,"gmtOffset":7,"timeZoneId":"Asia/Bangkok"},"lat":6.70131,"lng":101.61675,"population":14356},{"id":1606047,"name":"Ban Su-ngai Pa Di","timezone":{"dstOffset":7,"gmtOffset":7,"timeZoneId":"Asia/Bangkok"},"lat":6.07239,"lng":101.87172,"population":14274},{"id":1608286,"name":"Nong Bua","timezone":{"dstOffset":7,"gmtOffset":7,"timeZoneId":"Asia/Bangkok"},"lat":15.86458,"lng":100.58581,"population":14160},{"id":1153072,"name":"Kantang","timezone":{"dstOffset":7,"gmtOffset":7,"timeZoneId":"Asia/Bangkok"},"lat":7.40542,"lng":99.51561,"population":14156},{"id":1606213,"name":"Soeng Sang","timezone":{"dstOffset":7,"gmtOffset":7,"timeZoneId":"Asia/Bangkok"},"lat":14.42642,"lng":102.46058,"population":14138},{"id":1611202,"name":"Chiang Kham","timezone":{"dstOffset":7,"gmtOffset":7,"timeZoneId":"Asia/Bangkok"},"lat":19.52331,"lng":100.3,"population":14092},{"id":1606316,"name":"Si Chiang Mai","timezone":{"dstOffset":7,"gmtOffset":7,"timeZoneId":"Asia/Bangkok"},"lat":17.95639,"lng":102.58667,"population":14068},{"id":1619198,"name":"Bang Yai","timezone":{"dstOffset":7,"gmtOffset":7,"timeZoneId":"Asia/Bangkok"},"lat":13.84341,"lng":100.36251,"population":14012},{"id":1152421,"name":"Lan Sak","timezone":{"dstOffset":7,"gmtOffset":7,"timeZoneId":"Asia/Bangkok"},"lat":15.45289,"lng":99.57606,"population":13905},{"id":1621035,"name":"Ang Thong","timezone":{"dstOffset":7,"gmtOffset":7,"timeZoneId":"Asia/Bangkok"},"lat":14.58839,"lng":100.45283,"population":13738},{"id":1607635,"name":"Pho Chai","timezone":{"dstOffset":7,"gmtOffset":7,"timeZoneId":"Asia/Bangkok"},"lat":16.32827,"lng":103.77033,"population":13671},{"id":1608068,"name":"Pa Daet","timezone":{"dstOffset":7,"gmtOffset":7,"timeZoneId":"Asia/Bangkok"},"lat":19.50489,"lng":99.99242,"population":13624},{"id":1155010,"name":"Rawai","timezone":{"dstOffset":7,"gmtOffset":7,"timeZoneId":"Asia/Bangkok"},"lat":7.77965,"lng":98.32532,"population":13623},{"id":1611578,"name":"Bo Rai","timezone":{"dstOffset":7,"gmtOffset":7,"timeZoneId":"Asia/Bangkok"},"lat":12.57283,"lng":102.53714,"population":13620},{"id":1608222,"name":"Nong Ki","timezone":{"dstOffset":7,"gmtOffset":7,"timeZoneId":"Asia/Bangkok"},"lat":14.68679,"lng":102.538,"population":13592},{"id":1619498,"name":"Bang Khla","timezone":{"dstOffset":7,"gmtOffset":7,"timeZoneId":"Asia/Bangkok"},"lat":13.72144,"lng":101.20814,"population":13528},{"id":1609430,"name":"Kranuan","timezone":{"dstOffset":7,"gmtOffset":7,"timeZoneId":"Asia/Bangkok"},"lat":16.70672,"lng":103.07878,"population":13475},{"id":1613534,"name":"Ban Sam Chuk","timezone":{"dstOffset":7,"gmtOffset":7,"timeZoneId":"Asia/Bangkok"},"lat":14.74219,"lng":100.09531,"population":13438},{"id":1604797,"name":"Yang Talat","timezone":{"dstOffset":7,"gmtOffset":7,"timeZoneId":"Asia/Bangkok"},"lat":16.39982,"lng":103.36785,"population":13360},{"id":1607600,"name":"Waeng","timezone":{"dstOffset":7,"gmtOffset":7,"timeZoneId":"Asia/Bangkok"},"lat":16.30006,"lng":103.97786,"population":13317},{"id":1609858,"name":"Khlung","timezone":{"dstOffset":7,"gmtOffset":7,"timeZoneId":"Asia/Bangkok"},"lat":12.45467,"lng":102.22142,"population":13286},{"id":1884830,"name":"Chaiyo","timezone":{"dstOffset":7,"gmtOffset":7,"timeZoneId":"Asia/Bangkok"},"lat":14.67639,"lng":100.46861,"population":13255},{"id":1611195,"name":"Chiang Klang","timezone":{"dstOffset":7,"gmtOffset":7,"timeZoneId":"Asia/Bangkok"},"lat":19.29378,"lng":100.8617,"population":13244},{"id":1607881,"name":"Phai Sali","timezone":{"dstOffset":7,"gmtOffset":7,"timeZoneId":"Asia/Bangkok"},"lat":15.60002,"lng":100.64937,"population":13088},{"id":1607716,"name":"Phimai","timezone":{"dstOffset":7,"gmtOffset":7,"timeZoneId":"Asia/Bangkok"},"lat":15.22324,"lng":102.49472,"population":13084},{"id":1608399,"name":"Na Wa","timezone":{"dstOffset":7,"gmtOffset":7,"timeZoneId":"Asia/Bangkok"},"lat":17.4897,"lng":104.10056,"population":12989},{"id":1606323,"name":"Si Bun Rueang","timezone":{"dstOffset":7,"gmtOffset":7,"timeZoneId":"Asia/Bangkok"},"lat":16.96705,"lng":102.27607,"population":12842},{"id":1153634,"name":"Chom Thong","timezone":{"dstOffset":7,"gmtOffset":7,"timeZoneId":"Asia/Bangkok"},"lat":18.41742,"lng":98.67428,"population":12488},{"id":1151446,"name":"Phanom Thuan","timezone":{"dstOffset":7,"gmtOffset":7,"timeZoneId":"Asia/Bangkok"},"lat":14.13031,"lng":99.69858,"population":12469},{"id":1116760,"name":"Don Sak","timezone":{"dstOffset":7,"gmtOffset":7,"timeZoneId":"Asia/Bangkok"},"lat":9.31676,"lng":99.69184,"population":12422},{"id":1610661,"name":"Huai Mek","timezone":{"dstOffset":7,"gmtOffset":7,"timeZoneId":"Asia/Bangkok"},"lat":16.58975,"lng":103.23547,"population":12352},{"id":1608524,"name":"Nakhon Thai","timezone":{"dstOffset":7,"gmtOffset":7,"timeZoneId":"Asia/Bangkok"},"lat":17.10056,"lng":100.83739,"population":12345},{"id":1600964,"name":"Ban Nam Yuen","timezone":{"dstOffset":7,"gmtOffset":7,"timeZoneId":"Asia/Bangkok"},"lat":9.87686,"lng":98.86592,"population":12335},{"id":1607752,"name":"Phayuha Khiri","timezone":{"dstOffset":7,"gmtOffset":7,"timeZoneId":"Asia/Bangkok"},"lat":15.45525,"lng":100.13533,"population":12271},{"id":1153783,"name":"Chaiya","timezone":{"dstOffset":7,"gmtOffset":7,"timeZoneId":"Asia/Bangkok"},"lat":9.38624,"lng":99.19861,"population":12223},{"id":1606017,"name":"Suwannaphum","timezone":{"dstOffset":7,"gmtOffset":7,"timeZoneId":"Asia/Bangkok"},"lat":15.60348,"lng":103.80207,"population":12221},{"id":1155525,"name":"Nuea Khlong","timezone":{"dstOffset":7,"gmtOffset":7,"timeZoneId":"Asia/Bangkok"},"lat":8.07144,"lng":98.99933,"population":12217},{"id":1607579,"name":"Pho Thong","timezone":{"dstOffset":7,"gmtOffset":7,"timeZoneId":"Asia/Bangkok"},"lat":14.66731,"lng":100.40878,"population":12200},{"id":1606983,"name":"Rong Kwang","timezone":{"dstOffset":7,"gmtOffset":7,"timeZoneId":"Asia/Bangkok"},"lat":18.33903,"lng":100.31736,"population":12087},{"id":1608131,"name":"Non Thai","timezone":{"dstOffset":7,"gmtOffset":7,"timeZoneId":"Asia/Bangkok"},"lat":15.1958,"lng":102.07145,"population":11959},{"id":1149878,"name":"Wiang Sa","timezone":{"dstOffset":7,"gmtOffset":7,"timeZoneId":"Asia/Bangkok"},"lat":8.63585,"lng":99.3666,"population":11933},{"id":6698658,"name":"Koh Pha Ngan","timezone":{"dstOffset":7,"gmtOffset":7,"timeZoneId":"Asia/Bangkok"},"lat":9.75778,"lng":100.02914,"population":11846},{"id":1608139,"name":"Non Sang","timezone":{"dstOffset":7,"gmtOffset":7,"timeZoneId":"Asia/Bangkok"},"lat":16.8687,"lng":102.56642,"population":11819},{"id":1152322,"name":"Long","timezone":{"dstOffset":7,"gmtOffset":7,"timeZoneId":"Asia/Bangkok"},"lat":18.07422,"lng":99.83073,"population":11802},{"id":1607544,"name":"Phrai Bueng","timezone":{"dstOffset":7,"gmtOffset":7,"timeZoneId":"Asia/Bangkok"},"lat":14.74833,"lng":104.36261,"population":11494},{"id":1606378,"name":"Satuek","timezone":{"dstOffset":7,"gmtOffset":7,"timeZoneId":"Asia/Bangkok"},"lat":15.29703,"lng":103.29192,"population":11481},{"id":1608263,"name":"Nong Chik","timezone":{"dstOffset":7,"gmtOffset":7,"timeZoneId":"Asia/Bangkok"},"lat":6.84356,"lng":101.17803,"population":11385},{"id":1152876,"name":"Khiri Mat","timezone":{"dstOffset":7,"gmtOffset":7,"timeZoneId":"Asia/Bangkok"},"lat":16.83333,"lng":99.8,"population":11272},{"id":1610072,"name":"Kham Sakae Saeng","timezone":{"dstOffset":7,"gmtOffset":7,"timeZoneId":"Asia/Bangkok"},"lat":15.33221,"lng":102.17278,"population":11018},{"id":1153686,"name":"Chawang","timezone":{"dstOffset":7,"gmtOffset":7,"timeZoneId":"Asia/Bangkok"},"lat":8.42614,"lng":99.50472,"population":10923},{"id":1609476,"name":"Kosum Phisai","timezone":{"dstOffset":7,"gmtOffset":7,"timeZoneId":"Asia/Bangkok"},"lat":16.24858,"lng":103.06739,"population":10672},{"id":1607763,"name":"Phayakkhaphum Phisai","timezone":{"dstOffset":7,"gmtOffset":7,"timeZoneId":"Asia/Bangkok"},"lat":15.51631,"lng":103.19367,"population":10212},{"id":1605072,"name":"Wapi Pathum","timezone":{"dstOffset":7,"gmtOffset":7,"timeZoneId":"Asia/Bangkok"},"lat":15.84523,"lng":103.37678,"population":10198},{"id":1156836,"name":"Ko Kaeo","timezone":{"dstOffset":7,"gmtOffset":7,"timeZoneId":"Asia/Bangkok"},"lat":7.93599,"lng":98.39664,"population":10136},{"id":1152180,"name":"Mae Tha","timezone":{"dstOffset":7,"gmtOffset":7,"timeZoneId":"Asia/Bangkok"},"lat":18.46456,"lng":99.14026,"population":10048},{"id":1150735,"name":"Sangkhla Buri","timezone":{"dstOffset":7,"gmtOffset":7,"timeZoneId":"Asia/Bangkok"},"lat":15.15553,"lng":98.45361,"population":10000},{"id":1611475,"name":"Bueng Kan","timezone":{"dstOffset":7,"gmtOffset":7,"timeZoneId":"Asia/Bangkok"},"lat":18.36304,"lng":103.65194,"population":9712},{"id":1151464,"name":"Phang Nga","timezone":{"dstOffset":7,"gmtOffset":7,"timeZoneId":"Asia/Bangkok"},"lat":8.4509,"lng":98.52985,"population":9676},{"id":1158412,"name":"Ao Luek","timezone":{"dstOffset":7,"gmtOffset":7,"timeZoneId":"Asia/Bangkok"},"lat":8.37803,"lng":98.72117,"population":9628},{"id":1152222,"name":"Mae Hong Son","timezone":{"dstOffset":7,"gmtOffset":7,"timeZoneId":"Asia/Bangkok"},"lat":19.30029,"lng":97.96852,"population":9109},{"id":1605156,"name":"Wang Sai Phun","timezone":{"dstOffset":7,"gmtOffset":7,"timeZoneId":"Asia/Bangkok"},"lat":16.3885,"lng":100.53801,"population":8899},{"id":1607306,"name":"Pong Nam Ron","timezone":{"dstOffset":7,"gmtOffset":7,"timeZoneId":"Asia/Bangkok"},"lat":12.90575,"lng":102.26225,"population":8878},{"id":1619391,"name":"Bang Nam Priao","timezone":{"dstOffset":7,"gmtOffset":7,"timeZoneId":"Asia/Bangkok"},"lat":13.84739,"lng":101.05306,"population":8642},{"id":1158377,"name":"Ao Nang","timezone":{"dstOffset":7,"gmtOffset":7,"timeZoneId":"Asia/Bangkok"},"lat":8.0458,"lng":98.81035,"population":8000},{"id":6691842,"name":"Ban Saladan","timezone":{"dstOffset":7,"gmtOffset":7,"timeZoneId":"Asia/Bangkok"},"lat":7.61342,"lng":99.03651,"population":7946},{"id":1613294,"name":"Sawang Wirawong","timezone":{"dstOffset":7,"gmtOffset":7,"timeZoneId":"Asia/Bangkok"},"lat":15.24158,"lng":105.0922,"population":7773},{"id":1153427,"name":"Fang","timezone":{"dstOffset":7,"gmtOffset":7,"timeZoneId":"Asia/Bangkok"},"lat":19.91689,"lng":99.2145,"population":7635},{"id":1152423,"name":"Lan Krabue","timezone":{"dstOffset":7,"gmtOffset":7,"timeZoneId":"Asia/Bangkok"},"lat":16.60003,"lng":99.84889,"population":7633},{"id":1600983,"name":"Na Mom","timezone":{"dstOffset":7,"gmtOffset":7,"timeZoneId":"Asia/Bangkok"},"lat":6.95856,"lng":100.55683,"population":7537},{"id":1599641,"name":"Nong Wua So","timezone":{"dstOffset":7,"gmtOffset":7,"timeZoneId":"Asia/Bangkok"},"lat":17.16261,"lng":102.57272,"population":7503},{"id":1117557,"name":"Tham Phannara","timezone":{"dstOffset":7,"gmtOffset":7,"timeZoneId":"Asia/Bangkok"},"lat":8.42044,"lng":99.39517,"population":7119},{"id":1157249,"name":"Ban Karon","timezone":{"dstOffset":7,"gmtOffset":7,"timeZoneId":"Asia/Bangkok"},"lat":7.84769,"lng":98.2985,"population":7094},{"id":7302488,"name":"Pa Pae","timezone":{"dstOffset":7,"gmtOffset":7,"timeZoneId":"Asia/Bangkok"},"lat":18.2569,"lng":98.04903,"population":6291},{"id":1153788,"name":"Chai Buri","timezone":{"dstOffset":7,"gmtOffset":7,"timeZoneId":"Asia/Bangkok"},"lat":8.46222,"lng":99.07631,"population":6126},{"id":1152670,"name":"Ko Lanta Yai","timezone":{"dstOffset":7,"gmtOffset":7,"timeZoneId":"Asia/Bangkok"},"lat":7.53362,"lng":99.08647,"population":6090},{"id":1153263,"name":"Huai Khot","timezone":{"dstOffset":7,"gmtOffset":7,"timeZoneId":"Asia/Bangkok"},"lat":15.29094,"lng":99.61661,"population":5940},{"id":1157969,"name":"Ban Dan Lan Hoi","timezone":{"dstOffset":7,"gmtOffset":7,"timeZoneId":"Asia/Bangkok"},"lat":17.00683,"lng":99.57497,"population":5791},{"id":1155231,"name":"Ban Phru Nai","timezone":{"dstOffset":7,"gmtOffset":7,"timeZoneId":"Asia/Bangkok"},"lat":7.95458,"lng":98.58989,"population":5713},{"id":1608725,"name":"Moeiwadi","timezone":{"dstOffset":7,"gmtOffset":7,"timeZoneId":"Asia/Bangkok"},"lat":16.38944,"lng":104.1572,"population":5609},{"id":1149700,"name":"Mae Chai","timezone":{"dstOffset":7,"gmtOffset":7,"timeZoneId":"Asia/Bangkok"},"lat":19.34597,"lng":99.814,"population":5094},{"id":1610211,"name":"Kao Liao","timezone":{"dstOffset":7,"gmtOffset":7,"timeZoneId":"Asia/Bangkok"},"lat":15.85053,"lng":100.07914,"population":4988},{"id":1620390,"name":"Bueng Na Rang","timezone":{"dstOffset":7,"gmtOffset":7,"timeZoneId":"Asia/Bangkok"},"lat":16.1712,"lng":100.12531,"population":4948},{"id":7302494,"name":"Nai Harn","timezone":{"dstOffset":7,"gmtOffset":7,"timeZoneId":"Asia/Bangkok"},"lat":7.77859,"lng":98.30661,"population":4767},{"id":1611235,"name":"Chat Trakan","timezone":{"dstOffset":7,"gmtOffset":7,"timeZoneId":"Asia/Bangkok"},"lat":17.27606,"lng":100.60022,"population":4608},{"id":1607161,"name":"Pueai Noi","timezone":{"dstOffset":7,"gmtOffset":7,"timeZoneId":"Asia/Bangkok"},"lat":15.86978,"lng":102.90767,"population":4468},{"id":1606536,"name":"Sangkhom","timezone":{"dstOffset":7,"gmtOffset":7,"timeZoneId":"Asia/Bangkok"},"lat":18.06389,"lng":102.27364,"population":3846},{"id":1618294,"name":"Khlong Khuean","timezone":{"dstOffset":7,"gmtOffset":7,"timeZoneId":"Asia/Bangkok"},"lat":13.79131,"lng":101.16353,"population":3703},{"id":7280459,"name":"Ko Chang Tai","timezone":{"dstOffset":7,"gmtOffset":7,"timeZoneId":"Asia/Bangkok"},"lat":12.00171,"lng":102.37267,"population":2346},{"id":1151601,"name":"Pai","timezone":{"dstOffset":7,"gmtOffset":7,"timeZoneId":"Asia/Bangkok"},"lat":19.36168,"lng":98.43973,"population":2284},{"id":1617483,"name":"Ban Ko Lan","timezone":{"dstOffset":7,"gmtOffset":7,"timeZoneId":"Asia/Bangkok"},"lat":12.9242,"lng":100.78794,"population":2000},{"id":1157190,"name":"Khao Lak","timezone":{"dstOffset":7,"gmtOffset":7,"timeZoneId":"Asia/Bangkok"},"lat":8.61502,"lng":98.23994,"population":1700},{"id":6698659,"name":"Koh Tao","timezone":{"dstOffset":7,"gmtOffset":7,"timeZoneId":"Asia/Bangkok"},"lat":10.09808,"lng":99.83809,"population":1382},{"id":1612772,"name":"Ban Thaen","timezone":{"dstOffset":7,"gmtOffset":7,"timeZoneId":"Asia/Bangkok"},"lat":16.40506,"lng":102.34239,"population":0},{"id":1613174,"name":"Song Khwae","timezone":{"dstOffset":7,"gmtOffset":7,"timeZoneId":"Asia/Bangkok"},"lat":19.35964,"lng":100.70042,"population":0},{"id":1613409,"name":"Ban Sang","timezone":{"dstOffset":7,"gmtOffset":7,"timeZoneId":"Asia/Bangkok"},"lat":13.99503,"lng":101.22094,"population":0},{"id":1613759,"name":"Ratchasan","timezone":{"dstOffset":7,"gmtOffset":7,"timeZoneId":"Asia/Bangkok"},"lat":13.78211,"lng":101.28133,"population":0},{"id":1614050,"name":"Ban Phue","timezone":{"dstOffset":7,"gmtOffset":7,"timeZoneId":"Asia/Bangkok"},"lat":17.68877,"lng":102.47878,"population":0},{"id":1614108,"name":"Ban Phraek","timezone":{"dstOffset":7,"gmtOffset":7,"timeZoneId":"Asia/Bangkok"},"lat":14.64681,"lng":100.57617,"population":0},{"id":1614240,"name":"Ban Pho","timezone":{"dstOffset":7,"gmtOffset":7,"timeZoneId":"Asia/Bangkok"},"lat":13.59864,"lng":101.07956,"population":0},{"id":1614469,"name":"Ban Phaeng","timezone":{"dstOffset":7,"gmtOffset":7,"timeZoneId":"Asia/Bangkok"},"lat":17.96507,"lng":104.21534,"population":0},{"id":1614696,"name":"Pak Chom","timezone":{"dstOffset":7,"gmtOffset":7,"timeZoneId":"Asia/Bangkok"},"lat":18.02061,"lng":101.89828,"population":0},{"id":1615380,"name":"Nong Muang Khai","timezone":{"dstOffset":7,"gmtOffset":7,"timeZoneId":"Asia/Bangkok"},"lat":18.26464,"lng":100.18967,"population":0},{"id":1615758,"name":"Nong Don","timezone":{"dstOffset":7,"gmtOffset":7,"timeZoneId":"Asia/Bangkok"},"lat":14.68488,"lng":100.7094,"population":0},{"id":1616060,"name":"Na Yia","timezone":{"dstOffset":7,"gmtOffset":7,"timeZoneId":"Asia/Bangkok"},"lat":15.06367,"lng":105.05994,"population":0},{"id":1616066,"name":"Na Yai Am","timezone":{"dstOffset":7,"gmtOffset":7,"timeZoneId":"Asia/Bangkok"},"lat":12.78153,"lng":101.82256,"population":0},{"id":1616090,"name":"Na Thom","timezone":{"dstOffset":7,"gmtOffset":7,"timeZoneId":"Asia/Bangkok"},"lat":17.78491,"lng":104.09082,"population":0},{"id":1616198,"name":"Ban Nang Sata","timezone":{"dstOffset":7,"gmtOffset":7,"timeZoneId":"Asia/Bangkok"},"lat":6.26638,"lng":101.26461,"population":0},{"id":1616379,"name":"Na Khu","timezone":{"dstOffset":7,"gmtOffset":7,"timeZoneId":"Asia/Bangkok"},"lat":16.76384,"lng":104.02626,"population":0},{"id":1616445,"name":"Na Haeo","timezone":{"dstOffset":7,"gmtOffset":7,"timeZoneId":"Asia/Bangkok"},"lat":17.48536,"lng":101.06808,"population":0},{"id":1616464,"name":"Na Di","timezone":{"dstOffset":7,"gmtOffset":7,"timeZoneId":"Asia/Bangkok"},"lat":14.11517,"lng":101.78189,"population":0},{"id":1616503,"name":"Ban Na","timezone":{"dstOffset":7,"gmtOffset":7,"timeZoneId":"Asia/Bangkok"},"lat":14.26238,"lng":101.07111,"population":0},{"id":1616609,"name":"Ban Muang","timezone":{"dstOffset":7,"gmtOffset":7,"timeZoneId":"Asia/Bangkok"},"lat":17.8508,"lng":103.56939,"population":0},{"id":1616631,"name":"Muak Lek","timezone":{"dstOffset":7,"gmtOffset":7,"timeZoneId":"Asia/Bangkok"},"lat":14.65287,"lng":101.20022,"population":0},{"id":1616665,"name":"Ban Mi","timezone":{"dstOffset":7,"gmtOffset":7,"timeZoneId":"Asia/Bangkok"},"lat":15.04428,"lng":100.53681,"population":0},{"id":1616888,"name":"Mae Lan","timezone":{"dstOffset":7,"gmtOffset":7,"timeZoneId":"Asia/Bangkok"},"lat":6.66114,"lng":101.23958,"population":0},{"id":1616933,"name":"Chiang Muan","timezone":{"dstOffset":7,"gmtOffset":7,"timeZoneId":"Asia/Bangkok"},"lat":18.88969,"lng":100.30589,"population":0},{"id":1616934,"name":"Ban Luang","timezone":{"dstOffset":7,"gmtOffset":7,"timeZoneId":"Asia/Bangkok"},"lat":18.84969,"lng":100.43725,"population":0},{"id":1616940,"name":"Ban Lueam","timezone":{"dstOffset":7,"gmtOffset":7,"timeZoneId":"Asia/Bangkok"},"lat":15.60916,"lng":102.12928,"population":0},{"id":1617033,"name":"Lao Suea Kok","timezone":{"dstOffset":7,"gmtOffset":7,"timeZoneId":"Asia/Bangkok"},"lat":15.4183,"lng":104.92363,"population":0},{"id":1617266,"name":"Kut Rang","timezone":{"dstOffset":7,"gmtOffset":7,"timeZoneId":"Asia/Bangkok"},"lat":16.09398,"lng":103.00998,"population":0},{"id":1617331,"name":"Ban Kruat","timezone":{"dstOffset":7,"gmtOffset":7,"timeZoneId":"Asia/Bangkok"},"lat":14.42313,"lng":103.09974,"population":0},{"id":1617625,"name":"Ban Khwao","timezone":{"dstOffset":7,"gmtOffset":7,"timeZoneId":"Asia/Bangkok"},"lat":15.77772,"lng":101.9072,"population":0},{"id":1617816,"name":"Khok Sung","timezone":{"dstOffset":7,"gmtOffset":7,"timeZoneId":"Asia/Bangkok"},"lat":13.83824,"lng":102.62254,"population":0},{"id":1618002,"name":"Ban Khok","timezone":{"dstOffset":7,"gmtOffset":7,"timeZoneId":"Asia/Bangkok"},"lat":18.02614,"lng":101.06772,"population":0},{"id":1595207,"name":"Sa Bot","timezone":{"dstOffset":7,"gmtOffset":7,"timeZoneId":"Asia/Bangkok"},"lat":15.21006,"lng":100.83076,"population":0},{"id":1595484,"name":"Phatthana Nikhom","timezone":{"dstOffset":7,"gmtOffset":7,"timeZoneId":"Asia/Bangkok"},"lat":14.85646,"lng":100.98459,"population":0},{"id":1595865,"name":"Na Dun","timezone":{"dstOffset":7,"gmtOffset":7,"timeZoneId":"Asia/Bangkok"},"lat":15.71668,"lng":103.22781,"population":0},{"id":1596216,"name":"Ko Pha-Ngan","timezone":{"dstOffset":7,"gmtOffset":7,"timeZoneId":"Asia/Bangkok"},"lat":9.71945,"lng":99.99511,"population":0},{"id":1597130,"name":"Yang Si Surat","timezone":{"dstOffset":7,"gmtOffset":7,"timeZoneId":"Asia/Bangkok"},"lat":15.68361,"lng":103.10311,"population":0},{"id":1597163,"name":"Mueang Yang","timezone":{"dstOffset":7,"gmtOffset":7,"timeZoneId":"Asia/Bangkok"},"lat":15.4206,"lng":102.89282,"population":0},{"id":1598222,"name":"Siao","timezone":{"dstOffset":7,"gmtOffset":7,"timeZoneId":"Asia/Bangkok"},"lat":14.79583,"lng":104.67017,"population":0},{"id":1598417,"name":"Samran","timezone":{"dstOffset":7,"gmtOffset":7,"timeZoneId":"Asia/Bangkok"},"lat":16.86322,"lng":103.54106,"population":0},{"id":1598434,"name":"Thepharak","timezone":{"dstOffset":7,"gmtOffset":7,"timeZoneId":"Asia/Bangkok"},"lat":15.30868,"lng":101.55045,"population":0},{"id":1598503,"name":"Sak Lek","timezone":{"dstOffset":7,"gmtOffset":7,"timeZoneId":"Asia/Bangkok"},"lat":16.50528,"lng":100.47103,"population":0},{"id":1599042,"name":"Phayu","timezone":{"dstOffset":7,"gmtOffset":7,"timeZoneId":"Asia/Bangkok"},"lat":14.90851,"lng":104.391,"population":0},{"id":1599114,"name":"Pha Khao","timezone":{"dstOffset":7,"gmtOffset":7,"timeZoneId":"Asia/Bangkok"},"lat":17.06507,"lng":102.02965,"population":0},{"id":1599410,"name":"Non Suwan","timezone":{"dstOffset":7,"gmtOffset":7,"timeZoneId":"Asia/Bangkok"},"lat":14.58044,"lng":102.59689,"population":0},{"id":1600104,"name":"Nong Na Kham","timezone":{"dstOffset":7,"gmtOffset":7,"timeZoneId":"Asia/Bangkok"},"lat":16.8043,"lng":102.33647,"population":0},{"id":1600129,"name":"Nong Muang","timezone":{"dstOffset":7,"gmtOffset":7,"timeZoneId":"Asia/Bangkok"},"lat":15.24592,"lng":100.65556,"population":0},{"id":1600435,"name":"Nong Hin","timezone":{"dstOffset":7,"gmtOffset":7,"timeZoneId":"Asia/Bangkok"},"lat":17.12356,"lng":101.85789,"population":0},{"id":1600444,"name":"Nong Hi","timezone":{"dstOffset":7,"gmtOffset":7,"timeZoneId":"Asia/Bangkok"},"lat":15.61117,"lng":103.99484,"population":0},{"id":1600752,"name":"Na Yung","timezone":{"dstOffset":7,"gmtOffset":7,"timeZoneId":"Asia/Bangkok"},"lat":17.89747,"lng":102.14981,"population":0},{"id":1600814,"name":"Na Tan","timezone":{"dstOffset":7,"gmtOffset":7,"timeZoneId":"Asia/Bangkok"},"lat":15.89749,"lng":105.29318,"population":0},{"id":1601446,"name":"Mueang Chan","timezone":{"dstOffset":7,"gmtOffset":7,"timeZoneId":"Asia/Bangkok"},"lat":15.15951,"lng":104.03615,"population":0},{"id":1601787,"name":"Lam Sonthi","timezone":{"dstOffset":7,"gmtOffset":7,"timeZoneId":"Asia/Bangkok"},"lat":15.30154,"lng":101.36365,"population":0},{"id":1603291,"name":"Huai Rat","timezone":{"dstOffset":7,"gmtOffset":7,"timeZoneId":"Asia/Bangkok"},"lat":14.96039,"lng":103.18911,"population":0},{"id":1603642,"name":"Ban Haet","timezone":{"dstOffset":7,"gmtOffset":7,"timeZoneId":"Asia/Bangkok"},"lat":16.19648,"lng":102.75959,"population":0},{"id":1603666,"name":"Fao Rai","timezone":{"dstOffset":7,"gmtOffset":7,"timeZoneId":"Asia/Bangkok"},"lat":18.01792,"lng":103.30388,"population":0},{"id":1604060,"name":"Ban Dan","timezone":{"dstOffset":7,"gmtOffset":7,"timeZoneId":"Asia/Bangkok"},"lat":15.10839,"lng":103.17551,"population":0},{"id":1604194,"name":"Charoen Sin","timezone":{"dstOffset":7,"gmtOffset":7,"timeZoneId":"Asia/Bangkok"},"lat":17.57925,"lng":103.54033,"population":0},{"id":1604597,"name":"Waeng","timezone":{"dstOffset":7,"gmtOffset":7,"timeZoneId":"Asia/Bangkok"},"lat":5.928,"lng":101.88382,"population":0},{"id":1604600,"name":"Thepha","timezone":{"dstOffset":7,"gmtOffset":7,"timeZoneId":"Asia/Bangkok"},"lat":6.82936,"lng":100.96431,"population":0},{"id":1604606,"name":"Tak Fa","timezone":{"dstOffset":7,"gmtOffset":7,"timeZoneId":"Asia/Bangkok"},"lat":15.34917,"lng":100.49522,"population":0},{"id":1604632,"name":"Prakhon Chai","timezone":{"dstOffset":7,"gmtOffset":7,"timeZoneId":"Asia/Bangkok"},"lat":14.61073,"lng":103.07923,"population":0},{"id":1604710,"name":"Bacho","timezone":{"dstOffset":7,"gmtOffset":7,"timeZoneId":"Asia/Bangkok"},"lat":6.51678,"lng":101.651,"population":0},{"id":1604761,"name":"Yi-ngo","timezone":{"dstOffset":7,"gmtOffset":7,"timeZoneId":"Asia/Bangkok"},"lat":6.40296,"lng":101.70626,"population":0},{"id":1604792,"name":"Yan Nawa","timezone":{"dstOffset":7,"gmtOffset":7,"timeZoneId":"Asia/Bangkok"},"lat":13.69634,"lng":100.54212,"population":0},{"id":1604807,"name":"Yang Chum Noi","timezone":{"dstOffset":7,"gmtOffset":7,"timeZoneId":"Asia/Bangkok"},"lat":15.26453,"lng":104.39769,"population":0},{"id":1604863,"name":"Yarang","timezone":{"dstOffset":7,"gmtOffset":7,"timeZoneId":"Asia/Bangkok"},"lat":6.75986,"lng":101.29339,"population":0},{"id":1604979,"name":"Yaha","timezone":{"dstOffset":7,"gmtOffset":7,"timeZoneId":"Asia/Bangkok"},"lat":6.4797,"lng":101.132,"population":0},{"id":1605022,"name":"Wihan Daeng","timezone":{"dstOffset":7,"gmtOffset":7,"timeZoneId":"Asia/Bangkok"},"lat":14.34586,"lng":100.98942,"population":0},{"id":1605026,"name":"Wiang Sa","timezone":{"dstOffset":7,"gmtOffset":7,"timeZoneId":"Asia/Bangkok"},"lat":18.59856,"lng":100.74103,"population":0},{"id":1605043,"name":"Watthana Nakhon","timezone":{"dstOffset":7,"gmtOffset":7,"timeZoneId":"Asia/Bangkok"},"lat":13.74462,"lng":102.31863,"population":0},{"id":1605048,"name":"Wat Sing","timezone":{"dstOffset":7,"gmtOffset":7,"timeZoneId":"Asia/Bangkok"},"lat":15.25987,"lng":100.0404,"population":0},{"id":1605062,"name":"Wat Bot","timezone":{"dstOffset":7,"gmtOffset":7,"timeZoneId":"Asia/Bangkok"},"lat":16.98114,"lng":100.33194,"population":0},{"id":1605070,"name":"Warichaphum","timezone":{"dstOffset":7,"gmtOffset":7,"timeZoneId":"Asia/Bangkok"},"lat":17.29409,"lng":103.63816,"population":0},{"id":1605074,"name":"Wan Yai","timezone":{"dstOffset":7,"gmtOffset":7,"timeZoneId":"Asia/Bangkok"},"lat":16.72229,"lng":104.74136,"population":0},{"id":1605076,"name":"Wanon Niwat","timezone":{"dstOffset":7,"gmtOffset":7,"timeZoneId":"Asia/Bangkok"},"lat":17.63391,"lng":103.75241,"population":0},{"id":1605092,"name":"Wang Thong","timezone":{"dstOffset":7,"gmtOffset":7,"timeZoneId":"Asia/Bangkok"},"lat":16.82458,"lng":100.42936,"population":0},{"id":1605104,"name":"Wang Sam Mo","timezone":{"dstOffset":7,"gmtOffset":7,"timeZoneId":"Asia/Bangkok"},"lat":16.95294,"lng":103.4365,"population":0},{"id":1605145,"name":"Wang Hin","timezone":{"dstOffset":7,"gmtOffset":7,"timeZoneId":"Asia/Bangkok"},"lat":14.94783,"lng":104.23097,"population":0},{"id":1605149,"name":"Wang Chan","timezone":{"dstOffset":7,"gmtOffset":7,"timeZoneId":"Asia/Bangkok"},"lat":12.93646,"lng":101.52303,"population":0},{"id":1605176,"name":"Waeng Yai","timezone":{"dstOffset":7,"gmtOffset":7,"timeZoneId":"Asia/Bangkok"},"lat":15.95547,"lng":102.5469,"population":0},{"id":1605179,"name":"Waeng Noi","timezone":{"dstOffset":7,"gmtOffset":7,"timeZoneId":"Asia/Bangkok"},"lat":15.8035,"lng":102.41614,"population":0},{"id":1605219,"name":"Uthumphon Phisai","timezone":{"dstOffset":7,"gmtOffset":7,"timeZoneId":"Asia/Bangkok"},"lat":15.11161,"lng":104.14011,"population":0},{"id":1605223,"name":"Uthai","timezone":{"dstOffset":7,"gmtOffset":7,"timeZoneId":"Asia/Bangkok"},"lat":14.36278,"lng":100.67203,"population":0},{"id":1605248,"name":"Khuean Ubonrat","timezone":{"dstOffset":7,"gmtOffset":7,"timeZoneId":"Asia/Bangkok"},"lat":16.7527,"lng":102.63244,"population":0},{"id":1605268,"name":"Tron","timezone":{"dstOffset":7,"gmtOffset":7,"timeZoneId":"Asia/Bangkok"},"lat":17.48181,"lng":100.11281,"population":0},{"id":1605281,"name":"Trakan Phut Phon","timezone":{"dstOffset":7,"gmtOffset":7,"timeZoneId":"Asia/Bangkok"},"lat":15.61183,"lng":105.02147,"population":0},{"id":1605355,"name":"Thung Fon","timezone":{"dstOffset":7,"gmtOffset":7,"timeZoneId":"Asia/Bangkok"},"lat":17.47167,"lng":103.26033,"population":0},{"id":1605403,"name":"Thon Buri","timezone":{"dstOffset":7,"gmtOffset":7,"timeZoneId":"Asia/Bangkok"},"lat":13.725,"lng":100.48512,"population":0},{"id":1605409,"name":"Thoeng","timezone":{"dstOffset":7,"gmtOffset":7,"timeZoneId":"Asia/Bangkok"},"lat":19.68508,"lng":100.19456,"population":0},{"id":1605451,"name":"Thep Sathit","timezone":{"dstOffset":7,"gmtOffset":7,"timeZoneId":"Asia/Bangkok"},"lat":15.39247,"lng":101.45061,"population":0},{"id":1605469,"name":"Tha Wung","timezone":{"dstOffset":7,"gmtOffset":7,"timeZoneId":"Asia/Bangkok"},"lat":14.811,"lng":100.50333,"population":0},{"id":1605473,"name":"Thawat Buri","timezone":{"dstOffset":7,"gmtOffset":7,"timeZoneId":"Asia/Bangkok"},"lat":16.0385,"lng":103.74647,"population":0},{"id":1605475,"name":"Tha Wang Pha","timezone":{"dstOffset":7,"gmtOffset":7,"timeZoneId":"Asia/Bangkok"},"lat":19.12189,"lng":100.81106,"population":0},{"id":1605479,"name":"Tha Uthen","timezone":{"dstOffset":7,"gmtOffset":7,"timeZoneId":"Asia/Bangkok"},"lat":17.57605,"lng":104.59906,"population":0},{"id":1605481,"name":"Tha Tum","timezone":{"dstOffset":7,"gmtOffset":7,"timeZoneId":"Asia/Bangkok"},"lat":15.3195,"lng":103.67542,"population":0},{"id":1605490,"name":"Tha Tako","timezone":{"dstOffset":7,"gmtOffset":7,"timeZoneId":"Asia/Bangkok"},"lat":15.64218,"lng":100.47839,"population":0},{"id":1605529,"name":"Tha Pla","timezone":{"dstOffset":7,"gmtOffset":7,"timeZoneId":"Asia/Bangkok"},"lat":17.79112,"lng":100.37611,"population":0},{"id":1605549,"name":"Thanyaburi","timezone":{"dstOffset":7,"gmtOffset":7,"timeZoneId":"Asia/Bangkok"},"lat":14.02114,"lng":100.73433,"population":0},{"id":1605550,"name":"Than To","timezone":{"dstOffset":7,"gmtOffset":7,"timeZoneId":"Asia/Bangkok"},"lat":6.16739,"lng":101.18008,"population":0},{"id":1605607,"name":"Tha Luang","timezone":{"dstOffset":7,"gmtOffset":7,"timeZoneId":"Asia/Bangkok"},"lat":15.07124,"lng":101.09801,"population":0},{"id":1605613,"name":"Tha Li","timezone":{"dstOffset":7,"gmtOffset":7,"timeZoneId":"Asia/Bangkok"},"lat":17.62355,"lng":101.42099,"population":0},{"id":1605639,"name":"Tha Khantho","timezone":{"dstOffset":7,"gmtOffset":7,"timeZoneId":"Asia/Bangkok"},"lat":16.93953,"lng":103.24586,"population":0},{"id":1605671,"name":"Tha Chang","timezone":{"dstOffset":7,"gmtOffset":7,"timeZoneId":"Asia/Bangkok"},"lat":14.76142,"lng":100.38989,"population":0},{"id":1605742,"name":"Ta Phraya","timezone":{"dstOffset":7,"gmtOffset":7,"timeZoneId":"Asia/Bangkok"},"lat":14.00308,"lng":102.80541,"population":0},{"id":1605763,"name":"Tao Ngoi","timezone":{"dstOffset":7,"gmtOffset":7,"timeZoneId":"Asia/Bangkok"},"lat":16.99689,"lng":104.16672,"population":0},{"id":1605773,"name":"Tan Sum","timezone":{"dstOffset":7,"gmtOffset":7,"timeZoneId":"Asia/Bangkok"},"lat":15.3157,"lng":105.15464,"population":0},{"id":1605810,"name":"Tamot","timezone":{"dstOffset":7,"gmtOffset":7,"timeZoneId":"Asia/Bangkok"},"lat":7.33922,"lng":100.11167,"population":0},{"id":1605843,"name":"Taling Chan","timezone":{"dstOffset":7,"gmtOffset":7,"timeZoneId":"Asia/Bangkok"},"lat":13.77698,"lng":100.4567,"population":0},{"id":1605912,"name":"Takhli","timezone":{"dstOffset":7,"gmtOffset":7,"timeZoneId":"Asia/Bangkok"},"lat":15.26336,"lng":100.34378,"population":0},{"id":1606019,"name":"Suwannakhuha","timezone":{"dstOffset":7,"gmtOffset":7,"timeZoneId":"Asia/Bangkok"},"lat":17.56292,"lng":102.27989,"population":0},{"id":1606043,"name":"Sung Men","timezone":{"dstOffset":7,"gmtOffset":7,"timeZoneId":"Asia/Bangkok"},"lat":18.0494,"lng":100.11457,"population":0},{"id":1606073,"name":"Sukhirin","timezone":{"dstOffset":7,"gmtOffset":7,"timeZoneId":"Asia/Bangkok"},"lat":5.93889,"lng":101.77077,"population":0},{"id":1606114,"name":"So Phisai","timezone":{"dstOffset":7,"gmtOffset":7,"timeZoneId":"Asia/Bangkok"},"lat":18.0772,"lng":103.4432,"population":0},{"id":1606139,"name":"Song Phi Nong","timezone":{"dstOffset":7,"gmtOffset":7,"timeZoneId":"Asia/Bangkok"},"lat":14.22408,"lng":100.02094,"population":0},{"id":1606167,"name":"Song","timezone":{"dstOffset":7,"gmtOffset":7,"timeZoneId":"Asia/Bangkok"},"lat":18.47204,"lng":100.18346,"population":0},{"id":1606188,"name":"Somdet","timezone":{"dstOffset":7,"gmtOffset":7,"timeZoneId":"Asia/Bangkok"},"lat":16.70462,"lng":103.74934,"population":0},{"id":1606228,"name":"Si Thep","timezone":{"dstOffset":7,"gmtOffset":7,"timeZoneId":"Asia/Bangkok"},"lat":15.45214,"lng":101.06667,"population":0},{"id":1606229,"name":"Si That","timezone":{"dstOffset":7,"gmtOffset":7,"timeZoneId":"Asia/Bangkok"},"lat":16.97361,"lng":103.21644,"population":0},{"id":1606232,"name":"Si Songkhram","timezone":{"dstOffset":7,"gmtOffset":7,"timeZoneId":"Asia/Bangkok"},"lat":17.62745,"lng":104.2507,"population":0},{"id":1606237,"name":"Si Sakhon","timezone":{"dstOffset":7,"gmtOffset":7,"timeZoneId":"Asia/Bangkok"},"lat":6.23137,"lng":101.50048,"population":0},{"id":1606246,"name":"Si Rattana","timezone":{"dstOffset":7,"gmtOffset":7,"timeZoneId":"Asia/Bangkok"},"lat":14.79328,"lng":104.46922,"population":0},{"id":1606257,"name":"Si Prachan","timezone":{"dstOffset":7,"gmtOffset":7,"timeZoneId":"Asia/Bangkok"},"lat":14.61992,"lng":100.14483,"population":0},{"id":1606283,"name":"Si Mueang Mai","timezone":{"dstOffset":7,"gmtOffset":7,"timeZoneId":"Asia/Bangkok"},"lat":15.49315,"lng":105.27624,"population":0},{"id":1606291,"name":"Si Maha Phot","timezone":{"dstOffset":7,"gmtOffset":7,"timeZoneId":"Asia/Bangkok"},"lat":13.96597,"lng":101.51303,"population":0},{"id":1606302,"name":"Si Khoraphum","timezone":{"dstOffset":7,"gmtOffset":7,"timeZoneId":"Asia/Bangkok"},"lat":14.94418,"lng":103.79704,"population":0},{"id":1606303,"name":"Sikhio","timezone":{"dstOffset":7,"gmtOffset":7,"timeZoneId":"Asia/Bangkok"},"lat":14.89225,"lng":101.72314,"population":0},{"id":1606314,"name":"Si Chomphu","timezone":{"dstOffset":7,"gmtOffset":7,"timeZoneId":"Asia/Bangkok"},"lat":16.79878,"lng":102.18466,"population":0},{"id":1606334,"name":"Senangkhanikhom","timezone":{"dstOffset":7,"gmtOffset":7,"timeZoneId":"Asia/Bangkok"},"lat":16.03972,"lng":104.66939,"population":0},{"id":1606336,"name":"Sena","timezone":{"dstOffset":7,"gmtOffset":7,"timeZoneId":"Asia/Bangkok"},"lat":14.327,"lng":100.40433,"population":0},{"id":1606340,"name":"Selaphum","timezone":{"dstOffset":7,"gmtOffset":7,"timeZoneId":"Asia/Bangkok"},"lat":16.02992,"lng":103.93826,"population":0},{"id":1606374,"name":"Sawaeng Ha","timezone":{"dstOffset":7,"gmtOffset":7,"timeZoneId":"Asia/Bangkok"},"lat":14.74642,"lng":100.32942,"population":0},{"id":1606394,"name":"Sathing Phra","timezone":{"dstOffset":7,"gmtOffset":7,"timeZoneId":"Asia/Bangkok"},"lat":7.47303,"lng":100.43908,"population":0},{"id":1606489,"name":"Sao Hai","timezone":{"dstOffset":7,"gmtOffset":7,"timeZoneId":"Asia/Bangkok"},"lat":14.55083,"lng":100.84436,"population":0},{"id":1606512,"name":"Sapphaya","timezone":{"dstOffset":7,"gmtOffset":7,"timeZoneId":"Asia/Bangkok"},"lat":15.14616,"lng":100.24215,"population":0},{"id":1606520,"name":"Sanom","timezone":{"dstOffset":7,"gmtOffset":7,"timeZoneId":"Asia/Bangkok"},"lat":15.2036,"lng":103.76054,"population":0},{"id":1606530,"name":"Sankhaburi","timezone":{"dstOffset":7,"gmtOffset":7,"timeZoneId":"Asia/Bangkok"},"lat":15.04733,"lng":100.16178,"population":0},{"id":1606537,"name":"Sang Khom","timezone":{"dstOffset":7,"gmtOffset":7,"timeZoneId":"Asia/Bangkok"},"lat":17.82649,"lng":103.09262,"population":0},{"id":1606543,"name":"Sangkha","timezone":{"dstOffset":7,"gmtOffset":7,"timeZoneId":"Asia/Bangkok"},"lat":14.6362,"lng":103.85278,"population":0},{"id":1606564,"name":"Sanam Chai Khet","timezone":{"dstOffset":7,"gmtOffset":7,"timeZoneId":"Asia/Bangkok"},"lat":13.65864,"lng":101.43906,"population":0},{"id":1606615,"name":"Samrong Thap","timezone":{"dstOffset":7,"gmtOffset":7,"timeZoneId":"Asia/Bangkok"},"lat":15.02258,"lng":103.93631,"population":0},{"id":1606640,"name":"Samphanthawong","timezone":{"dstOffset":7,"gmtOffset":7,"timeZoneId":"Asia/Bangkok"},"lat":13.73147,"lng":100.51414,"population":0},{"id":1606667,"name":"Sam Ngam","timezone":{"dstOffset":7,"gmtOffset":7,"timeZoneId":"Asia/Bangkok"},"lat":16.50653,"lng":100.20497,"population":0},{"id":1606685,"name":"Sam Ko","timezone":{"dstOffset":7,"gmtOffset":7,"timeZoneId":"Asia/Bangkok"},"lat":14.60735,"lng":100.2186,"population":0},{"id":1606687,"name":"Sam Khok","timezone":{"dstOffset":7,"gmtOffset":7,"timeZoneId":"Asia/Bangkok"},"lat":14.0655,"lng":100.52264,"population":0},{"id":1606726,"name":"Sam Chuk","timezone":{"dstOffset":7,"gmtOffset":7,"timeZoneId":"Asia/Bangkok"},"lat":14.75763,"lng":100.08992,"population":0},{"id":1606837,"name":"Sai Noi","timezone":{"dstOffset":7,"gmtOffset":7,"timeZoneId":"Asia/Bangkok"},"lat":13.97915,"lng":100.31209,"population":0},{"id":1606842,"name":"Sai Mun","timezone":{"dstOffset":7,"gmtOffset":7,"timeZoneId":"Asia/Bangkok"},"lat":15.94495,"lng":104.20812,"population":0},{"id":1606913,"name":"Sahatsakhan","timezone":{"dstOffset":7,"gmtOffset":7,"timeZoneId":"Asia/Bangkok"},"lat":16.71236,"lng":103.5202,"population":0},{"id":1606944,"name":"Saba Yoi","timezone":{"dstOffset":7,"gmtOffset":7,"timeZoneId":"Asia/Bangkok"},"lat":6.6175,"lng":100.95189,"population":0},{"id":1606961,"name":"Rueso","timezone":{"dstOffset":7,"gmtOffset":7,"timeZoneId":"Asia/Bangkok"},"lat":6.39364,"lng":101.51847,"population":0},{"id":1606988,"name":"Rong Kham","timezone":{"dstOffset":7,"gmtOffset":7,"timeZoneId":"Asia/Bangkok"},"lat":16.26943,"lng":103.74689,"population":0},{"id":1607013,"name":"Renu Nakhon","timezone":{"dstOffset":7,"gmtOffset":7,"timeZoneId":"Asia/Bangkok"},"lat":17.05157,"lng":104.67709,"population":0},{"id":1607028,"name":"Rattaphum","timezone":{"dstOffset":7,"gmtOffset":7,"timeZoneId":"Asia/Bangkok"},"lat":7.13478,"lng":100.25647,"population":0},{"id":1607030,"name":"Rattanaburi","timezone":{"dstOffset":7,"gmtOffset":7,"timeZoneId":"Asia/Bangkok"},"lat":15.31788,"lng":103.84859,"population":0},{"id":1607055,"name":"Rat Burana","timezone":{"dstOffset":7,"gmtOffset":7,"timeZoneId":"Asia/Bangkok"},"lat":13.68219,"lng":100.50603,"population":0},{"id":1607062,"name":"Rasi Salai","timezone":{"dstOffset":7,"gmtOffset":7,"timeZoneId":"Asia/Bangkok"},"lat":15.34466,"lng":104.15476,"population":0},{"id":1607097,"name":"Raman","timezone":{"dstOffset":7,"gmtOffset":7,"timeZoneId":"Asia/Bangkok"},"lat":6.47862,"lng":101.42414,"population":0},{"id":1607164,"name":"Pua","timezone":{"dstOffset":7,"gmtOffset":7,"timeZoneId":"Asia/Bangkok"},"lat":19.17503,"lng":100.91622,"population":0},{"id":1607236,"name":"Prathai","timezone":{"dstOffset":7,"gmtOffset":7,"timeZoneId":"Asia/Bangkok"},"lat":15.5332,"lng":102.72283,"population":0},{"id":1607244,"name":"Prasat","timezone":{"dstOffset":7,"gmtOffset":7,"timeZoneId":"Asia/Bangkok"},"lat":14.64039,"lng":103.40447,"population":0},{"id":1607251,"name":"Prang Ku","timezone":{"dstOffset":7,"gmtOffset":7,"timeZoneId":"Asia/Bangkok"},"lat":14.85672,"lng":104.03981,"population":0},{"id":1607258,"name":"Pakham","timezone":{"dstOffset":7,"gmtOffset":7,"timeZoneId":"Asia/Bangkok"},"lat":14.43817,"lng":102.72558,"population":0},{"id":1607284,"name":"Prachantakham","timezone":{"dstOffset":7,"gmtOffset":7,"timeZoneId":"Asia/Bangkok"},"lat":14.06442,"lng":101.51503,"population":0},{"id":1607327,"name":"Pom Prap Sattru Phai","timezone":{"dstOffset":7,"gmtOffset":7,"timeZoneId":"Asia/Bangkok"},"lat":13.75822,"lng":100.51325,"population":0},{"id":1607345,"name":"Pluak Daeng","timezone":{"dstOffset":7,"gmtOffset":7,"timeZoneId":"Asia/Bangkok"},"lat":12.97122,"lng":101.21463,"population":0},{"id":1607363,"name":"Pla Pak","timezone":{"dstOffset":7,"gmtOffset":7,"timeZoneId":"Asia/Bangkok"},"lat":17.18064,"lng":104.52606,"population":0},{"id":1607398,"name":"Plaeng Yao","timezone":{"dstOffset":7,"gmtOffset":7,"timeZoneId":"Asia/Bangkok"},"lat":13.58467,"lng":101.28403,"population":0},{"id":1607418,"name":"Phu Wiang","timezone":{"dstOffset":7,"gmtOffset":7,"timeZoneId":"Asia/Bangkok"},"lat":16.65259,"lng":102.37555,"population":0},{"id":1607421,"name":"Phutthaisong","timezone":{"dstOffset":7,"gmtOffset":7,"timeZoneId":"Asia/Bangkok"},"lat":15.54783,"lng":103.02467,"population":0},{"id":1607424,"name":"Phu Ruea","timezone":{"dstOffset":7,"gmtOffset":7,"timeZoneId":"Asia/Bangkok"},"lat":17.4538,"lng":101.36231,"population":0},{"id":1607426,"name":"Phu Pha Man","timezone":{"dstOffset":7,"gmtOffset":7,"timeZoneId":"Asia/Bangkok"},"lat":16.64888,"lng":101.90097,"population":0},{"id":1607433,"name":"Phu Luang","timezone":{"dstOffset":7,"gmtOffset":7,"timeZoneId":"Asia/Bangkok"},"lat":17.1392,"lng":101.66392,"population":0},{"id":1607468,"name":"Phrom Phiram","timezone":{"dstOffset":7,"gmtOffset":7,"timeZoneId":"Asia/Bangkok"},"lat":17.03352,"lng":100.2019,"population":0},{"id":1607473,"name":"Phrom Buri","timezone":{"dstOffset":7,"gmtOffset":7,"timeZoneId":"Asia/Bangkok"},"lat":14.79086,"lng":100.45325,"population":0},{"id":1607479,"name":"Phra Yuen","timezone":{"dstOffset":7,"gmtOffset":7,"timeZoneId":"Asia/Bangkok"},"lat":16.3293,"lng":102.65182,"population":0},{"id":1607542,"name":"Prakanong","timezone":{"dstOffset":7,"gmtOffset":7,"timeZoneId":"Asia/Bangkok"},"lat":13.70185,"lng":100.60157,"population":0},{"id":1607584,"name":"Pho Thale","timezone":{"dstOffset":7,"gmtOffset":7,"timeZoneId":"Asia/Bangkok"},"lat":16.0927,"lng":100.26089,"population":0},{"id":1607592,"name":"Pho Sai","timezone":{"dstOffset":7,"gmtOffset":7,"timeZoneId":"Asia/Bangkok"},"lat":15.82586,"lng":105.26064,"population":0},{"id":1607603,"name":"Phon Sai","timezone":{"dstOffset":7,"gmtOffset":7,"timeZoneId":"Asia/Bangkok"},"lat":15.48797,"lng":103.99642,"population":0},{"id":1607606,"name":"Phon Phisai","timezone":{"dstOffset":7,"gmtOffset":7,"timeZoneId":"Asia/Bangkok"},"lat":18.02106,"lng":103.07664,"population":0},{"id":1607728,"name":"Phichai","timezone":{"dstOffset":7,"gmtOffset":7,"timeZoneId":"Asia/Bangkok"},"lat":17.28764,"lng":100.0867,"population":0},{"id":1607741,"name":"Phen","timezone":{"dstOffset":7,"gmtOffset":7,"timeZoneId":"Asia/Bangkok"},"lat":17.69614,"lng":102.90689,"population":0},{"id":1607782,"name":"Phasi Charoen","timezone":{"dstOffset":7,"gmtOffset":7,"timeZoneId":"Asia/Bangkok"},"lat":13.71466,"lng":100.43691,"population":0},{"id":1607804,"name":"Phanom Phrai","timezone":{"dstOffset":7,"gmtOffset":7,"timeZoneId":"Asia/Bangkok"},"lat":15.67783,"lng":104.11025,"population":0},{"id":1607812,"name":"Phanna Nikhom","timezone":{"dstOffset":7,"gmtOffset":7,"timeZoneId":"Asia/Bangkok"},"lat":17.35245,"lng":103.85032,"population":0},{"id":1607826,"name":"Phang Khon","timezone":{"dstOffset":7,"gmtOffset":7,"timeZoneId":"Asia/Bangkok"},"lat":17.3905,"lng":103.71692,"population":0},{"id":1607840,"name":"Phana","timezone":{"dstOffset":7,"gmtOffset":7,"timeZoneId":"Asia/Bangkok"},"lat":15.68231,"lng":104.84603,"population":0},{"id":1607958,"name":"Phachi","timezone":{"dstOffset":7,"gmtOffset":7,"timeZoneId":"Asia/Bangkok"},"lat":14.44914,"lng":100.72833,"population":0},{"id":1607960,"name":"Pa Bon","timezone":{"dstOffset":7,"gmtOffset":7,"timeZoneId":"Asia/Bangkok"},"lat":7.26942,"lng":100.17036,"population":0},{"id":1607971,"name":"Phaya Mengrai","timezone":{"dstOffset":7,"gmtOffset":7,"timeZoneId":"Asia/Bangkok"},"lat":19.84922,"lng":100.15358,"population":0},{"id":1607980,"name":"Pa Tio","timezone":{"dstOffset":7,"gmtOffset":7,"timeZoneId":"Asia/Bangkok"},"lat":15.83281,"lng":104.38673,"population":0},{"id":1607984,"name":"Pathum Rat","timezone":{"dstOffset":7,"gmtOffset":7,"timeZoneId":"Asia/Bangkok"},"lat":15.6345,"lng":103.34325,"population":0},{"id":1608007,"name":"Panare","timezone":{"dstOffset":7,"gmtOffset":7,"timeZoneId":"Asia/Bangkok"},"lat":6.86192,"lng":101.49103,"population":0},{"id":1608011,"name":"Pa Mok","timezone":{"dstOffset":7,"gmtOffset":7,"timeZoneId":"Asia/Bangkok"},"lat":14.48989,"lng":100.44847,"population":0},{"id":1608019,"name":"Pak Thong Chai","timezone":{"dstOffset":7,"gmtOffset":7,"timeZoneId":"Asia/Bangkok"},"lat":14.7226,"lng":102.02512,"population":0},{"id":1608026,"name":"Pak Phli","timezone":{"dstOffset":7,"gmtOffset":7,"timeZoneId":"Asia/Bangkok"},"lat":14.16308,"lng":101.26886,"population":0},{"id":1608028,"name":"Pak Phayun","timezone":{"dstOffset":7,"gmtOffset":7,"timeZoneId":"Asia/Bangkok"},"lat":7.34219,"lng":100.31747,"population":0},{"id":1608053,"name":"Pak Khat","timezone":{"dstOffset":7,"gmtOffset":7,"timeZoneId":"Asia/Bangkok"},"lat":18.30556,"lng":103.30441,"population":0},{"id":1608080,"name":"Ongkharak","timezone":{"dstOffset":7,"gmtOffset":7,"timeZoneId":"Asia/Bangkok"},"lat":14.12117,"lng":101.00364,"population":0},{"id":1608140,"name":"Non Sa-at","timezone":{"dstOffset":7,"gmtOffset":7,"timeZoneId":"Asia/Bangkok"},"lat":16.97914,"lng":102.8937,"population":0},{"id":1608142,"name":"Non Kho","timezone":{"dstOffset":7,"gmtOffset":7,"timeZoneId":"Asia/Bangkok"},"lat":14.91666,"lng":104.72522,"population":0},{"id":1608148,"name":"Nong Yai","timezone":{"dstOffset":7,"gmtOffset":7,"timeZoneId":"Asia/Bangkok"},"lat":13.15515,"lng":101.37226,"population":0},{"id":1608160,"name":"Nong Sung","timezone":{"dstOffset":7,"gmtOffset":7,"timeZoneId":"Asia/Bangkok"},"lat":16.48299,"lng":104.34712,"population":0},{"id":1608163,"name":"Nong Suea","timezone":{"dstOffset":7,"gmtOffset":7,"timeZoneId":"Asia/Bangkok"},"lat":14.13478,"lng":100.82503,"population":0},{"id":1608173,"name":"Nong Saeng","timezone":{"dstOffset":7,"gmtOffset":7,"timeZoneId":"Asia/Bangkok"},"lat":17.16739,"lng":102.78081,"population":0},{"id":1608174,"name":"Nong Saeng","timezone":{"dstOffset":7,"gmtOffset":7,"timeZoneId":"Asia/Bangkok"},"lat":14.49208,"lng":100.78431,"population":0},{"id":1608177,"name":"Nong Ruea","timezone":{"dstOffset":7,"gmtOffset":7,"timeZoneId":"Asia/Bangkok"},"lat":16.49333,"lng":102.43339,"population":0},{"id":1608188,"name":"Nong Phok","timezone":{"dstOffset":7,"gmtOffset":7,"timeZoneId":"Asia/Bangkok"},"lat":16.31006,"lng":104.20247,"population":0},{"id":1608236,"name":"Nong Khaem","timezone":{"dstOffset":7,"gmtOffset":7,"timeZoneId":"Asia/Bangkok"},"lat":13.70528,"lng":100.34923,"population":0},{"id":1608247,"name":"Nong Hong","timezone":{"dstOffset":7,"gmtOffset":7,"timeZoneId":"Asia/Bangkok"},"lat":14.84782,"lng":102.68401,"population":0},{"id":1608251,"name":"Nong Han","timezone":{"dstOffset":7,"gmtOffset":7,"timeZoneId":"Asia/Bangkok"},"lat":17.36083,"lng":103.10533,"population":0},{"id":1608258,"name":"Nong Chok","timezone":{"dstOffset":7,"gmtOffset":7,"timeZoneId":"Asia/Bangkok"},"lat":13.85585,"lng":100.86216,"population":0},{"id":1608266,"name":"Nong Bun Nak","timezone":{"dstOffset":7,"gmtOffset":7,"timeZoneId":"Asia/Bangkok"},"lat":14.73947,"lng":102.36564,"population":0},{"id":1608267,"name":"Nong Bua Rawe","timezone":{"dstOffset":7,"gmtOffset":7,"timeZoneId":"Asia/Bangkok"},"lat":15.75314,"lng":101.76396,"population":0},{"id":1608273,"name":"Nong Bua Daeng","timezone":{"dstOffset":7,"gmtOffset":7,"timeZoneId":"Asia/Bangkok"},"lat":16.07978,"lng":101.80225,"population":0},{"id":1608371,"name":"Noen Maprang","timezone":{"dstOffset":7,"gmtOffset":7,"timeZoneId":"Asia/Bangkok"},"lat":16.56667,"lng":100.63333,"population":0},{"id":1608381,"name":"Nikhom Nam Un","timezone":{"dstOffset":7,"gmtOffset":7,"timeZoneId":"Asia/Bangkok"},"lat":17.18314,"lng":103.71842,"population":0},{"id":1608382,"name":"Nikhom Kham Soi","timezone":{"dstOffset":7,"gmtOffset":7,"timeZoneId":"Asia/Bangkok"},"lat":16.37167,"lng":104.55147,"population":0},{"id":1608402,"name":"Na Thawi","timezone":{"dstOffset":7,"gmtOffset":7,"timeZoneId":"Asia/Bangkok"},"lat":6.74192,"lng":100.69139,"population":0},{"id":1608415,"name":"Na Pho","timezone":{"dstOffset":7,"gmtOffset":7,"timeZoneId":"Asia/Bangkok"},"lat":15.64113,"lng":102.95462,"population":0},{"id":1608418,"name":"Na Noi","timezone":{"dstOffset":7,"gmtOffset":7,"timeZoneId":"Asia/Bangkok"},"lat":18.32639,"lng":100.71417,"population":0},{"id":1608457,"name":"Na Muen","timezone":{"dstOffset":7,"gmtOffset":7,"timeZoneId":"Asia/Bangkok"},"lat":18.18931,"lng":100.66047,"population":0},{"id":1608480,"name":"Nam Phong","timezone":{"dstOffset":7,"gmtOffset":7,"timeZoneId":"Asia/Bangkok"},"lat":16.70228,"lng":102.8557,"population":0},{"id":1608483,"name":"Nam Pat","timezone":{"dstOffset":7,"gmtOffset":7,"timeZoneId":"Asia/Bangkok"},"lat":17.72806,"lng":100.68433,"population":0},{"id":1608484,"name":"Na Mon","timezone":{"dstOffset":7,"gmtOffset":7,"timeZoneId":"Asia/Bangkok"},"lat":16.57653,"lng":103.78711,"population":0},{"id":1608485,"name":"Nam Nao","timezone":{"dstOffset":7,"gmtOffset":7,"timeZoneId":"Asia/Bangkok"},"lat":16.76753,"lng":101.66917,"population":0},{"id":1608488,"name":"Nam Kliang","timezone":{"dstOffset":7,"gmtOffset":7,"timeZoneId":"Asia/Bangkok"},"lat":14.92731,"lng":104.51303,"population":0},{"id":1608545,"name":"Nakhon Chai Si","timezone":{"dstOffset":7,"gmtOffset":7,"timeZoneId":"Asia/Bangkok"},"lat":13.80126,"lng":100.18451,"population":0},{"id":1608551,"name":"Na Kae","timezone":{"dstOffset":7,"gmtOffset":7,"timeZoneId":"Asia/Bangkok"},"lat":16.94644,"lng":104.50081,"population":0},{"id":1608568,"name":"Na Chueak","timezone":{"dstOffset":7,"gmtOffset":7,"timeZoneId":"Asia/Bangkok"},"lat":15.79338,"lng":103.03184,"population":0},{"id":1608570,"name":"Na Chaluai","timezone":{"dstOffset":7,"gmtOffset":7,"timeZoneId":"Asia/Bangkok"},"lat":14.52046,"lng":105.24478,"population":0},{"id":1608614,"name":"Mueang Suang","timezone":{"dstOffset":7,"gmtOffset":7,"timeZoneId":"Asia/Bangkok"},"lat":15.82192,"lng":103.72884,"population":0},{"id":1608625,"name":"Muang Sam Sip","timezone":{"dstOffset":7,"gmtOffset":7,"timeZoneId":"Asia/Bangkok"},"lat":15.51307,"lng":104.72565,"population":0},{"id":1608718,"name":"Min Buri","timezone":{"dstOffset":7,"gmtOffset":7,"timeZoneId":"Asia/Bangkok"},"lat":13.81407,"lng":100.73135,"population":0},{"id":1608733,"name":"Mayo","timezone":{"dstOffset":7,"gmtOffset":7,"timeZoneId":"Asia/Bangkok"},"lat":6.71864,"lng":101.40983,"population":0},{"id":1608762,"name":"Manorom","timezone":{"dstOffset":7,"gmtOffset":7,"timeZoneId":"Asia/Bangkok"},"lat":15.30997,"lng":100.08283,"population":0},{"id":1608774,"name":"Mancha Khiri","timezone":{"dstOffset":7,"gmtOffset":7,"timeZoneId":"Asia/Bangkok"},"lat":16.13048,"lng":102.53712,"population":0},{"id":1608808,"name":"Makham","timezone":{"dstOffset":7,"gmtOffset":7,"timeZoneId":"Asia/Bangkok"},"lat":12.67292,"lng":102.19575,"population":0},{"id":1608857,"name":"Mai Kaen","timezone":{"dstOffset":7,"gmtOffset":7,"timeZoneId":"Asia/Bangkok"},"lat":6.60975,"lng":101.66686,"population":0},{"id":1608902,"name":"Maha Rat","timezone":{"dstOffset":7,"gmtOffset":7,"timeZoneId":"Asia/Bangkok"},"lat":14.53367,"lng":100.52672,"population":0},{"id":1608909,"name":"Maha Chana Chai","timezone":{"dstOffset":7,"gmtOffset":7,"timeZoneId":"Asia/Bangkok"},"lat":15.52935,"lng":104.23847,"population":0},{"id":1608937,"name":"Mae Charim","timezone":{"dstOffset":7,"gmtOffset":7,"timeZoneId":"Asia/Bangkok"},"lat":18.70614,"lng":101.0057,"population":0},{"id":1609048,"name":"Lom Kao","timezone":{"dstOffset":7,"gmtOffset":7,"timeZoneId":"Asia/Bangkok"},"lat":16.88614,"lng":101.22894,"population":0},{"id":1609068,"name":"Loeng Nok Tha","timezone":{"dstOffset":7,"gmtOffset":7,"timeZoneId":"Asia/Bangkok"},"lat":16.2075,"lng":104.55528,"population":0},{"id":1609121,"name":"Lat Lum Kaeo","timezone":{"dstOffset":7,"gmtOffset":7,"timeZoneId":"Asia/Bangkok"},"lat":14.03728,"lng":100.40486,"population":0},{"id":1609141,"name":"Lat Bua Luang","timezone":{"dstOffset":7,"gmtOffset":7,"timeZoneId":"Asia/Bangkok"},"lat":14.16572,"lng":100.30789,"population":0},{"id":1609163,"name":"Lap Lae","timezone":{"dstOffset":7,"gmtOffset":7,"timeZoneId":"Asia/Bangkok"},"lat":17.65211,"lng":100.03892,"population":0},{"id":1609204,"name":"Lam Plai Mat","timezone":{"dstOffset":7,"gmtOffset":7,"timeZoneId":"Asia/Bangkok"},"lat":15.0252,"lng":102.83894,"population":0},{"id":1609219,"name":"Lam Luk Ka","timezone":{"dstOffset":7,"gmtOffset":7,"timeZoneId":"Asia/Bangkok"},"lat":13.93226,"lng":100.74937,"population":0},{"id":1609223,"name":"Lamduan","timezone":{"dstOffset":7,"gmtOffset":7,"timeZoneId":"Asia/Bangkok"},"lat":14.72205,"lng":103.66934,"population":0},{"id":1609258,"name":"Lahan Sai","timezone":{"dstOffset":7,"gmtOffset":7,"timeZoneId":"Asia/Bangkok"},"lat":14.41142,"lng":102.85936,"population":0},{"id":1609283,"name":"Laem Ngop","timezone":{"dstOffset":7,"gmtOffset":7,"timeZoneId":"Asia/Bangkok"},"lat":12.1717,"lng":102.39489,"population":0},{"id":1609318,"name":"Kut Khaopun","timezone":{"dstOffset":7,"gmtOffset":7,"timeZoneId":"Asia/Bangkok"},"lat":15.79267,"lng":104.99814,"population":0},{"id":1609321,"name":"Kut Chum","timezone":{"dstOffset":7,"gmtOffset":7,"timeZoneId":"Asia/Bangkok"},"lat":16.03289,"lng":104.33936,"population":0},{"id":1609327,"name":"Kut Bak","timezone":{"dstOffset":7,"gmtOffset":7,"timeZoneId":"Asia/Bangkok"},"lat":17.08882,"lng":103.81875,"population":0},{"id":1609332,"name":"Kusuman","timezone":{"dstOffset":7,"gmtOffset":7,"timeZoneId":"Asia/Bangkok"},"lat":17.33259,"lng":104.33147,"population":0},{"id":1609336,"name":"Kumphawapi","timezone":{"dstOffset":7,"gmtOffset":7,"timeZoneId":"Asia/Bangkok"},"lat":17.10875,"lng":103.01487,"population":0},{"id":1609379,"name":"Krok Phra","timezone":{"dstOffset":7,"gmtOffset":7,"timeZoneId":"Asia/Bangkok"},"lat":15.55589,"lng":100.07153,"population":0},{"id":1609421,"name":"Krasang","timezone":{"dstOffset":7,"gmtOffset":7,"timeZoneId":"Asia/Bangkok"},"lat":14.92375,"lng":103.30368,"population":0},{"id":1609422,"name":"Krasae Sin","timezone":{"dstOffset":7,"gmtOffset":7,"timeZoneId":"Asia/Bangkok"},"lat":7.61548,"lng":100.32842,"population":0},{"id":1609479,"name":"Ko Si Chang","timezone":{"dstOffset":7,"gmtOffset":7,"timeZoneId":"Asia/Bangkok"},"lat":13.16388,"lng":100.80547,"population":0},{"id":1609688,"name":"Khun Han","timezone":{"dstOffset":7,"gmtOffset":7,"timeZoneId":"Asia/Bangkok"},"lat":14.61739,"lng":104.42506,"population":0},{"id":1609699,"name":"Khu Mueang","timezone":{"dstOffset":7,"gmtOffset":7,"timeZoneId":"Asia/Bangkok"},"lat":15.2716,"lng":103.00167,"population":0},{"id":1609708,"name":"Khu Khan","timezone":{"dstOffset":7,"gmtOffset":7,"timeZoneId":"Asia/Bangkok"},"lat":14.71358,"lng":104.19836,"population":0},{"id":1609711,"name":"Khuan Niang","timezone":{"dstOffset":7,"gmtOffset":7,"timeZoneId":"Asia/Bangkok"},"lat":7.19138,"lng":100.35355,"population":0},{"id":1609715,"name":"Khuan Khanun","timezone":{"dstOffset":7,"gmtOffset":7,"timeZoneId":"Asia/Bangkok"},"lat":7.7347,"lng":100.00931,"population":0},{"id":1609717,"name":"Khuan Kalong","timezone":{"dstOffset":7,"gmtOffset":7,"timeZoneId":"Asia/Bangkok"},"lat":6.84538,"lng":100.07148,"population":0},{"id":1609720,"name":"Khueang Nai","timezone":{"dstOffset":7,"gmtOffset":7,"timeZoneId":"Asia/Bangkok"},"lat":15.38989,"lng":104.55083,"population":0},{"id":1609722,"name":"Khuan Don","timezone":{"dstOffset":7,"gmtOffset":7,"timeZoneId":"Asia/Bangkok"},"lat":6.78758,"lng":100.07778,"population":0},{"id":1609753,"name":"Kho Wang","timezone":{"dstOffset":7,"gmtOffset":7,"timeZoneId":"Asia/Bangkok"},"lat":15.36998,"lng":104.35231,"population":0},{"id":1609765,"name":"Khon Sawan","timezone":{"dstOffset":7,"gmtOffset":7,"timeZoneId":"Asia/Bangkok"},"lat":15.93192,"lng":102.28103,"population":0},{"id":1609768,"name":"Khon San","timezone":{"dstOffset":7,"gmtOffset":7,"timeZoneId":"Asia/Bangkok"},"lat":16.61286,"lng":101.91944,"population":0},{"id":1609784,"name":"Khong Chiam","timezone":{"dstOffset":7,"gmtOffset":7,"timeZoneId":"Asia/Bangkok"},"lat":15.31856,"lng":105.49506,"population":0},{"id":1609793,"name":"Khong","timezone":{"dstOffset":7,"gmtOffset":7,"timeZoneId":"Asia/Bangkok"},"lat":15.44392,"lng":102.32862,"population":0},{"id":1609808,"name":"Khok Si Suphan","timezone":{"dstOffset":7,"gmtOffset":7,"timeZoneId":"Asia/Bangkok"},"lat":17.04507,"lng":104.2756,"population":0},{"id":1609812,"name":"Khok Samrong","timezone":{"dstOffset":7,"gmtOffset":7,"timeZoneId":"Asia/Bangkok"},"lat":15.0665,"lng":100.72233,"population":0},{"id":1609820,"name":"Khok Pho","timezone":{"dstOffset":7,"gmtOffset":7,"timeZoneId":"Asia/Bangkok"},"lat":6.73064,"lng":101.0962,"population":0},{"id":1609839,"name":"Khok Charoen","timezone":{"dstOffset":7,"gmtOffset":7,"timeZoneId":"Asia/Bangkok"},"lat":15.37927,"lng":100.8187,"population":0},{"id":1609863,"name":"Khlong Yai","timezone":{"dstOffset":7,"gmtOffset":7,"timeZoneId":"Asia/Bangkok"},"lat":11.77644,"lng":102.88567,"population":0},{"id":1609879,"name":"Khlong San","timezone":{"dstOffset":7,"gmtOffset":7,"timeZoneId":"Asia/Bangkok"},"lat":13.73086,"lng":100.50903,"population":0},{"id":1609907,"name":"Khlong Hat","timezone":{"dstOffset":7,"gmtOffset":7,"timeZoneId":"Asia/Bangkok"},"lat":13.45177,"lng":102.29823,"population":0},{"id":1609970,"name":"Khemarat","timezone":{"dstOffset":7,"gmtOffset":7,"timeZoneId":"Asia/Bangkok"},"lat":16.04252,"lng":105.21836,"population":0},{"id":1609997,"name":"Khao Saming","timezone":{"dstOffset":7,"gmtOffset":7,"timeZoneId":"Asia/Bangkok"},"lat":12.35353,"lng":102.4355,"population":0},{"id":1610018,"name":"Khao Chaison","timezone":{"dstOffset":7,"gmtOffset":7,"timeZoneId":"Asia/Bangkok"},"lat":7.46125,"lng":100.13372,"population":0},{"id":1610068,"name":"Kham Thale So","timezone":{"dstOffset":7,"gmtOffset":7,"timeZoneId":"Asia/Bangkok"},"lat":14.96083,"lng":101.94789,"population":0},{"id":1610069,"name":"Kham Ta Kla","timezone":{"dstOffset":7,"gmtOffset":7,"timeZoneId":"Asia/Bangkok"},"lat":17.85231,"lng":103.75657,"population":0},{"id":1610081,"name":"Kham Muang","timezone":{"dstOffset":7,"gmtOffset":7,"timeZoneId":"Asia/Bangkok"},"lat":16.92902,"lng":103.63518,"population":0},{"id":1610086,"name":"Kham Khuean Kaeo","timezone":{"dstOffset":7,"gmtOffset":7,"timeZoneId":"Asia/Bangkok"},"lat":15.65233,"lng":104.30861,"population":0},{"id":1610093,"name":"Khamcha-i","timezone":{"dstOffset":7,"gmtOffset":7,"timeZoneId":"Asia/Bangkok"},"lat":16.57764,"lng":104.41956,"population":0},{"id":1610223,"name":"Kantharawichai","timezone":{"dstOffset":7,"gmtOffset":7,"timeZoneId":"Asia/Bangkok"},"lat":16.32719,"lng":103.29864,"population":0},{"id":1610225,"name":"Kanthararom","timezone":{"dstOffset":7,"gmtOffset":7,"timeZoneId":"Asia/Bangkok"},"lat":15.10323,"lng":104.57343,"population":0},{"id":1610296,"name":"Krong Pi Nang","timezone":{"dstOffset":7,"gmtOffset":7,"timeZoneId":"Asia/Bangkok"},"lat":6.4112,"lng":101.27394,"population":0},{"id":1610303,"name":"Su-ngai Padi","timezone":{"dstOffset":7,"gmtOffset":7,"timeZoneId":"Asia/Bangkok"},"lat":6.0857,"lng":101.87959,"population":0},{"id":1610360,"name":"Ka Bang","timezone":{"dstOffset":7,"gmtOffset":7,"timeZoneId":"Asia/Bangkok"},"lat":6.41536,"lng":101.05456,"population":0},{"id":1610393,"name":"Cho-airong","timezone":{"dstOffset":7,"gmtOffset":7,"timeZoneId":"Asia/Bangkok"},"lat":6.22553,"lng":101.81128,"population":0},{"id":1610445,"name":"Kamphaeng Saen","timezone":{"dstOffset":7,"gmtOffset":7,"timeZoneId":"Asia/Bangkok"},"lat":13.99966,"lng":99.98981,"population":0},{"id":1610510,"name":"Kae Dam","timezone":{"dstOffset":7,"gmtOffset":7,"timeZoneId":"Asia/Bangkok"},"lat":16.02397,"lng":103.38444,"population":0},{"id":1610571,"name":"In Buri","timezone":{"dstOffset":7,"gmtOffset":7,"timeZoneId":"Asia/Bangkok"},"lat":15.00787,"lng":100.32691,"population":0},{"id":1610607,"name":"Hua Taphan","timezone":{"dstOffset":7,"gmtOffset":7,"timeZoneId":"Asia/Bangkok"},"lat":15.6971,"lng":104.4916,"population":0},{"id":1610622,"name":"Hua Sai","timezone":{"dstOffset":7,"gmtOffset":7,"timeZoneId":"Asia/Bangkok"},"lat":8.04408,"lng":100.30586,"population":0},{"id":1610650,"name":"Huai Thap Than","timezone":{"dstOffset":7,"gmtOffset":7,"timeZoneId":"Asia/Bangkok"},"lat":15.05333,"lng":104.02754,"population":0},{"id":1610652,"name":"Huai Thalaeng","timezone":{"dstOffset":7,"gmtOffset":7,"timeZoneId":"Asia/Bangkok"},"lat":14.99701,"lng":102.64746,"population":0},{"id":1610658,"name":"Huai Phueng","timezone":{"dstOffset":7,"gmtOffset":7,"timeZoneId":"Asia/Bangkok"},"lat":16.65038,"lng":103.91005,"population":0},{"id":1610800,"name":"Hankha","timezone":{"dstOffset":7,"gmtOffset":7,"timeZoneId":"Asia/Bangkok"},"lat":14.98122,"lng":100.0147,"population":0},{"id":1610841,"name":"Fak Tha","timezone":{"dstOffset":7,"gmtOffset":7,"timeZoneId":"Asia/Bangkok"},"lat":17.99948,"lng":100.88014,"population":0},{"id":1610858,"name":"Dusit","timezone":{"dstOffset":7,"gmtOffset":7,"timeZoneId":"Asia/Bangkok"},"lat":13.7775,"lng":100.51977,"population":0},{"id":1610876,"name":"Don Tan","timezone":{"dstOffset":7,"gmtOffset":7,"timeZoneId":"Asia/Bangkok"},"lat":16.31697,"lng":104.92,"population":0},{"id":1610897,"name":"Dong Luang","timezone":{"dstOffset":7,"gmtOffset":7,"timeZoneId":"Asia/Bangkok"},"lat":16.81589,"lng":104.538,"population":0},{"id":1610900,"name":"Don Chedi","timezone":{"dstOffset":7,"gmtOffset":7,"timeZoneId":"Asia/Bangkok"},"lat":14.63497,"lng":100.02097,"population":0},{"id":1610958,"name":"Dan Sai","timezone":{"dstOffset":7,"gmtOffset":7,"timeZoneId":"Asia/Bangkok"},"lat":17.28011,"lng":101.14686,"population":0},{"id":1611020,"name":"Chum Phuang","timezone":{"dstOffset":7,"gmtOffset":7,"timeZoneId":"Asia/Bangkok"},"lat":15.34861,"lng":102.74161,"population":0},{"id":1611022,"name":"Chumphon Buri","timezone":{"dstOffset":7,"gmtOffset":7,"timeZoneId":"Asia/Bangkok"},"lat":15.34862,"lng":103.39217,"population":0},{"id":1611078,"name":"Chonnabot","timezone":{"dstOffset":7,"gmtOffset":7,"timeZoneId":"Asia/Bangkok"},"lat":16.08861,"lng":102.62178,"population":0},{"id":1611125,"name":"Chom Phra","timezone":{"dstOffset":7,"gmtOffset":7,"timeZoneId":"Asia/Bangkok"},"lat":15.11814,"lng":103.60743,"population":0},{"id":1611183,"name":"Chian Yai","timezone":{"dstOffset":7,"gmtOffset":7,"timeZoneId":"Asia/Bangkok"},"lat":8.16936,"lng":100.1447,"population":0},{"id":1611185,"name":"Chiang Yuen","timezone":{"dstOffset":7,"gmtOffset":7,"timeZoneId":"Asia/Bangkok"},"lat":16.41042,"lng":103.09768,"population":0},{"id":1611187,"name":"Chiang Saen","timezone":{"dstOffset":7,"gmtOffset":7,"timeZoneId":"Asia/Bangkok"},"lat":20.27511,"lng":100.08689,"population":0},{"id":1611200,"name":"Chiang Khan","timezone":{"dstOffset":7,"gmtOffset":7,"timeZoneId":"Asia/Bangkok"},"lat":17.89382,"lng":101.65997,"population":0},{"id":1611231,"name":"Cha-uat","timezone":{"dstOffset":7,"gmtOffset":7,"timeZoneId":"Asia/Bangkok"},"lat":7.96773,"lng":99.99985,"population":0},{"id":1611233,"name":"Chaturaphak Phiman","timezone":{"dstOffset":7,"gmtOffset":7,"timeZoneId":"Asia/Bangkok"},"lat":15.84572,"lng":103.5572,"population":0},{"id":1611234,"name":"Chatturat","timezone":{"dstOffset":7,"gmtOffset":7,"timeZoneId":"Asia/Bangkok"},"lat":15.56542,"lng":101.84547,"population":0},{"id":1611261,"name":"Chanuman","timezone":{"dstOffset":7,"gmtOffset":7,"timeZoneId":"Asia/Bangkok"},"lat":16.23356,"lng":105.0005,"population":0},{"id":1611320,"name":"Chanae","timezone":{"dstOffset":7,"gmtOffset":7,"timeZoneId":"Asia/Bangkok"},"lat":6.09914,"lng":101.69353,"population":0},{"id":1611324,"name":"Chana","timezone":{"dstOffset":7,"gmtOffset":7,"timeZoneId":"Asia/Bangkok"},"lat":6.91542,"lng":100.74039,"population":0},{"id":1611394,"name":"Chaloem Phra Kiat","timezone":{"dstOffset":7,"gmtOffset":7,"timeZoneId":"Asia/Bangkok"},"lat":15.00508,"lng":102.27033,"population":0},{"id":1611405,"name":"Chaiyo","timezone":{"dstOffset":7,"gmtOffset":7,"timeZoneId":"Asia/Bangkok"},"lat":14.64878,"lng":100.47878,"population":0},{"id":1611410,"name":"Chaiwan","timezone":{"dstOffset":7,"gmtOffset":7,"timeZoneId":"Asia/Bangkok"},"lat":17.29447,"lng":103.23385,"population":0},{"id":1611425,"name":"Chai Badan","timezone":{"dstOffset":7,"gmtOffset":7,"timeZoneId":"Asia/Bangkok"},"lat":15.20614,"lng":101.13683,"population":0},{"id":1611461,"name":"Buntharik","timezone":{"dstOffset":7,"gmtOffset":7,"timeZoneId":"Asia/Bangkok"},"lat":14.75639,"lng":105.41147,"population":0},{"id":1611467,"name":"Bueng Sam Phan","timezone":{"dstOffset":7,"gmtOffset":7,"timeZoneId":"Asia/Bangkok"},"lat":15.83024,"lng":100.91938,"population":0},{"id":1611473,"name":"Bueng Khong Long","timezone":{"dstOffset":7,"gmtOffset":7,"timeZoneId":"Asia/Bangkok"},"lat":17.96129,"lng":104.04667,"population":0},{"id":1611504,"name":"Bua Chet","timezone":{"dstOffset":7,"gmtOffset":7,"timeZoneId":"Asia/Bangkok"},"lat":14.52814,"lng":103.94567,"population":0},{"id":1611548,"name":"Bo Thong","timezone":{"dstOffset":7,"gmtOffset":7,"timeZoneId":"Asia/Bangkok"},"lat":13.27825,"lng":101.44028,"population":0},{"id":1611580,"name":"Borabue","timezone":{"dstOffset":7,"gmtOffset":7,"timeZoneId":"Asia/Bangkok"},"lat":16.04179,"lng":103.11506,"population":0},{"id":1611620,"name":"Bo Kluea","timezone":{"dstOffset":7,"gmtOffset":7,"timeZoneId":"Asia/Bangkok"},"lat":19.15029,"lng":101.1556,"population":0},{"id":1611881,"name":"Wang Pong","timezone":{"dstOffset":7,"gmtOffset":7,"timeZoneId":"Asia/Bangkok"},"lat":16.34147,"lng":100.79317,"population":0},{"id":1611914,"name":"Wang Muang","timezone":{"dstOffset":7,"gmtOffset":7,"timeZoneId":"Asia/Bangkok"},"lat":14.84228,"lng":101.1255,"population":0},{"id":1941204,"name":"Thung Yang Daeng","timezone":{"dstOffset":7,"gmtOffset":7,"timeZoneId":"Asia/Bangkok"},"lat":6.61822,"lng":101.4265,"population":0},{"id":1954056,"name":"Phanom Dong Rak","timezone":{"dstOffset":7,"gmtOffset":7,"timeZoneId":"Asia/Bangkok"},"lat":14.44575,"lng":103.30508,"population":0},{"id":1888247,"name":"Song Dao","timezone":{"dstOffset":7,"gmtOffset":7,"timeZoneId":"Asia/Bangkok"},"lat":17.33628,"lng":103.47547,"population":0},{"id":1884764,"name":"Phon Charoen","timezone":{"dstOffset":7,"gmtOffset":7,"timeZoneId":"Asia/Bangkok"},"lat":18.03143,"lng":103.70996,"population":0},