[{"id":1221874,"name":"Dushanbe","timezone":{"dstOffset":5,"gmtOffset":5,"timeZoneId":"Asia/Dushanbe"},"lat":38.53575,"lng":68.77905,"population":679400},{"id":1514879,"name":"Khujand","timezone":{"dstOffset":5,"gmtOffset":5,"timeZoneId":"Asia/Dushanbe"},"lat":40.28256,"lng":69.62216,"population":144865},{"id":1221194,"name":"Kŭlob","timezone":{"dstOffset":5,"gmtOffset":5,"timeZoneId":"Asia/Dushanbe"},"lat":37.91458,"lng":69.78454,"population":78786},{"id":1220747,"name":"Kurgan-Tyube","timezone":{"dstOffset":5,"gmtOffset":5,"timeZoneId":"Asia/Dushanbe"},"lat":37.83399,"lng":68.78186,"population":65000},{"id":1220253,"name":"Istaravshan","timezone":{"dstOffset":5,"gmtOffset":5,"timeZoneId":"Asia/Dushanbe"},"lat":39.9142,"lng":69.00328,"population":52851},{"id":1514891,"name":"Konibodom","timezone":{"dstOffset":5,"gmtOffset":5,"timeZoneId":"Asia/Dushanbe"},"lat":40.29414,"lng":70.43122,"population":50359},{"id":1220855,"name":"Vahdat","timezone":{"dstOffset":5,"gmtOffset":5,"timeZoneId":"Asia/Dushanbe"},"lat":38.55632,"lng":69.01354,"population":45693},{"id":1220301,"name":"Tursunzoda","timezone":{"dstOffset":5,"gmtOffset":5,"timeZoneId":"Asia/Dushanbe"},"lat":38.51437,"lng":68.23327,"population":37995},{"id":1514896,"name":"Isfara","timezone":{"dstOffset":5,"gmtOffset":5,"timeZoneId":"Asia/Dushanbe"},"lat":40.12648,"lng":70.62526,"population":37738},{"id":1220798,"name":"Panjakent","timezone":{"dstOffset":5,"gmtOffset":5,"timeZoneId":"Asia/Dushanbe"},"lat":39.49524,"lng":67.60931,"population":35085},{"id":1221328,"name":"Khorugh","timezone":{"dstOffset":5,"gmtOffset":5,"timeZoneId":"Asia/Dushanbe"},"lat":37.48974,"lng":71.55304,"population":30000},{"id":1221614,"name":"Ishqoshim","timezone":{"dstOffset":5,"gmtOffset":5,"timeZoneId":"Asia/Dushanbe"},"lat":36.72484,"lng":71.61331,"population":26000},{"id":1221714,"name":"Hisor","timezone":{"dstOffset":5,"gmtOffset":5,"timeZoneId":"Asia/Dushanbe"},"lat":38.52504,"lng":68.55124,"population":23978},{"id":1222107,"name":"Boshkengash","timezone":{"dstOffset":5,"gmtOffset":5,"timeZoneId":"Asia/Dushanbe"},"lat":38.46613,"lng":68.80533,"population":23696},{"id":1221965,"name":"Danghara","timezone":{"dstOffset":5,"gmtOffset":5,"timeZoneId":"Asia/Dushanbe"},"lat":38.09578,"lng":69.33998,"population":22824},{"id":1220163,"name":"Vose’","timezone":{"dstOffset":5,"gmtOffset":5,"timeZoneId":"Asia/Dushanbe"},"lat":37.80396,"lng":69.64416,"population":21736},{"id":1220826,"name":"Farkhor","timezone":{"dstOffset":5,"gmtOffset":5,"timeZoneId":"Asia/Dushanbe"},"lat":37.49219,"lng":69.40356,"population":21736},{"id":1538311,"name":"Chkalov","timezone":{"dstOffset":5,"gmtOffset":5,"timeZoneId":"Asia/Dushanbe"},"lat":40.23417,"lng":69.69481,"population":21537},{"id":1221997,"name":"Chubek","timezone":{"dstOffset":5,"gmtOffset":5,"timeZoneId":"Asia/Dushanbe"},"lat":37.61453,"lng":69.70525,"population":19563},{"id":1221259,"name":"Kolkhozobod","timezone":{"dstOffset":5,"gmtOffset":5,"timeZoneId":"Asia/Dushanbe"},"lat":37.58823,"lng":68.65886,"population":18476},{"id":1220905,"name":"Norak","timezone":{"dstOffset":5,"gmtOffset":5,"timeZoneId":"Asia/Dushanbe"},"lat":38.38917,"lng":69.32272,"population":18122},{"id":1220112,"name":"Yovon","timezone":{"dstOffset":5,"gmtOffset":5,"timeZoneId":"Asia/Dushanbe"},"lat":38.31408,"lng":69.03784,"population":17471},{"id":1514839,"name":"Proletar","timezone":{"dstOffset":5,"gmtOffset":5,"timeZoneId":"Asia/Dushanbe"},"lat":40.16713,"lng":69.50163,"population":16441},{"id":1220219,"name":"Vakhsh","timezone":{"dstOffset":5,"gmtOffset":5,"timeZoneId":"Asia/Dushanbe"},"lat":37.71485,"lng":68.83456,"population":15215},{"id":1514856,"name":"Nov","timezone":{"dstOffset":5,"gmtOffset":5,"timeZoneId":"Asia/Dushanbe"},"lat":40.1522,"lng":69.37076,"population":13833},{"id":1514929,"name":"Adrasmon","timezone":{"dstOffset":5,"gmtOffset":5,"timeZoneId":"Asia/Dushanbe"},"lat":40.64928,"lng":69.98472,"population":13372},{"id":1514913,"name":"Bŭston","timezone":{"dstOffset":5,"gmtOffset":5,"timeZoneId":"Asia/Dushanbe"},"lat":40.52286,"lng":69.33308,"population":13043},{"id":1220576,"name":"Shahritus","timezone":{"dstOffset":5,"gmtOffset":5,"timeZoneId":"Asia/Dushanbe"},"lat":37.26206,"lng":68.13849,"population":13042},{"id":1221091,"name":"Mŭ’minobod","timezone":{"dstOffset":5,"gmtOffset":5,"timeZoneId":"Asia/Dushanbe"},"lat":38.10714,"lng":70.03213,"population":11955},{"id":1514921,"name":"Shaydon","timezone":{"dstOffset":5,"gmtOffset":5,"timeZoneId":"Asia/Dushanbe"},"lat":40.66992,"lng":70.3502,"population":11705},{"id":1514829,"name":"Taboshar","timezone":{"dstOffset":5,"gmtOffset":5,"timeZoneId":"Asia/Dushanbe"},"lat":40.57018,"lng":69.64175,"population":11578},{"id":1220962,"name":"Murghab","timezone":{"dstOffset":5,"gmtOffset":5,"timeZoneId":"Asia/Dushanbe"},"lat":38.17023,"lng":73.96674,"population":10815},{"id":1221740,"name":"Rasht","timezone":{"dstOffset":5,"gmtOffset":5,"timeZoneId":"Asia/Dushanbe"},"lat":39.02872,"lng":70.37446,"population":10771},{"id":1220888,"name":"Obigarm","timezone":{"dstOffset":5,"gmtOffset":5,"timeZoneId":"Asia/Dushanbe"},"lat":38.71731,"lng":69.70885,"population":10035},{"id":1221136,"name":"Abdurahmoni Jomí","timezone":{"dstOffset":5,"gmtOffset":5,"timeZoneId":"Asia/Dushanbe"},"lat":37.94636,"lng":68.80878,"population":9943},{"id":1221344,"name":"Khodzha-Maston","timezone":{"dstOffset":5,"gmtOffset":5,"timeZoneId":"Asia/Dushanbe"},"lat":38.74457,"lng":68.62702,"population":9781},{"id":1221871,"name":"Dŭstí","timezone":{"dstOffset":5,"gmtOffset":5,"timeZoneId":"Asia/Dushanbe"},"lat":37.34812,"lng":68.66398,"population":8700},{"id":1220446,"name":"Sovet","timezone":{"dstOffset":5,"gmtOffset":5,"timeZoneId":"Asia/Dushanbe"},"lat":38.0467,"lng":69.58822,"population":8695},{"id":1221748,"name":"Gharavŭtí","timezone":{"dstOffset":5,"gmtOffset":5,"timeZoneId":"Asia/Dushanbe"},"lat":37.56702,"lng":68.44668,"population":8474},{"id":1514844,"name":"Pakhtakoron","timezone":{"dstOffset":5,"gmtOffset":5,"timeZoneId":"Asia/Dushanbe"},"lat":40.15709,"lng":68.74659,"population":8220},{"id":1220750,"name":"Panj","timezone":{"dstOffset":5,"gmtOffset":5,"timeZoneId":"Asia/Dushanbe"},"lat":37.23634,"lng":69.09911,"population":8019},{"id":1220701,"name":"Roghun","timezone":{"dstOffset":5,"gmtOffset":5,"timeZoneId":"Asia/Dushanbe"},"lat":38.78257,"lng":69.87081,"population":7731},{"id":1221297,"name":"Kirov","timezone":{"dstOffset":5,"gmtOffset":5,"timeZoneId":"Asia/Dushanbe"},"lat":37.81908,"lng":68.85905,"population":7696},{"id":1220853,"name":"Orzu","timezone":{"dstOffset":5,"gmtOffset":5,"timeZoneId":"Asia/Dushanbe"},"lat":37.5582,"lng":68.81952,"population":5988},{"id":1221808,"name":"Jilikŭl","timezone":{"dstOffset":5,"gmtOffset":5,"timeZoneId":"Asia/Dushanbe"},"lat":37.49167,"lng":68.53106,"population":5434},{"id":1220566,"name":"Shahrinav","timezone":{"dstOffset":5,"gmtOffset":5,"timeZoneId":"Asia/Dushanbe"},"lat":38.57085,"lng":68.33498,"population":5385},{"id":1220936,"name":"Novobod","timezone":{"dstOffset":5,"gmtOffset":5,"timeZoneId":"Asia/Dushanbe"},"lat":39.01084,"lng":70.15082,"population":5352},{"id":1514889,"name":"Konsoy","timezone":{"dstOffset":5,"gmtOffset":5,"timeZoneId":"Asia/Dushanbe"},"lat":40.49155,"lng":69.70245,"population":5042},{"id":1514925,"name":"Oltintopkan","timezone":{"dstOffset":5,"gmtOffset":5,"timeZoneId":"Asia/Dushanbe"},"lat":40.65425,"lng":69.59811,"population":4823},{"id":1514852,"name":"Neftobod","timezone":{"dstOffset":5,"gmtOffset":5,"timeZoneId":"Asia/Dushanbe"},"lat":40.21524,"lng":70.57193,"population":4603},{"id":1222009,"name":"Boshchorbogh","timezone":{"dstOffset":5,"gmtOffset":5,"timeZoneId":"Asia/Dushanbe"},"lat":37.52027,"lng":68.12824,"population":4237},{"id":1222085,"name":"Bŭstonqal’a","timezone":{"dstOffset":5,"gmtOffset":5,"timeZoneId":"Asia/Dushanbe"},"lat":37.84783,"lng":68.83125,"population":4068},{"id":1514831,"name":"Shŭrob","timezone":{"dstOffset":5,"gmtOffset":5,"timeZoneId":"Asia/Dushanbe"},"lat":40.04605,"lng":70.54117,"population":3984},{"id":1220164,"name":"Vorukh","timezone":{"dstOffset":5,"gmtOffset":5,"timeZoneId":"Asia/Dushanbe"},"lat":39.85125,"lng":70.58012,"population":3836},{"id":1514843,"name":"Palos","timezone":{"dstOffset":5,"gmtOffset":5,"timeZoneId":"Asia/Dushanbe"},"lat":40.31628,"lng":69.73743,"population":3288},{"id":1514870,"name":"Quruqsoy","timezone":{"dstOffset":5,"gmtOffset":5,"timeZoneId":"Asia/Dushanbe"},"lat":40.57648,"lng":69.37962,"population":3288},{"id":1221494,"name":"Karakenja","timezone":{"dstOffset":5,"gmtOffset":5,"timeZoneId":"Asia/Dushanbe"},"lat":39.23585,"lng":71.52412,"population":2899},{"id":1220401,"name":"Tagob","timezone":{"dstOffset":5,"gmtOffset":5,"timeZoneId":"Asia/Dushanbe"},"lat":38.83827,"lng":68.89847,"population":2565},{"id":1514877,"name":"Kim","timezone":{"dstOffset":5,"gmtOffset":5,"timeZoneId":"Asia/Dushanbe"},"lat":40.20798,"lng":70.46882,"population":2411},{"id":1220380,"name":"Tartiki","timezone":{"dstOffset":5,"gmtOffset":5,"timeZoneId":"Asia/Dushanbe"},"lat":37.58221,"lng":68.13347,"population":2342},{"id":1220197,"name":"Varzob","timezone":{"dstOffset":5,"gmtOffset":5,"timeZoneId":"Asia/Dushanbe"},"lat":38.77369,"lng":68.81776,"population":2154},{"id":1222222,"name":"Ayní","timezone":{"dstOffset":5,"gmtOffset":5,"timeZoneId":"Asia/Dushanbe"},"lat":39.39406,"lng":68.53766,"population":2128},{"id":1221250,"name":"Darband","timezone":{"dstOffset":5,"gmtOffset":5,"timeZoneId":"Asia/Dushanbe"},"lat":38.86776,"lng":69.96642,"population":1115},{"id":1220210,"name":"Vanj","timezone":{"dstOffset":5,"gmtOffset":5,"timeZoneId":"Asia/Dushanbe"},"lat":38.37078,"lng":71.45474,"population":0},{"id":1220479,"name":"Shŭrobod","timezone":{"dstOffset":5,"gmtOffset":5,"timeZoneId":"Asia/Dushanbe"},"lat":37.84137,"lng":70.04865,"population":0},{"id":1220571,"name":"Shahriston","timezone":{"dstOffset":5,"gmtOffset":5,"timeZoneId":"Asia/Dushanbe"},"lat":39.77447,"lng":68.80929,"population":0},{"id":1220685,"name":"Rŭshon","timezone":{"dstOffset":5,"gmtOffset":5,"timeZoneId":"Asia/Dushanbe"},"lat":37.94487,"lng":71.55744,"population":0},{"id":1220694,"name":"Roshtqal’a","timezone":{"dstOffset":5,"gmtOffset":5,"timeZoneId":"Asia/Dushanbe"},"lat":37.25827,"lng":71.82591,"population":0},{"id":1220862,"name":"Ismoili Somoní","timezone":{"dstOffset":5,"gmtOffset":5,"timeZoneId":"Asia/Dushanbe"},"lat":37.76627,"lng":68.80126,"population":0},{"id":1220883,"name":"Obikiik","timezone":{"dstOffset":5,"gmtOffset":5,"timeZoneId":"Asia/Dushanbe"},"lat":38.16033,"lng":68.66605,"population":0},{"id":1220988,"name":"Moskva","timezone":{"dstOffset":5,"gmtOffset":5,"timeZoneId":"Asia/Dushanbe"},"lat":37.66101,"lng":69.62849,"population":0},{"id":1221321,"name":"Khovaling","timezone":{"dstOffset":5,"gmtOffset":5,"timeZoneId":"Asia/Dushanbe"},"lat":38.34194,"lng":69.97531,"population":0},{"id":1221549,"name":"Sarband","timezone":{"dstOffset":5,"gmtOffset":5,"timeZoneId":"Asia/Dushanbe"},"lat":37.87136,"lng":68.92233,"population":0},{"id":1221559,"name":"Qalaikhumb","timezone":{"dstOffset":5,"gmtOffset":5,"timeZoneId":"Asia/Dushanbe"},"lat":38.45373,"lng":70.78902,"population":0},{"id":1221583,"name":"Qubodiyon","timezone":{"dstOffset":5,"gmtOffset":5,"timeZoneId":"Asia/Dushanbe"},"lat":37.40973,"lng":68.18644,"population":0},{"id":1221758,"name":"Ghonchí","timezone":{"dstOffset":5,"gmtOffset":5,"timeZoneId":"Asia/Dushanbe"},"lat":39.96238,"lng":69.12966,"population":0},{"id":1222192,"name":"Baljuvon","timezone":{"dstOffset":5,"gmtOffset":5,"timeZoneId":"Asia/Dushanbe"},"lat":38.30838,"lng":69.67672,"population":0},{"id":1514815,"name":"Zafarobod","timezone":{"dstOffset":5,"gmtOffset":5,"timeZoneId":"Asia/Dushanbe"},"lat":40.17603,"lng":68.84679,"population":0},{"id":1514900,"name":"Ghafurov","timezone":{"dstOffset":5,"gmtOffset":5,"timeZoneId":"Asia/Dushanbe"},"lat":40.21571,"lng":69.72867,"population":0},{"id":1475483,"name":"Bahorí","timezone":{"dstOffset":5,"gmtOffset":5,"timeZoneId":"Asia/Dushanbe"},"lat":37.40195,"lng":67.99446,"population":0},{"id":8217253,"name":"Mehron","timezone":{"dstOffset":5,"gmtOffset":5,"timeZoneId":"Asia/Dushanbe"},"lat":39.41691,"lng":69.28677,"population":0}]