[{"id":2464470,"name":"Tunis","timezone":{"dstOffset":1,"gmtOffset":1,"timeZoneId":"Africa/Tunis"},"lat":36.81897,"lng":10.16579,"population":693210},{"id":2467454,"name":"Sfax","timezone":{"dstOffset":1,"gmtOffset":1,"timeZoneId":"Africa/Tunis"},"lat":34.74056,"lng":10.76028,"population":277278},{"id":2464915,"name":"Sousse","timezone":{"dstOffset":1,"gmtOffset":1,"timeZoneId":"Africa/Tunis"},"lat":35.82539,"lng":10.63699,"population":164123},{"id":2468925,"name":"Midoun","timezone":{"dstOffset":1,"gmtOffset":1,"timeZoneId":"Africa/Tunis"},"lat":33.80813,"lng":10.99228,"population":120000},{"id":2473449,"name":"Kairouan","timezone":{"dstOffset":1,"gmtOffset":1,"timeZoneId":"Africa/Tunis"},"lat":35.6781,"lng":10.09633,"population":119794},{"id":2472706,"name":"Bizerte","timezone":{"dstOffset":1,"gmtOffset":1,"timeZoneId":"Africa/Tunis"},"lat":37.27442,"lng":9.87391,"population":115268},{"id":2468369,"name":"Gabès","timezone":{"dstOffset":1,"gmtOffset":1,"timeZoneId":"Africa/Tunis"},"lat":33.88146,"lng":10.0982,"population":110075},{"id":2473247,"name":"Ariana","timezone":{"dstOffset":1,"gmtOffset":1,"timeZoneId":"Africa/Tunis"},"lat":36.86012,"lng":10.19337,"population":97687},{"id":2473457,"name":"Kasserine","timezone":{"dstOffset":1,"gmtOffset":1,"timeZoneId":"Africa/Tunis"},"lat":35.16758,"lng":8.83651,"population":81987},{"id":2468353,"name":"Gafsa","timezone":{"dstOffset":1,"gmtOffset":1,"timeZoneId":"Africa/Tunis"},"lat":34.425,"lng":8.78417,"population":81232},{"id":2470656,"name":"La Goulette","timezone":{"dstOffset":1,"gmtOffset":1,"timeZoneId":"Africa/Tunis"},"lat":36.81806,"lng":10.305,"population":79795},{"id":2470173,"name":"Zarzis","timezone":{"dstOffset":1,"gmtOffset":1,"timeZoneId":"Africa/Tunis"},"lat":33.50398,"lng":11.11216,"population":79316},{"id":2472479,"name":"Ben Arous","timezone":{"dstOffset":1,"gmtOffset":1,"timeZoneId":"Africa/Tunis"},"lat":36.75306,"lng":10.21889,"population":74932},{"id":2473493,"name":"Monastir","timezone":{"dstOffset":1,"gmtOffset":1,"timeZoneId":"Africa/Tunis"},"lat":35.77799,"lng":10.82617,"population":71546},{"id":2473499,"name":"La Mohammedia","timezone":{"dstOffset":1,"gmtOffset":1,"timeZoneId":"Africa/Tunis"},"lat":36.67446,"lng":10.15633,"population":66593},{"id":2473540,"name":"La Marsa","timezone":{"dstOffset":1,"gmtOffset":1,"timeZoneId":"Africa/Tunis"},"lat":36.87818,"lng":10.32466,"population":65640},{"id":2469140,"name":"Masakin","timezone":{"dstOffset":1,"gmtOffset":1,"timeZoneId":"Africa/Tunis"},"lat":35.72917,"lng":10.58082,"population":64563},{"id":2467246,"name":"Şaqānis","timezone":{"dstOffset":1,"gmtOffset":1,"timeZoneId":"Africa/Tunis"},"lat":35.78333,"lng":10.8,"population":64222},{"id":2470384,"name":"Houmt Souk","timezone":{"dstOffset":1,"gmtOffset":1,"timeZoneId":"Africa/Tunis"},"lat":33.87576,"lng":10.85745,"population":62583},{"id":2464701,"name":"Tataouine","timezone":{"dstOffset":1,"gmtOffset":1,"timeZoneId":"Africa/Tunis"},"lat":32.92967,"lng":10.45177,"population":62577},{"id":2473747,"name":"El Hamma","timezone":{"dstOffset":1,"gmtOffset":1,"timeZoneId":"Africa/Tunis"},"lat":33.89152,"lng":9.79629,"population":62000},{"id":2469473,"name":"Medenine","timezone":{"dstOffset":1,"gmtOffset":1,"timeZoneId":"Africa/Tunis"},"lat":33.35495,"lng":10.50548,"population":61705},{"id":2581754,"name":"Douane","timezone":{"dstOffset":1,"gmtOffset":1,"timeZoneId":"Africa/Tunis"},"lat":36.44766,"lng":10.7557,"population":60192},{"id":2472774,"name":"Béja","timezone":{"dstOffset":1,"gmtOffset":1,"timeZoneId":"Africa/Tunis"},"lat":36.72564,"lng":9.18169,"population":57233},{"id":2468579,"name":"Nabeul","timezone":{"dstOffset":1,"gmtOffset":1,"timeZoneId":"Africa/Tunis"},"lat":36.45606,"lng":10.73763,"population":56387},{"id":2473744,"name":"Hammamet","timezone":{"dstOffset":1,"gmtOffset":1,"timeZoneId":"Africa/Tunis"},"lat":36.4,"lng":10.61667,"population":53733},{"id":2470088,"name":"Jendouba","timezone":{"dstOffset":1,"gmtOffset":1,"timeZoneId":"Africa/Tunis"},"lat":36.50114,"lng":8.78024,"population":51408},{"id":2473634,"name":"El Kef","timezone":{"dstOffset":1,"gmtOffset":1,"timeZoneId":"Africa/Tunis"},"lat":36.17424,"lng":8.70486,"population":47979},{"id":2470588,"name":"Hammam-Lif","timezone":{"dstOffset":1,"gmtOffset":1,"timeZoneId":"Africa/Tunis"},"lat":36.72866,"lng":10.34163,"population":47760},{"id":2464168,"name":"Oued Lill","timezone":{"dstOffset":1,"gmtOffset":1,"timeZoneId":"Africa/Tunis"},"lat":36.83408,"lng":10.04057,"population":47101},{"id":2469264,"name":"Menzel Bourguiba","timezone":{"dstOffset":1,"gmtOffset":1,"timeZoneId":"Africa/Tunis"},"lat":37.15368,"lng":9.78594,"population":46245},{"id":2473572,"name":"Mahdia","timezone":{"dstOffset":1,"gmtOffset":1,"timeZoneId":"Africa/Tunis"},"lat":35.50472,"lng":11.06222,"population":45977},{"id":2472833,"name":"Zouila","timezone":{"dstOffset":1,"gmtOffset":1,"timeZoneId":"Africa/Tunis"},"lat":35.50056,"lng":11.06056,"population":44349},{"id":2467815,"name":"Radès","timezone":{"dstOffset":1,"gmtOffset":1,"timeZoneId":"Africa/Tunis"},"lat":36.76806,"lng":10.27528,"population":44298},{"id":2467959,"name":"Kelibia","timezone":{"dstOffset":1,"gmtOffset":1,"timeZoneId":"Africa/Tunis"},"lat":36.84757,"lng":11.09386,"population":43209},{"id":2465840,"name":"Sidi Bouzid","timezone":{"dstOffset":1,"gmtOffset":1,"timeZoneId":"Africa/Tunis"},"lat":35.03823,"lng":9.48494,"population":42098},{"id":2473517,"name":"Al Metlaoui","timezone":{"dstOffset":1,"gmtOffset":1,"timeZoneId":"Africa/Tunis"},"lat":34.32081,"lng":8.40158,"population":41899},{"id":2470191,"name":"Jammāl","timezone":{"dstOffset":1,"gmtOffset":1,"timeZoneId":"Africa/Tunis"},"lat":35.62231,"lng":10.75696,"population":39990},{"id":2468106,"name":"Qaşr Hallāl","timezone":{"dstOffset":1,"gmtOffset":1,"timeZoneId":"Africa/Tunis"},"lat":35.64773,"lng":10.89046,"population":39792},{"id":2464648,"name":"Tozeur","timezone":{"dstOffset":1,"gmtOffset":1,"timeZoneId":"Africa/Tunis"},"lat":33.91968,"lng":8.13352,"population":34943},{"id":2471637,"name":"Dar Chabanne","timezone":{"dstOffset":1,"gmtOffset":1,"timeZoneId":"Africa/Tunis"},"lat":36.46798,"lng":10.75167,"population":33953},{"id":2470579,"name":"Hammam Sousse","timezone":{"dstOffset":1,"gmtOffset":1,"timeZoneId":"Africa/Tunis"},"lat":35.8609,"lng":10.60313,"population":33834},{"id":2473470,"name":"Al Qarmadah","timezone":{"dstOffset":1,"gmtOffset":1,"timeZoneId":"Africa/Tunis"},"lat":34.75,"lng":10.78333,"population":33744},{"id":2467920,"name":"Korba","timezone":{"dstOffset":1,"gmtOffset":1,"timeZoneId":"Africa/Tunis"},"lat":36.57861,"lng":10.85861,"population":33589},{"id":2467521,"name":"La Sebala du Mornag","timezone":{"dstOffset":1,"gmtOffset":1,"timeZoneId":"Africa/Tunis"},"lat":36.67931,"lng":10.29195,"population":33421},{"id":2469088,"name":"Mateur","timezone":{"dstOffset":1,"gmtOffset":1,"timeZoneId":"Africa/Tunis"},"lat":37.04045,"lng":9.66557,"population":31005},{"id":2473257,"name":"Ar Rudayyif","timezone":{"dstOffset":1,"gmtOffset":1,"timeZoneId":"Africa/Tunis"},"lat":34.3827,"lng":8.15549,"population":30048},{"id":2471287,"name":"Douz","timezone":{"dstOffset":1,"gmtOffset":1,"timeZoneId":"Africa/Tunis"},"lat":33.46632,"lng":9.0203,"population":28127},{"id":2467856,"name":"Ksour Essaf","timezone":{"dstOffset":1,"gmtOffset":1,"timeZoneId":"Africa/Tunis"},"lat":35.41808,"lng":10.99475,"population":27936},{"id":2465030,"name":"Siliana","timezone":{"dstOffset":1,"gmtOffset":1,"timeZoneId":"Africa/Tunis"},"lat":36.08497,"lng":9.37082,"population":26960},{"id":2469274,"name":"Manouba","timezone":{"dstOffset":1,"gmtOffset":1,"timeZoneId":"Africa/Tunis"},"lat":36.80803,"lng":10.0972,"population":24948},{"id":2468561,"name":"Nefta","timezone":{"dstOffset":1,"gmtOffset":1,"timeZoneId":"Africa/Tunis"},"lat":33.87309,"lng":7.87765,"population":21720},{"id":2473229,"name":"Chebba","timezone":{"dstOffset":1,"gmtOffset":1,"timeZoneId":"Africa/Tunis"},"lat":35.23722,"lng":11.115,"population":21559},{"id":2469256,"name":"Menzel Jemil","timezone":{"dstOffset":1,"gmtOffset":1,"timeZoneId":"Africa/Tunis"},"lat":37.23618,"lng":9.91448,"population":21542},{"id":2464804,"name":"Tāklisah","timezone":{"dstOffset":1,"gmtOffset":1,"timeZoneId":"Africa/Tunis"},"lat":36.78333,"lng":10.63333,"population":20659},{"id":2469386,"name":"Majāz al Bāb","timezone":{"dstOffset":1,"gmtOffset":1,"timeZoneId":"Africa/Tunis"},"lat":36.64964,"lng":9.61231,"population":20118},{"id":2473654,"name":"El Jem","timezone":{"dstOffset":1,"gmtOffset":1,"timeZoneId":"Africa/Tunis"},"lat":35.3,"lng":10.71667,"population":20029},{"id":2473913,"name":"Akouda","timezone":{"dstOffset":1,"gmtOffset":1,"timeZoneId":"Africa/Tunis"},"lat":35.8691,"lng":10.5653,"population":20027},{"id":2468018,"name":"Kebili","timezone":{"dstOffset":1,"gmtOffset":1,"timeZoneId":"Africa/Tunis"},"lat":33.70439,"lng":8.96903,"population":19875},{"id":2464809,"name":"Tajerouine","timezone":{"dstOffset":1,"gmtOffset":1,"timeZoneId":"Africa/Tunis"},"lat":35.89174,"lng":8.55276,"population":18909},{"id":2471475,"name":"Dawwār Tīnjah","timezone":{"dstOffset":1,"gmtOffset":1,"timeZoneId":"Africa/Tunis"},"lat":37.16667,"lng":9.75,"population":18551},{"id":2473420,"name":"Al Wardānīn","timezone":{"dstOffset":1,"gmtOffset":1,"timeZoneId":"Africa/Tunis"},"lat":35.70915,"lng":10.67397,"population":18287},{"id":2468285,"name":"El Fahs","timezone":{"dstOffset":1,"gmtOffset":1,"timeZoneId":"Africa/Tunis"},"lat":36.37419,"lng":9.90651,"population":18083},{"id":2472722,"name":"Beni Khiar","timezone":{"dstOffset":1,"gmtOffset":1,"timeZoneId":"Africa/Tunis"},"lat":36.46917,"lng":10.78222,"population":18011},{"id":2464041,"name":"Zaghouan","timezone":{"dstOffset":1,"gmtOffset":1,"timeZoneId":"Africa/Tunis"},"lat":36.40291,"lng":10.14292,"population":16911},{"id":2469262,"name":"Manzil Bū Zalafah","timezone":{"dstOffset":1,"gmtOffset":1,"timeZoneId":"Africa/Tunis"},"lat":36.68312,"lng":10.58431,"population":16231},{"id":2473876,"name":"Al ‘Āliyah","timezone":{"dstOffset":1,"gmtOffset":1,"timeZoneId":"Africa/Tunis"},"lat":37.1691,"lng":10.03478,"population":16083},{"id":2464795,"name":"Thala","timezone":{"dstOffset":1,"gmtOffset":1,"timeZoneId":"Africa/Tunis"},"lat":35.57244,"lng":8.67031,"population":16068},{"id":2473826,"name":"Al Baqāliţah","timezone":{"dstOffset":1,"gmtOffset":1,"timeZoneId":"Africa/Tunis"},"lat":35.61739,"lng":10.99466,"population":15937},{"id":2468245,"name":"Carthage","timezone":{"dstOffset":1,"gmtOffset":1,"timeZoneId":"Africa/Tunis"},"lat":36.86108,"lng":10.33161,"population":15922},{"id":2469268,"name":"Menzel Abderhaman","timezone":{"dstOffset":1,"gmtOffset":1,"timeZoneId":"Africa/Tunis"},"lat":37.23737,"lng":9.86313,"population":15769},{"id":2468329,"name":"Qal‘at al Andalus","timezone":{"dstOffset":1,"gmtOffset":1,"timeZoneId":"Africa/Tunis"},"lat":37.0629,"lng":10.11829,"population":15313},{"id":2469341,"name":"Maktar","timezone":{"dstOffset":1,"gmtOffset":1,"timeZoneId":"Africa/Tunis"},"lat":35.85798,"lng":9.20072,"population":14500},{"id":2473190,"name":"Sahline","timezone":{"dstOffset":1,"gmtOffset":1,"timeZoneId":"Africa/Tunis"},"lat":35.75166,"lng":10.71109,"population":13806},{"id":2473169,"name":"Aş Şayyādah","timezone":{"dstOffset":1,"gmtOffset":1,"timeZoneId":"Africa/Tunis"},"lat":35.66887,"lng":10.89246,"population":13718},{"id":2464871,"name":"Tabarka","timezone":{"dstOffset":1,"gmtOffset":1,"timeZoneId":"Africa/Tunis"},"lat":36.95442,"lng":8.75801,"population":13712},{"id":2464704,"name":"Tastūr","timezone":{"dstOffset":1,"gmtOffset":1,"timeZoneId":"Africa/Tunis"},"lat":36.5513,"lng":9.44307,"population":13708},{"id":2472431,"name":"Bin Qirdān","timezone":{"dstOffset":1,"gmtOffset":1,"timeZoneId":"Africa/Tunis"},"lat":33.13783,"lng":11.21965,"population":13364},{"id":2464855,"name":"Tabursuq","timezone":{"dstOffset":1,"gmtOffset":1,"timeZoneId":"Africa/Tunis"},"lat":36.45692,"lng":9.24751,"population":12727},{"id":2472744,"name":"Banbalah","timezone":{"dstOffset":1,"gmtOffset":1,"timeZoneId":"Africa/Tunis"},"lat":35.7,"lng":10.8,"population":12367},{"id":2472261,"name":"Bū ‘Arādah","timezone":{"dstOffset":1,"gmtOffset":1,"timeZoneId":"Africa/Tunis"},"lat":36.35251,"lng":9.62175,"population":12158},{"id":2467890,"name":"Quşaybat al Madyūnī","timezone":{"dstOffset":1,"gmtOffset":1,"timeZoneId":"Africa/Tunis"},"lat":35.68562,"lng":10.84256,"population":11313},{"id":2472724,"name":"Banī Khallād","timezone":{"dstOffset":1,"gmtOffset":1,"timeZoneId":"Africa/Tunis"},"lat":36.65038,"lng":10.59004,"population":11300},{"id":2473177,"name":"As Sars","timezone":{"dstOffset":1,"gmtOffset":1,"timeZoneId":"Africa/Tunis"},"lat":36.0764,"lng":9.02118,"population":10979},{"id":2468349,"name":"Qa‘fūr","timezone":{"dstOffset":1,"gmtOffset":1,"timeZoneId":"Africa/Tunis"},"lat":36.32045,"lng":9.32424,"population":10556},{"id":2471915,"name":"Bū ‘Urqūb","timezone":{"dstOffset":1,"gmtOffset":1,"timeZoneId":"Africa/Tunis"},"lat":36.53853,"lng":10.55093,"population":10024},{"id":2473716,"name":"El Haouaria","timezone":{"dstOffset":1,"gmtOffset":1,"timeZoneId":"Africa/Tunis"},"lat":37.05002,"lng":11.01442,"population":9273},{"id":2467813,"name":"Rafrāf","timezone":{"dstOffset":1,"gmtOffset":1,"timeZoneId":"Africa/Tunis"},"lat":37.19043,"lng":10.18365,"population":9255},{"id":2473161,"name":"Skhira","timezone":{"dstOffset":1,"gmtOffset":1,"timeZoneId":"Africa/Tunis"},"lat":34.2992,"lng":10.06999,"population":9211},{"id":2466034,"name":"Sidi Bou Ali","timezone":{"dstOffset":1,"gmtOffset":1,"timeZoneId":"Africa/Tunis"},"lat":35.95667,"lng":10.47306,"population":8855},{"id":2469255,"name":"Manzil Kāmil","timezone":{"dstOffset":1,"gmtOffset":1,"timeZoneId":"Africa/Tunis"},"lat":35.62477,"lng":10.66727,"population":8314},{"id":2472732,"name":"Banī Ḩassān","timezone":{"dstOffset":1,"gmtOffset":1,"timeZoneId":"Africa/Tunis"},"lat":35.5672,"lng":10.80869,"population":8139},{"id":2471454,"name":"Degache","timezone":{"dstOffset":1,"gmtOffset":1,"timeZoneId":"Africa/Tunis"},"lat":33.97606,"lng":8.2081,"population":8134},{"id":2473183,"name":"As Sanad","timezone":{"dstOffset":1,"gmtOffset":1,"timeZoneId":"Africa/Tunis"},"lat":34.4628,"lng":9.26404,"population":7859},{"id":2470800,"name":"Haffouz","timezone":{"dstOffset":1,"gmtOffset":1,"timeZoneId":"Africa/Tunis"},"lat":35.63235,"lng":9.67624,"population":7765},{"id":2473628,"name":"Al Karīb","timezone":{"dstOffset":1,"gmtOffset":1,"timeZoneId":"Africa/Tunis"},"lat":36.32802,"lng":9.13613,"population":7691},{"id":2473533,"name":"Al Matlīn","timezone":{"dstOffset":1,"gmtOffset":1,"timeZoneId":"Africa/Tunis"},"lat":37.24516,"lng":10.05,"population":7370},{"id":2470260,"name":"Jabinyānah","timezone":{"dstOffset":1,"gmtOffset":1,"timeZoneId":"Africa/Tunis"},"lat":35.035,"lng":10.90809,"population":7349},{"id":2473486,"name":"El Golaa","timezone":{"dstOffset":1,"gmtOffset":1,"timeZoneId":"Africa/Tunis"},"lat":33.48485,"lng":9.00678,"population":7189},{"id":2473163,"name":"Sbikha","timezone":{"dstOffset":1,"gmtOffset":1,"timeZoneId":"Africa/Tunis"},"lat":35.93325,"lng":10.02081,"population":7062},{"id":2465138,"name":"Sidi Alouane","timezone":{"dstOffset":1,"gmtOffset":1,"timeZoneId":"Africa/Tunis"},"lat":35.37505,"lng":10.93899,"population":7051},{"id":2473558,"name":"El Maamoura","timezone":{"dstOffset":1,"gmtOffset":1,"timeZoneId":"Africa/Tunis"},"lat":36.46499,"lng":10.80612,"population":6969},{"id":2470483,"name":"Hergla","timezone":{"dstOffset":1,"gmtOffset":1,"timeZoneId":"Africa/Tunis"},"lat":36.03027,"lng":10.50904,"population":6942},{"id":2473258,"name":"Ar Riqāb","timezone":{"dstOffset":1,"gmtOffset":1,"timeZoneId":"Africa/Tunis"},"lat":34.85932,"lng":9.78654,"population":6702},{"id":2463951,"name":"Zāwiyat al Jadīdī","timezone":{"dstOffset":1,"gmtOffset":1,"timeZoneId":"Africa/Tunis"},"lat":36.64375,"lng":10.57428,"population":6583},{"id":2467239,"name":"Sakiet Sidi Youssef","timezone":{"dstOffset":1,"gmtOffset":1,"timeZoneId":"Africa/Tunis"},"lat":36.22292,"lng":8.35547,"population":6442},{"id":2469321,"name":"Melloulèche","timezone":{"dstOffset":1,"gmtOffset":1,"timeZoneId":"Africa/Tunis"},"lat":35.16617,"lng":11.03504,"population":6441},{"id":2466897,"name":"Shurbān","timezone":{"dstOffset":1,"gmtOffset":1,"timeZoneId":"Africa/Tunis"},"lat":35.28581,"lng":10.3858,"population":6430},{"id":2467506,"name":"Sbiba","timezone":{"dstOffset":1,"gmtOffset":1,"timeZoneId":"Africa/Tunis"},"lat":35.54332,"lng":9.0737,"population":6291},{"id":2470189,"name":"Jemna","timezone":{"dstOffset":1,"gmtOffset":1,"timeZoneId":"Africa/Tunis"},"lat":33.57778,"lng":9.01472,"population":6254},{"id":2464427,"name":"Ţūzah","timezone":{"dstOffset":1,"gmtOffset":1,"timeZoneId":"Africa/Tunis"},"lat":35.63544,"lng":10.82732,"population":6085},{"id":2473823,"name":"El Battan","timezone":{"dstOffset":1,"gmtOffset":1,"timeZoneId":"Africa/Tunis"},"lat":36.80368,"lng":9.84424,"population":6047},{"id":6355180,"name":"Port el Kantaoui","timezone":{"dstOffset":1,"gmtOffset":1,"timeZoneId":"Africa/Tunis"},"lat":35.89239,"lng":10.59434,"population":6000},{"id":2470120,"name":"Jilma","timezone":{"dstOffset":1,"gmtOffset":1,"timeZoneId":"Africa/Tunis"},"lat":35.27311,"lng":9.42385,"population":5647},{"id":2473525,"name":"Al Mazzūnah","timezone":{"dstOffset":1,"gmtOffset":1,"timeZoneId":"Africa/Tunis"},"lat":34.57758,"lng":9.84193,"population":5564},{"id":2469571,"name":"Lamţah","timezone":{"dstOffset":1,"gmtOffset":1,"timeZoneId":"Africa/Tunis"},"lat":35.66667,"lng":10.88333,"population":5382},{"id":2473439,"name":"El Ksour","timezone":{"dstOffset":1,"gmtOffset":1,"timeZoneId":"Africa/Tunis"},"lat":35.89607,"lng":8.88493,"population":5034},{"id":2470996,"name":"Ghār al Milḩ","timezone":{"dstOffset":1,"gmtOffset":1,"timeZoneId":"Africa/Tunis"},"lat":37.16939,"lng":10.19064,"population":5018},{"id":2472380,"name":"Bi’r al Ḩufayy","timezone":{"dstOffset":1,"gmtOffset":1,"timeZoneId":"Africa/Tunis"},"lat":34.93212,"lng":9.19321,"population":5016},{"id":2467368,"name":"Sejenane","timezone":{"dstOffset":1,"gmtOffset":1,"timeZoneId":"Africa/Tunis"},"lat":37.05722,"lng":9.23806,"population":5009},{"id":2466688,"name":"Sidi Bou Said","timezone":{"dstOffset":1,"gmtOffset":1,"timeZoneId":"Africa/Tunis"},"lat":36.8687,"lng":10.34174,"population":5000},{"id":2472379,"name":"Bi’r ‘Alī Bin Khalīfah","timezone":{"dstOffset":1,"gmtOffset":1,"timeZoneId":"Africa/Tunis"},"lat":34.73592,"lng":10.0924,"population":4864},{"id":2469258,"name":"Menzel Heurr","timezone":{"dstOffset":1,"gmtOffset":1,"timeZoneId":"Africa/Tunis"},"lat":36.72818,"lng":10.95756,"population":4717},{"id":2467783,"name":"Remada","timezone":{"dstOffset":1,"gmtOffset":1,"timeZoneId":"Africa/Tunis"},"lat":32.31662,"lng":10.39551,"population":4322},{"id":2473264,"name":"Rohia","timezone":{"dstOffset":1,"gmtOffset":1,"timeZoneId":"Africa/Tunis"},"lat":35.65129,"lng":9.05306,"population":4231},{"id":2466075,"name":"Sīdī Bin Nūr","timezone":{"dstOffset":1,"gmtOffset":1,"timeZoneId":"Africa/Tunis"},"lat":35.53333,"lng":10.91667,"population":4042},{"id":2464037,"name":"Zahānah","timezone":{"dstOffset":1,"gmtOffset":1,"timeZoneId":"Africa/Tunis"},"lat":37.03959,"lng":10.03876,"population":3765},{"id":2473514,"name":"El Mida","timezone":{"dstOffset":1,"gmtOffset":1,"timeZoneId":"Africa/Tunis"},"lat":36.72556,"lng":10.85528,"population":3602},{"id":2472726,"name":"Banī Khaddāsh","timezone":{"dstOffset":1,"gmtOffset":1,"timeZoneId":"Africa/Tunis"},"lat":33.2528,"lng":10.19883,"population":3588},{"id":2467914,"name":"Korbous","timezone":{"dstOffset":1,"gmtOffset":1,"timeZoneId":"Africa/Tunis"},"lat":36.81668,"lng":10.56865,"population":3581},{"id":2467341,"name":"Salakta","timezone":{"dstOffset":1,"gmtOffset":1,"timeZoneId":"Africa/Tunis"},"lat":35.39444,"lng":11.04361,"population":3477},{"id":2468459,"name":"Nibbar","timezone":{"dstOffset":1,"gmtOffset":1,"timeZoneId":"Africa/Tunis"},"lat":36.29411,"lng":8.76657,"population":3393},{"id":2473537,"name":"El Masdour","timezone":{"dstOffset":1,"gmtOffset":1,"timeZoneId":"Africa/Tunis"},"lat":35.68206,"lng":10.72746,"population":3372},{"id":2467980,"name":"Quballāţ","timezone":{"dstOffset":1,"gmtOffset":1,"timeZoneId":"Africa/Tunis"},"lat":36.54178,"lng":9.66334,"population":3353},{"id":2469252,"name":"Manzil Sālim","timezone":{"dstOffset":1,"gmtOffset":1,"timeZoneId":"Africa/Tunis"},"lat":35.85673,"lng":8.47654,"population":2856},{"id":2466499,"name":"Sidi el Hani","timezone":{"dstOffset":1,"gmtOffset":1,"timeZoneId":"Africa/Tunis"},"lat":35.67139,"lng":10.31583,"population":2820},{"id":2464770,"name":"Tamerza","timezone":{"dstOffset":1,"gmtOffset":1,"timeZoneId":"Africa/Tunis"},"lat":34.38849,"lng":7.94313,"population":2750},{"id":2472247,"name":"Bou Attouche","timezone":{"dstOffset":1,"gmtOffset":1,"timeZoneId":"Africa/Tunis"},"lat":33.89927,"lng":9.78496,"population":2700},{"id":2469744,"name":"Kesra","timezone":{"dstOffset":1,"gmtOffset":1,"timeZoneId":"Africa/Tunis"},"lat":35.81364,"lng":9.36434,"population":2598},{"id":2463810,"name":"Matmata","timezone":{"dstOffset":1,"gmtOffset":1,"timeZoneId":"Africa/Tunis"},"lat":33.54445,"lng":9.97157,"population":2406},{"id":2464157,"name":"Wādī Malīz","timezone":{"dstOffset":1,"gmtOffset":1,"timeZoneId":"Africa/Tunis"},"lat":36.46813,"lng":8.54951,"population":2148},{"id":2473788,"name":"Al Firnānah","timezone":{"dstOffset":1,"gmtOffset":1,"timeZoneId":"Africa/Tunis"},"lat":36.65547,"lng":8.69602,"population":1962},{"id":2467077,"name":"Chebika","timezone":{"dstOffset":1,"gmtOffset":1,"timeZoneId":"Africa/Tunis"},"lat":34.31909,"lng":7.93519,"population":1820}]