[{"id":1566083,"name":"Ho Chi Minh City","timezone":{"dstOffset":7,"gmtOffset":7,"timeZoneId":"Asia/Ho_Chi_Minh"},"lat":10.82302,"lng":106.62965,"population":3467331},{"id":1581130,"name":"Hanoi","timezone":{"dstOffset":7,"gmtOffset":7,"timeZoneId":"Asia/Ho_Chi_Minh"},"lat":21.0245,"lng":105.84117,"population":1431270},{"id":1583992,"name":"Da Nang","timezone":{"dstOffset":7,"gmtOffset":7,"timeZoneId":"Asia/Ho_Chi_Minh"},"lat":16.06778,"lng":108.22083,"population":752493},{"id":1581298,"name":"Haiphong","timezone":{"dstOffset":7,"gmtOffset":7,"timeZoneId":"Asia/Ho_Chi_Minh"},"lat":20.86481,"lng":106.68345,"population":602695},{"id":1587923,"name":"Biên Hòa","timezone":{"dstOffset":7,"gmtOffset":7,"timeZoneId":"Asia/Ho_Chi_Minh"},"lat":10.94469,"lng":106.82432,"population":407208},{"id":1580240,"name":"Huế","timezone":{"dstOffset":7,"gmtOffset":7,"timeZoneId":"Asia/Ho_Chi_Minh"},"lat":16.4619,"lng":107.59546,"population":287217},{"id":1572151,"name":"Nha Trang","timezone":{"dstOffset":7,"gmtOffset":7,"timeZoneId":"Asia/Ho_Chi_Minh"},"lat":12.24507,"lng":109.19432,"population":283441},{"id":1586203,"name":"Can Tho","timezone":{"dstOffset":7,"gmtOffset":7,"timeZoneId":"Asia/Ho_Chi_Minh"},"lat":10.0371,"lng":105.78825,"population":259598},{"id":1568510,"name":"Rach Gia","timezone":{"dstOffset":7,"gmtOffset":7,"timeZoneId":"Asia/Ho_Chi_Minh"},"lat":10.01245,"lng":105.08091,"population":228356},{"id":1568574,"name":"Qui Nhon","timezone":{"dstOffset":7,"gmtOffset":7,"timeZoneId":"Asia/Ho_Chi_Minh"},"lat":13.77648,"lng":109.22367,"population":210338},{"id":1562414,"name":"Vũng Tàu","timezone":{"dstOffset":7,"gmtOffset":7,"timeZoneId":"Asia/Ho_Chi_Minh"},"lat":10.34599,"lng":107.08426,"population":209683},{"id":1584071,"name":"Da Lat","timezone":{"dstOffset":7,"gmtOffset":7,"timeZoneId":"Asia/Ho_Chi_Minh"},"lat":11.94646,"lng":108.44193,"population":197000},{"id":1573517,"name":"Nam Định","timezone":{"dstOffset":7,"gmtOffset":7,"timeZoneId":"Asia/Ho_Chi_Minh"},"lat":20.43389,"lng":106.17729,"population":193499},{"id":1562798,"name":"Vinh","timezone":{"dstOffset":7,"gmtOffset":7,"timeZoneId":"Asia/Ho_Chi_Minh"},"lat":18.67336,"lng":105.69232,"population":163759},{"id":1577995,"name":"La Gi","timezone":{"dstOffset":7,"gmtOffset":7,"timeZoneId":"Asia/Ho_Chi_Minh"},"lat":10.65993,"lng":107.77206,"population":160652},{"id":1571058,"name":"Phan Thiết","timezone":{"dstOffset":7,"gmtOffset":7,"timeZoneId":"Asia/Ho_Chi_Minh"},"lat":10.92889,"lng":108.10208,"population":160652},{"id":1575627,"name":"Long Xuyen","timezone":{"dstOffset":7,"gmtOffset":7,"timeZoneId":"Asia/Ho_Chi_Minh"},"lat":10.38639,"lng":105.43518,"population":158153},{"id":1586296,"name":"Can Giuoc","timezone":{"dstOffset":7,"gmtOffset":7,"timeZoneId":"Asia/Ho_Chi_Minh"},"lat":10.60857,"lng":106.67134,"population":152200},{"id":1588275,"name":"Bảo Lộc","timezone":{"dstOffset":7,"gmtOffset":7,"timeZoneId":"Asia/Ho_Chi_Minh"},"lat":11.54798,"lng":107.80772,"population":151915},{"id":1580410,"name":"Ha Long","timezone":{"dstOffset":7,"gmtOffset":7,"timeZoneId":"Asia/Ho_Chi_Minh"},"lat":20.95045,"lng":107.07336,"population":148066},{"id":1586896,"name":"Buon Ma Thuot","timezone":{"dstOffset":7,"gmtOffset":7,"timeZoneId":"Asia/Ho_Chi_Minh"},"lat":12.66747,"lng":108.03775,"population":146975},{"id":1586350,"name":"Cam Ranh","timezone":{"dstOffset":7,"gmtOffset":7,"timeZoneId":"Asia/Ho_Chi_Minh"},"lat":11.92144,"lng":109.15913,"population":146771},{"id":1568043,"name":"Sa Pá","timezone":{"dstOffset":7,"gmtOffset":7,"timeZoneId":"Asia/Ho_Chi_Minh"},"lat":22.34023,"lng":103.84415,"population":138622},{"id":1586357,"name":"Cẩm Phả Mines","timezone":{"dstOffset":7,"gmtOffset":7,"timeZoneId":"Asia/Ho_Chi_Minh"},"lat":21.01667,"lng":107.3,"population":135477},{"id":1566319,"name":"Thành Phố Thái Nguyên","timezone":{"dstOffset":7,"gmtOffset":7,"timeZoneId":"Asia/Ho_Chi_Minh"},"lat":21.59422,"lng":105.84817,"population":133877},{"id":1574023,"name":"Mỹ Tho","timezone":{"dstOffset":7,"gmtOffset":7,"timeZoneId":"Asia/Ho_Chi_Minh"},"lat":10.36004,"lng":106.35996,"population":122310},{"id":1567788,"name":"Sóc Trăng","timezone":{"dstOffset":7,"gmtOffset":7,"timeZoneId":"Asia/Ho_Chi_Minh"},"lat":9.59995,"lng":105.97193,"population":114453},{"id":1569684,"name":"Pleiku","timezone":{"dstOffset":7,"gmtOffset":7,"timeZoneId":"Asia/Ho_Chi_Minh"},"lat":13.98333,"lng":108,"population":114225},{"id":1566166,"name":"Thanh Hóa","timezone":{"dstOffset":7,"gmtOffset":7,"timeZoneId":"Asia/Ho_Chi_Minh"},"lat":19.8,"lng":105.76667,"population":112473},{"id":1586443,"name":"Cà Mau","timezone":{"dstOffset":7,"gmtOffset":7,"timeZoneId":"Asia/Ho_Chi_Minh"},"lat":9.17682,"lng":105.15242,"population":111894},{"id":1591474,"name":"Thành phố Bạc Liêu","timezone":{"dstOffset":7,"gmtOffset":7,"timeZoneId":"Asia/Ho_Chi_Minh"},"lat":9.29414,"lng":105.72776,"population":107911},{"id":1560037,"name":"Yên Vinh","timezone":{"dstOffset":7,"gmtOffset":7,"timeZoneId":"Asia/Ho_Chi_Minh"},"lat":18.66667,"lng":105.66667,"population":107082},{"id":1580830,"name":"Thành Phố Hòa Bình","timezone":{"dstOffset":7,"gmtOffset":7,"timeZoneId":"Asia/Ho_Chi_Minh"},"lat":20.81717,"lng":105.33759,"population":105260},{"id":1562693,"name":"Vĩnh Long","timezone":{"dstOffset":7,"gmtOffset":7,"timeZoneId":"Asia/Ho_Chi_Minh"},"lat":10.25369,"lng":105.9722,"population":103314},{"id":1560349,"name":"Yên Bái","timezone":{"dstOffset":7,"gmtOffset":7,"timeZoneId":"Asia/Ho_Chi_Minh"},"lat":21.72288,"lng":104.9113,"population":96540},{"id":1567723,"name":"Song Cau","timezone":{"dstOffset":7,"gmtOffset":7,"timeZoneId":"Asia/Ho_Chi_Minh"},"lat":13.4556,"lng":109.22348,"population":94066},{"id":1562820,"name":"Việt Trì","timezone":{"dstOffset":7,"gmtOffset":7,"timeZoneId":"Asia/Ho_Chi_Minh"},"lat":21.32274,"lng":105.40198,"population":93475},{"id":1571067,"name":"Phan Rang","timezone":{"dstOffset":7,"gmtOffset":7,"timeZoneId":"Asia/Ho_Chi_Minh"},"lat":11.56432,"lng":108.98858,"population":91520},{"id":1565022,"name":"Thu Dau Mot","timezone":{"dstOffset":7,"gmtOffset":7,"timeZoneId":"Asia/Ho_Chi_Minh"},"lat":10.9804,"lng":106.6519,"population":91009},{"id":1584661,"name":"Củ Chi","timezone":{"dstOffset":7,"gmtOffset":7,"timeZoneId":"Asia/Ho_Chi_Minh"},"lat":10.97333,"lng":106.49325,"population":75000},{"id":1574507,"name":"Móng Cái","timezone":{"dstOffset":7,"gmtOffset":7,"timeZoneId":"Asia/Ho_Chi_Minh"},"lat":21.52471,"lng":107.9662,"population":72960},{"id":1585660,"name":"Cho Dok","timezone":{"dstOffset":7,"gmtOffset":7,"timeZoneId":"Asia/Ho_Chi_Minh"},"lat":10.7,"lng":105.11667,"population":70239},{"id":1563281,"name":"Tuy Hoa","timezone":{"dstOffset":7,"gmtOffset":7,"timeZoneId":"Asia/Ho_Chi_Minh"},"lat":13.09546,"lng":109.32094,"population":69596},{"id":1567069,"name":"Tân An","timezone":{"dstOffset":7,"gmtOffset":7,"timeZoneId":"Asia/Ho_Chi_Minh"},"lat":10.53589,"lng":106.41366,"population":64801},{"id":1563241,"name":"Thành Phố Uông Bí","timezone":{"dstOffset":7,"gmtOffset":7,"timeZoneId":"Asia/Ho_Chi_Minh"},"lat":21.03433,"lng":106.77049,"population":63829},{"id":1586151,"name":"Cao Lanh","timezone":{"dstOffset":7,"gmtOffset":7,"timeZoneId":"Asia/Ho_Chi_Minh"},"lat":10.46017,"lng":105.63294,"population":63770},{"id":1568212,"name":"Sadek","timezone":{"dstOffset":7,"gmtOffset":7,"timeZoneId":"Asia/Ho_Chi_Minh"},"lat":10.29085,"lng":105.75635,"population":60073},{"id":1587976,"name":"Bến Tre","timezone":{"dstOffset":7,"gmtOffset":7,"timeZoneId":"Asia/Ho_Chi_Minh"},"lat":10.24147,"lng":106.37585,"population":59442},{"id":1567148,"name":"Tam Kỳ","timezone":{"dstOffset":7,"gmtOffset":7,"timeZoneId":"Asia/Ho_Chi_Minh"},"lat":15.57364,"lng":108.47403,"population":59000},{"id":1581326,"name":"Thành Phố Hải Dương","timezone":{"dstOffset":7,"gmtOffset":7,"timeZoneId":"Asia/Ho_Chi_Minh"},"lat":20.94099,"lng":106.33302,"population":58030},{"id":1563926,"name":"Trà Vinh","timezone":{"dstOffset":7,"gmtOffset":7,"timeZoneId":"Asia/Ho_Chi_Minh"},"lat":9.94719,"lng":106.34225,"population":57408},{"id":1576633,"name":"Lang Son","timezone":{"dstOffset":7,"gmtOffset":7,"timeZoneId":"Asia/Ho_Chi_Minh"},"lat":21.85264,"lng":106.76101,"population":55981},{"id":1586288,"name":"Can Gio","timezone":{"dstOffset":7,"gmtOffset":7,"timeZoneId":"Asia/Ho_Chi_Minh"},"lat":10.41115,"lng":106.95474,"population":55137},{"id":1587919,"name":"Bỉm Sơn","timezone":{"dstOffset":7,"gmtOffset":7,"timeZoneId":"Asia/Ho_Chi_Minh"},"lat":20.07806,"lng":105.86028,"population":53754},{"id":1591527,"name":"Bắc Giang","timezone":{"dstOffset":7,"gmtOffset":7,"timeZoneId":"Asia/Ho_Chi_Minh"},"lat":21.27307,"lng":106.1946,"population":53728},{"id":1566346,"name":"Thành Phố Thái Bình","timezone":{"dstOffset":7,"gmtOffset":7,"timeZoneId":"Asia/Ho_Chi_Minh"},"lat":20.45,"lng":106.34002,"population":53071},{"id":1581364,"name":"Hà Đông","timezone":{"dstOffset":7,"gmtOffset":7,"timeZoneId":"Asia/Ho_Chi_Minh"},"lat":20.97136,"lng":105.77876,"population":50877},{"id":1570549,"name":"Phú Khương","timezone":{"dstOffset":7,"gmtOffset":7,"timeZoneId":"Asia/Ho_Chi_Minh"},"lat":11.28333,"lng":106.13333,"population":47966},{"id":1578500,"name":"Kon Tum","timezone":{"dstOffset":7,"gmtOffset":7,"timeZoneId":"Asia/Ho_Chi_Minh"},"lat":14.35452,"lng":108.00759,"population":47409},{"id":1591449,"name":"Bắc Ninh","timezone":{"dstOffset":7,"gmtOffset":7,"timeZoneId":"Asia/Ho_Chi_Minh"},"lat":21.18608,"lng":106.07632,"population":43564},{"id":1586185,"name":"Thành Phố Cao Bằng","timezone":{"dstOffset":7,"gmtOffset":7,"timeZoneId":"Asia/Ho_Chi_Minh"},"lat":22.66568,"lng":106.25786,"population":41112},{"id":1567621,"name":"Sơn Tây","timezone":{"dstOffset":7,"gmtOffset":7,"timeZoneId":"Asia/Ho_Chi_Minh"},"lat":21.14053,"lng":105.50686,"population":40636},{"id":1583477,"name":"Dien Bien Phu","timezone":{"dstOffset":7,"gmtOffset":7,"timeZoneId":"Asia/Ho_Chi_Minh"},"lat":21.38602,"lng":103.02301,"population":40282},{"id":1580142,"name":"Hưng Yên","timezone":{"dstOffset":7,"gmtOffset":7,"timeZoneId":"Asia/Ho_Chi_Minh"},"lat":20.64637,"lng":106.05112,"population":40273},{"id":1581052,"name":"Hà Tiên","timezone":{"dstOffset":7,"gmtOffset":7,"timeZoneId":"Asia/Ho_Chi_Minh"},"lat":10.3831,"lng":104.48753,"population":40000},{"id":1571968,"name":"Thành Phố Ninh Bình","timezone":{"dstOffset":7,"gmtOffset":7,"timeZoneId":"Asia/Ho_Chi_Minh"},"lat":20.25808,"lng":105.97965,"population":36864},{"id":1576303,"name":"Lào Cai","timezone":{"dstOffset":7,"gmtOffset":7,"timeZoneId":"Asia/Ho_Chi_Minh"},"lat":22.48556,"lng":103.97066,"population":36502},{"id":1566559,"name":"Tây Ninh","timezone":{"dstOffset":7,"gmtOffset":7,"timeZoneId":"Asia/Ho_Chi_Minh"},"lat":11.31004,"lng":106.09828,"population":36456},{"id":1563287,"name":"Thành Phố Tuyên Quang","timezone":{"dstOffset":7,"gmtOffset":7,"timeZoneId":"Asia/Ho_Chi_Minh"},"lat":21.82356,"lng":105.21424,"population":36430},{"id":1568770,"name":"Quảng Ngãi","timezone":{"dstOffset":7,"gmtOffset":7,"timeZoneId":"Asia/Ho_Chi_Minh"},"lat":15.12047,"lng":108.79232,"population":32992},{"id":1580541,"name":"Hoi An","timezone":{"dstOffset":7,"gmtOffset":7,"timeZoneId":"Asia/Ho_Chi_Minh"},"lat":15.87944,"lng":108.335,"population":32757},{"id":1581349,"name":"Thành Phố Hà Giang","timezone":{"dstOffset":7,"gmtOffset":7,"timeZoneId":"Asia/Ho_Chi_Minh"},"lat":22.82333,"lng":104.98357,"population":32690},{"id":1570449,"name":"Thành Phố Phủ Lý","timezone":{"dstOffset":7,"gmtOffset":7,"timeZoneId":"Asia/Ho_Chi_Minh"},"lat":20.54531,"lng":105.91221,"population":31801},{"id":1582886,"name":"Dong Hoi","timezone":{"dstOffset":7,"gmtOffset":7,"timeZoneId":"Asia/Ho_Chi_Minh"},"lat":17.46885,"lng":106.62226,"population":31040},{"id":1586052,"name":"Cát Bà","timezone":{"dstOffset":7,"gmtOffset":7,"timeZoneId":"Asia/Ho_Chi_Minh"},"lat":20.72779,"lng":107.04819,"population":30000},{"id":1581047,"name":"Hà Tĩnh","timezone":{"dstOffset":7,"gmtOffset":7,"timeZoneId":"Asia/Ho_Chi_Minh"},"lat":18.34282,"lng":105.9057,"population":27728},{"id":1562538,"name":"Vị Thanh","timezone":{"dstOffset":7,"gmtOffset":7,"timeZoneId":"Asia/Ho_Chi_Minh"},"lat":9.78449,"lng":105.47012,"population":24477},{"id":1582436,"name":"Dong Xoai","timezone":{"dstOffset":7,"gmtOffset":7,"timeZoneId":"Asia/Ho_Chi_Minh"},"lat":11.53495,"lng":106.88324,"population":23978},{"id":1567681,"name":"Sơn La","timezone":{"dstOffset":7,"gmtOffset":7,"timeZoneId":"Asia/Ho_Chi_Minh"},"lat":21.3256,"lng":103.91882,"population":19054},{"id":1562548,"name":"Vĩnh Yên","timezone":{"dstOffset":7,"gmtOffset":7,"timeZoneId":"Asia/Ho_Chi_Minh"},"lat":21.30891,"lng":105.60489,"population":17876},{"id":1591538,"name":"Bac Kan","timezone":{"dstOffset":7,"gmtOffset":7,"timeZoneId":"Asia/Ho_Chi_Minh"},"lat":22.14701,"lng":105.83481,"population":17701},{"id":1582926,"name":"Dong Ha","timezone":{"dstOffset":7,"gmtOffset":7,"timeZoneId":"Asia/Ho_Chi_Minh"},"lat":16.81625,"lng":107.10031,"population":17662},{"id":8991407,"name":"Đinh Văn","timezone":{"dstOffset":7,"gmtOffset":7,"timeZoneId":"Asia/Ho_Chi_Minh"},"lat":11.78624,"lng":108.24282,"population":16036},{"id":1580349,"name":"Bình Long","timezone":{"dstOffset":7,"gmtOffset":7,"timeZoneId":"Asia/Ho_Chi_Minh"},"lat":11.64711,"lng":106.60586,"population":15000},{"id":1569973,"name":"Duong Dong","timezone":{"dstOffset":7,"gmtOffset":7,"timeZoneId":"Asia/Ho_Chi_Minh"},"lat":10.21716,"lng":103.95929,"population":15000},{"id":1592214,"name":"Ấp Tân Ngãi","timezone":{"dstOffset":7,"gmtOffset":7,"timeZoneId":"Asia/Ho_Chi_Minh"},"lat":10.23333,"lng":106.28333,"population":8887},{"id":1584807,"name":"Côn Sơn","timezone":{"dstOffset":7,"gmtOffset":7,"timeZoneId":"Asia/Ho_Chi_Minh"},"lat":8.68641,"lng":106.60824,"population":1500},{"id":1584301,"name":"Đại Lộc","timezone":{"dstOffset":7,"gmtOffset":7,"timeZoneId":"Asia/Ho_Chi_Minh"},"lat":15.88214,"lng":108.12092,"population":0},{"id":1584427,"name":"Đắk Tô","timezone":{"dstOffset":7,"gmtOffset":7,"timeZoneId":"Asia/Ho_Chi_Minh"},"lat":14.66092,"lng":107.8389,"population":0},{"id":1584613,"name":"Củng Sơn","timezone":{"dstOffset":7,"gmtOffset":7,"timeZoneId":"Asia/Ho_Chi_Minh"},"lat":13.04998,"lng":108.97895,"population":0},{"id":1584784,"name":"Cờ Đỏ","timezone":{"dstOffset":7,"gmtOffset":7,"timeZoneId":"Asia/Ho_Chi_Minh"},"lat":10.09377,"lng":105.42916,"population":0},{"id":1584909,"name":"Con Cuông","timezone":{"dstOffset":7,"gmtOffset":7,"timeZoneId":"Asia/Ho_Chi_Minh"},"lat":19.04996,"lng":104.88124,"population":0},{"id":1585243,"name":"Chúc Sơn","timezone":{"dstOffset":7,"gmtOffset":7,"timeZoneId":"Asia/Ho_Chi_Minh"},"lat":20.92374,"lng":105.70155,"population":0},{"id":1585281,"name":"Chũ","timezone":{"dstOffset":7,"gmtOffset":7,"timeZoneId":"Asia/Ho_Chi_Minh"},"lat":21.37379,"lng":106.56649,"population":0},{"id":1585317,"name":"Chơn Thành","timezone":{"dstOffset":7,"gmtOffset":7,"timeZoneId":"Asia/Ho_Chi_Minh"},"lat":11.42821,"lng":106.63536,"population":0},{"id":1585324,"name":"Chợ Mới","timezone":{"dstOffset":7,"gmtOffset":7,"timeZoneId":"Asia/Ho_Chi_Minh"},"lat":21.88374,"lng":105.77281,"population":0},{"id":1585327,"name":"Chợ Mới","timezone":{"dstOffset":7,"gmtOffset":7,"timeZoneId":"Asia/Ho_Chi_Minh"},"lat":10.55123,"lng":105.40441,"population":0},{"id":1585332,"name":"Chợ Lách","timezone":{"dstOffset":7,"gmtOffset":7,"timeZoneId":"Asia/Ho_Chi_Minh"},"lat":10.26032,"lng":106.11892,"population":0},{"id":1585343,"name":"Giồng Trôm","timezone":{"dstOffset":7,"gmtOffset":7,"timeZoneId":"Asia/Ho_Chi_Minh"},"lat":10.15021,"lng":106.50606,"population":0},{"id":1585346,"name":"Chợ Gạo","timezone":{"dstOffset":7,"gmtOffset":7,"timeZoneId":"Asia/Ho_Chi_Minh"},"lat":10.34984,"lng":106.4634,"population":0},{"id":1585356,"name":"Chợ Chu","timezone":{"dstOffset":7,"gmtOffset":7,"timeZoneId":"Asia/Ho_Chi_Minh"},"lat":21.90724,"lng":105.64219,"population":0},{"id":1585457,"name":"Chí Thạnh","timezone":{"dstOffset":7,"gmtOffset":7,"timeZoneId":"Asia/Ho_Chi_Minh"},"lat":13.30845,"lng":109.21522,"population":0},{"id":1585478,"name":"Thị Trấn Chi Nê","timezone":{"dstOffset":7,"gmtOffset":7,"timeZoneId":"Asia/Ho_Chi_Minh"},"lat":20.49056,"lng":105.778,"population":0},{"id":1585550,"name":"Huyện Chiêm Hóa","timezone":{"dstOffset":7,"gmtOffset":7,"timeZoneId":"Asia/Ho_Chi_Minh"},"lat":22.14413,"lng":105.27278,"population":0},{"id":1585975,"name":"Cầu Kè","timezone":{"dstOffset":7,"gmtOffset":7,"timeZoneId":"Asia/Ho_Chi_Minh"},"lat":9.8724,"lng":106.05497,"population":0},{"id":1585982,"name":"Cầu Giát","timezone":{"dstOffset":7,"gmtOffset":7,"timeZoneId":"Asia/Ho_Chi_Minh"},"lat":19.146,"lng":105.63089,"population":0},{"id":1586112,"name":"Cao Thượng","timezone":{"dstOffset":7,"gmtOffset":7,"timeZoneId":"Asia/Ho_Chi_Minh"},"lat":21.38707,"lng":106.12931,"population":0},{"id":1586295,"name":"Cần Đước","timezone":{"dstOffset":7,"gmtOffset":7,"timeZoneId":"Asia/Ho_Chi_Minh"},"lat":10.50966,"lng":106.60308,"population":0},{"id":1586316,"name":"Cẩm Xuyên","timezone":{"dstOffset":7,"gmtOffset":7,"timeZoneId":"Asia/Ho_Chi_Minh"},"lat":18.25029,"lng":106.00132,"population":0},{"id":1586330,"name":"Thị Trấn Cẩm Thủy","timezone":{"dstOffset":7,"gmtOffset":7,"timeZoneId":"Asia/Ho_Chi_Minh"},"lat":20.20866,"lng":105.4695,"population":0},{"id":1586360,"name":"Cẩm Phả","timezone":{"dstOffset":7,"gmtOffset":7,"timeZoneId":"Asia/Ho_Chi_Minh"},"lat":21.01004,"lng":107.27345,"population":0},{"id":1586384,"name":"Cam Lộ","timezone":{"dstOffset":7,"gmtOffset":7,"timeZoneId":"Asia/Ho_Chi_Minh"},"lat":16.80797,"lng":106.99405,"population":0},{"id":1586393,"name":"Cam Ranh","timezone":{"dstOffset":7,"gmtOffset":7,"timeZoneId":"Asia/Ho_Chi_Minh"},"lat":11.92732,"lng":109.16082,"population":0},{"id":1586502,"name":"Cái Tàu Hạ","timezone":{"dstOffset":7,"gmtOffset":7,"timeZoneId":"Asia/Ho_Chi_Minh"},"lat":10.25973,"lng":105.87044,"population":0},{"id":1586519,"name":"Cái Răng","timezone":{"dstOffset":7,"gmtOffset":7,"timeZoneId":"Asia/Ho_Chi_Minh"},"lat":10.0009,"lng":105.75095,"population":0},{"id":1586524,"name":"Cái Nước","timezone":{"dstOffset":7,"gmtOffset":7,"timeZoneId":"Asia/Ho_Chi_Minh"},"lat":8.94231,"lng":105.0141,"population":0},{"id":1586530,"name":"Cái Nhum","timezone":{"dstOffset":7,"gmtOffset":7,"timeZoneId":"Asia/Ho_Chi_Minh"},"lat":10.17412,"lng":106.11051,"population":0},{"id":1586798,"name":"Buôn Trấp","timezone":{"dstOffset":7,"gmtOffset":7,"timeZoneId":"Asia/Ho_Chi_Minh"},"lat":12.48478,"lng":108.02982,"population":0},{"id":1587406,"name":"Hoàn Lão","timezone":{"dstOffset":7,"gmtOffset":7,"timeZoneId":"Asia/Ho_Chi_Minh"},"lat":17.58436,"lng":106.53425,"population":0},{"id":1587488,"name":"Bồng Sơn","timezone":{"dstOffset":7,"gmtOffset":7,"timeZoneId":"Asia/Ho_Chi_Minh"},"lat":14.42907,"lng":109.0156,"population":0},{"id":1587613,"name":"Bù Đốp","timezone":{"dstOffset":7,"gmtOffset":7,"timeZoneId":"Asia/Ho_Chi_Minh"},"lat":11.95486,"lng":106.80018,"population":0},{"id":1587759,"name":"Bình Thủy","timezone":{"dstOffset":7,"gmtOffset":7,"timeZoneId":"Asia/Ho_Chi_Minh"},"lat":10.07431,"lng":105.73974,"population":0},{"id":1587791,"name":"Bình Sơn","timezone":{"dstOffset":7,"gmtOffset":7,"timeZoneId":"Asia/Ho_Chi_Minh"},"lat":15.29776,"lng":108.76124,"population":0},{"id":1587866,"name":"Bình Gia","timezone":{"dstOffset":7,"gmtOffset":7,"timeZoneId":"Asia/Ho_Chi_Minh"},"lat":21.96094,"lng":106.36448,"population":0},{"id":1587883,"name":"Bình Đại","timezone":{"dstOffset":7,"gmtOffset":7,"timeZoneId":"Asia/Ho_Chi_Minh"},"lat":10.18964,"lng":106.69149,"population":0},{"id":1587888,"name":"Tân Túc","timezone":{"dstOffset":7,"gmtOffset":7,"timeZoneId":"Asia/Ho_Chi_Minh"},"lat":10.69541,"lng":106.59128,"population":0},{"id":1588057,"name":"Bến Cầu","timezone":{"dstOffset":7,"gmtOffset":7,"timeZoneId":"Asia/Ho_Chi_Minh"},"lat":11.11051,"lng":106.17924,"population":0},{"id":1588178,"name":"Ba Tri","timezone":{"dstOffset":7,"gmtOffset":7,"timeZoneId":"Asia/Ho_Chi_Minh"},"lat":10.04427,"lng":106.5902,"population":0},{"id":1588182,"name":"Ba Tơ","timezone":{"dstOffset":7,"gmtOffset":7,"timeZoneId":"Asia/Ho_Chi_Minh"},"lat":14.7636,"lng":108.73223,"population":0},{"id":1588242,"name":"Thị Trấn Phố Ràng","timezone":{"dstOffset":7,"gmtOffset":7,"timeZoneId":"Asia/Ho_Chi_Minh"},"lat":22.23429,"lng":104.47642,"population":0},{"id":1588278,"name":"Thị Trấn Bảo Lạc","timezone":{"dstOffset":7,"gmtOffset":7,"timeZoneId":"Asia/Ho_Chi_Minh"},"lat":22.94924,"lng":105.68046,"population":0},{"id":1588316,"name":"Bẩn Yên Nhân","timezone":{"dstOffset":7,"gmtOffset":7,"timeZoneId":"Asia/Ho_Chi_Minh"},"lat":20.93653,"lng":106.0571,"population":0},{"id":1590225,"name":"Ít Ong","timezone":{"dstOffset":7,"gmtOffset":7,"timeZoneId":"Asia/Ho_Chi_Minh"},"lat":21.5175,"lng":104.02701,"population":0},{"id":1590900,"name":"Thị Trấn Thuận Châu","timezone":{"dstOffset":7,"gmtOffset":7,"timeZoneId":"Asia/Ho_Chi_Minh"},"lat":21.43849,"lng":103.69,"population":0},{"id":1591422,"name":"Bắc Yên","timezone":{"dstOffset":7,"gmtOffset":7,"timeZoneId":"Asia/Ho_Chi_Minh"},"lat":21.24626,"lng":104.43281,"population":0},{"id":1591435,"name":"Bắc Sơn","timezone":{"dstOffset":7,"gmtOffset":7,"timeZoneId":"Asia/Ho_Chi_Minh"},"lat":21.89999,"lng":106.32077,"population":0},{"id":1591522,"name":"Bắc Hà","timezone":{"dstOffset":7,"gmtOffset":7,"timeZoneId":"Asia/Ho_Chi_Minh"},"lat":22.53911,"lng":104.29305,"population":0},{"id":1592152,"name":"Tân Trụ","timezone":{"dstOffset":7,"gmtOffset":7,"timeZoneId":"Asia/Ho_Chi_Minh"},"lat":10.51271,"lng":106.50762,"population":0},{"id":1594308,"name":"An Nhơn","timezone":{"dstOffset":7,"gmtOffset":7,"timeZoneId":"Asia/Ho_Chi_Minh"},"lat":13.88579,"lng":109.10823,"population":0},{"id":1574250,"name":"Mường Nhé","timezone":{"dstOffset":7,"gmtOffset":7,"timeZoneId":"Asia/Ho_Chi_Minh"},"lat":22.19236,"lng":102.4579,"population":0},{"id":1574263,"name":"Thị Trấn Mường Khương","timezone":{"dstOffset":7,"gmtOffset":7,"timeZoneId":"Asia/Ho_Chi_Minh"},"lat":22.76141,"lng":104.12156,"population":0},{"id":1574307,"name":"Thị Trấn Mường Lát","timezone":{"dstOffset":7,"gmtOffset":7,"timeZoneId":"Asia/Ho_Chi_Minh"},"lat":20.52915,"lng":104.60138,"population":0},{"id":1574362,"name":"Thị Trấn Mù Cang Chải","timezone":{"dstOffset":7,"gmtOffset":7,"timeZoneId":"Asia/Ho_Chi_Minh"},"lat":21.85125,"lng":104.08954,"population":0},{"id":1574546,"name":"Mộ Đức","timezone":{"dstOffset":7,"gmtOffset":7,"timeZoneId":"Asia/Ho_Chi_Minh"},"lat":14.95513,"lng":108.88586,"population":0},{"id":1574561,"name":"Thị Trấn Mộc Châu","timezone":{"dstOffset":7,"gmtOffset":7,"timeZoneId":"Asia/Ho_Chi_Minh"},"lat":20.85199,"lng":104.62177,"population":0},{"id":1574568,"name":"Mỏ Cày","timezone":{"dstOffset":7,"gmtOffset":7,"timeZoneId":"Asia/Ho_Chi_Minh"},"lat":10.13312,"lng":106.33519,"population":0},{"id":1574638,"name":"Minh Lương","timezone":{"dstOffset":7,"gmtOffset":7,"timeZoneId":"Asia/Ho_Chi_Minh"},"lat":9.90248,"lng":105.1595,"population":0},{"id":1574654,"name":"Minh Long","timezone":{"dstOffset":7,"gmtOffset":7,"timeZoneId":"Asia/Ho_Chi_Minh"},"lat":14.93218,"lng":108.70328,"population":0},{"id":1574706,"name":"Thị Trấn Mèo Vạc","timezone":{"dstOffset":7,"gmtOffset":7,"timeZoneId":"Asia/Ho_Chi_Minh"},"lat":23.16411,"lng":105.40993,"population":0},{"id":1575080,"name":"Ma Đa Gui","timezone":{"dstOffset":7,"gmtOffset":7,"timeZoneId":"Asia/Ho_Chi_Minh"},"lat":11.38702,"lng":107.53508,"population":0},{"id":1575655,"name":"Long Thành","timezone":{"dstOffset":7,"gmtOffset":7,"timeZoneId":"Asia/Ho_Chi_Minh"},"lat":10.78909,"lng":106.9503,"population":0},{"id":1575689,"name":"Long Phú","timezone":{"dstOffset":7,"gmtOffset":7,"timeZoneId":"Asia/Ho_Chi_Minh"},"lat":9.61025,"lng":106.11881,"population":0},{"id":1575703,"name":"Long Mỹ","timezone":{"dstOffset":7,"gmtOffset":7,"timeZoneId":"Asia/Ho_Chi_Minh"},"lat":9.68141,"lng":105.57226,"population":0},{"id":1575864,"name":"Lộc Ninh","timezone":{"dstOffset":7,"gmtOffset":7,"timeZoneId":"Asia/Ho_Chi_Minh"},"lat":11.84476,"lng":106.59073,"population":0},{"id":1575896,"name":"Lộc Bình","timezone":{"dstOffset":7,"gmtOffset":7,"timeZoneId":"Asia/Ho_Chi_Minh"},"lat":21.75873,"lng":106.92335,"population":0},{"id":1575965,"name":"Lien De","timezone":{"dstOffset":7,"gmtOffset":7,"timeZoneId":"Asia/Ho_Chi_Minh"},"lat":20.22094,"lng":106.18747,"population":0},{"id":1575993,"name":"Liên Hương","timezone":{"dstOffset":7,"gmtOffset":7,"timeZoneId":"Asia/Ho_Chi_Minh"},"lat":11.22761,"lng":108.72366,"population":0},{"id":1576073,"name":"Kiến Giang","timezone":{"dstOffset":7,"gmtOffset":7,"timeZoneId":"Asia/Ho_Chi_Minh"},"lat":17.22328,"lng":106.79011,"population":0},{"id":1576233,"name":"Lấp Vò","timezone":{"dstOffset":7,"gmtOffset":7,"timeZoneId":"Asia/Ho_Chi_Minh"},"lat":10.36161,"lng":105.51924,"population":0},{"id":1576757,"name":"Thị Trấn Phước Bửu","timezone":{"dstOffset":7,"gmtOffset":7,"timeZoneId":"Asia/Ho_Chi_Minh"},"lat":10.53472,"lng":107.40202,"population":0},{"id":1577285,"name":"Lũng Hồ","timezone":{"dstOffset":7,"gmtOffset":7,"timeZoneId":"Asia/Ho_Chi_Minh"},"lat":22.98479,"lng":105.23983,"population":0},{"id":1577635,"name":"Thị Trấn Lang Chánh","timezone":{"dstOffset":7,"gmtOffset":7,"timeZoneId":"Asia/Ho_Chi_Minh"},"lat":20.15611,"lng":105.24223,"population":0},{"id":1577922,"name":"Lai Vung","timezone":{"dstOffset":7,"gmtOffset":7,"timeZoneId":"Asia/Ho_Chi_Minh"},"lat":10.28701,"lng":105.6617,"population":0},{"id":1577929,"name":"Lái Thiêu","timezone":{"dstOffset":7,"gmtOffset":7,"timeZoneId":"Asia/Ho_Chi_Minh"},"lat":10.90512,"lng":106.69949,"population":0},{"id":1577958,"name":"Lai Cách","timezone":{"dstOffset":7,"gmtOffset":7,"timeZoneId":"Asia/Ho_Chi_Minh"},"lat":20.93252,"lng":106.24756,"population":0},{"id":1578015,"name":"Lắk","timezone":{"dstOffset":7,"gmtOffset":7,"timeZoneId":"Asia/Ho_Chi_Minh"},"lat":12.41086,"lng":108.17682,"population":0},{"id":1578066,"name":"Lạc Dương","timezone":{"dstOffset":7,"gmtOffset":7,"timeZoneId":"Asia/Ho_Chi_Minh"},"lat":12.00405,"lng":108.41905,"population":0},{"id":1578127,"name":"Mường Xén","timezone":{"dstOffset":7,"gmtOffset":7,"timeZoneId":"Asia/Ho_Chi_Minh"},"lat":19.39795,"lng":104.15239,"population":0},{"id":1578163,"name":"Kỳ Anh","timezone":{"dstOffset":7,"gmtOffset":7,"timeZoneId":"Asia/Ho_Chi_Minh"},"lat":18.06243,"lng":106.29832,"population":0},{"id":1578828,"name":"Kinh Môn","timezone":{"dstOffset":7,"gmtOffset":7,"timeZoneId":"Asia/Ho_Chi_Minh"},"lat":20.98962,"lng":106.5551,"population":0},{"id":1578947,"name":"Kim Bài","timezone":{"dstOffset":7,"gmtOffset":7,"timeZoneId":"Asia/Ho_Chi_Minh"},"lat":20.85265,"lng":105.76963,"population":0},{"id":1578998,"name":"Kiên Lương","timezone":{"dstOffset":7,"gmtOffset":7,"timeZoneId":"Asia/Ho_Chi_Minh"},"lat":10.28624,"lng":104.64616,"population":0},{"id":1579363,"name":"Khe Sanh","timezone":{"dstOffset":7,"gmtOffset":7,"timeZoneId":"Asia/Ho_Chi_Minh"},"lat":16.62825,"lng":106.73884,"population":0},{"id":1579615,"name":"Thị Trấn Khánh Yên","timezone":{"dstOffset":7,"gmtOffset":7,"timeZoneId":"Asia/Ho_Chi_Minh"},"lat":22.08935,"lng":104.25148,"population":0},{"id":1579739,"name":"Kẻ Sặt","timezone":{"dstOffset":7,"gmtOffset":7,"timeZoneId":"Asia/Ho_Chi_Minh"},"lat":20.91007,"lng":106.1477,"population":0},{"id":1579743,"name":"Kế Sách","timezone":{"dstOffset":7,"gmtOffset":7,"timeZoneId":"Asia/Ho_Chi_Minh"},"lat":9.76743,"lng":105.98574,"population":0},{"id":1580054,"name":"Hữu Lũng","timezone":{"dstOffset":7,"gmtOffset":7,"timeZoneId":"Asia/Ho_Chi_Minh"},"lat":21.5056,"lng":106.34459,"population":0},{"id":1580092,"name":"Hương Trà","timezone":{"dstOffset":7,"gmtOffset":7,"timeZoneId":"Asia/Ho_Chi_Minh"},"lat":16.5254,"lng":107.4755,"population":0},{"id":1580123,"name":"Hương Khê","timezone":{"dstOffset":7,"gmtOffset":7,"timeZoneId":"Asia/Ho_Chi_Minh"},"lat":18.17669,"lng":105.70019,"population":0},{"id":1580136,"name":"Hương Canh","timezone":{"dstOffset":7,"gmtOffset":7,"timeZoneId":"Asia/Ho_Chi_Minh"},"lat":21.27882,"lng":105.64697,"population":0},{"id":1580262,"name":"Hồ Xá","timezone":{"dstOffset":7,"gmtOffset":7,"timeZoneId":"Asia/Ho_Chi_Minh"},"lat":17.06836,"lng":107.0052,"population":0},{"id":1580421,"name":"Ngoc Hon Doc","timezone":{"dstOffset":7,"gmtOffset":7,"timeZoneId":"Asia/Ho_Chi_Minh"},"lat":10.18462,"lng":104.92959,"population":0},{"id":1580572,"name":"Hóc Môn","timezone":{"dstOffset":7,"gmtOffset":7,"timeZoneId":"Asia/Ho_Chi_Minh"},"lat":10.8891,"lng":106.59533,"population":0},{"id":1580593,"name":"Hòa Vang","timezone":{"dstOffset":7,"gmtOffset":7,"timeZoneId":"Asia/Ho_Chi_Minh"},"lat":15.98764,"lng":108.13893,"population":0},{"id":1580754,"name":"Thị Trấn Hòa Mạc","timezone":{"dstOffset":7,"gmtOffset":7,"timeZoneId":"Asia/Ho_Chi_Minh"},"lat":20.64173,"lng":105.989,"population":0},{"id":1580793,"name":"Hoài Ân","timezone":{"dstOffset":7,"gmtOffset":7,"timeZoneId":"Asia/Ho_Chi_Minh"},"lat":14.36352,"lng":108.96476,"population":0},{"id":1580914,"name":"Doug An","timezone":{"dstOffset":7,"gmtOffset":7,"timeZoneId":"Asia/Ho_Chi_Minh"},"lat":15.58224,"lng":108.11422,"population":0},{"id":1581268,"name":"Thị Trấn Thanh Nhật","timezone":{"dstOffset":7,"gmtOffset":7,"timeZoneId":"Asia/Ho_Chi_Minh"},"lat":22.6875,"lng":106.67004,"population":0},{"id":1581274,"name":"Hà Lam","timezone":{"dstOffset":7,"gmtOffset":7,"timeZoneId":"Asia/Ho_Chi_Minh"},"lat":15.73871,"lng":108.35062,"population":0},{"id":1581317,"name":"Hải Lăng","timezone":{"dstOffset":7,"gmtOffset":7,"timeZoneId":"Asia/Ho_Chi_Minh"},"lat":16.69347,"lng":107.25124,"population":0},{"id":1581339,"name":"Hạ Hòa","timezone":{"dstOffset":7,"gmtOffset":7,"timeZoneId":"Asia/Ho_Chi_Minh"},"lat":21.56302,"lng":105.00512,"population":0},{"id":1581483,"name":"Gò Quao","timezone":{"dstOffset":7,"gmtOffset":7,"timeZoneId":"Asia/Ho_Chi_Minh"},"lat":9.7332,"lng":105.27394,"population":0},{"id":1581613,"name":"Giồng Riềng","timezone":{"dstOffset":7,"gmtOffset":7,"timeZoneId":"Asia/Ho_Chi_Minh"},"lat":9.90974,"lng":105.31433,"population":0},{"id":1581673,"name":"Gio Linh","timezone":{"dstOffset":7,"gmtOffset":7,"timeZoneId":"Asia/Ho_Chi_Minh"},"lat":16.9248,"lng":107.08438,"population":0},{"id":1581834,"name":"Gia Nghĩa","timezone":{"dstOffset":7,"gmtOffset":7,"timeZoneId":"Asia/Ho_Chi_Minh"},"lat":12.00423,"lng":107.69074,"population":0},{"id":1582062,"name":"Duy Xuyên","timezone":{"dstOffset":7,"gmtOffset":7,"timeZoneId":"Asia/Ho_Chi_Minh"},"lat":15.82898,"lng":108.25956,"population":0},{"id":1582173,"name":"Đưc Trọng","timezone":{"dstOffset":7,"gmtOffset":7,"timeZoneId":"Asia/Ho_Chi_Minh"},"lat":11.73559,"lng":108.3733,"population":0},{"id":1582175,"name":"Đức Thọ","timezone":{"dstOffset":7,"gmtOffset":7,"timeZoneId":"Asia/Ho_Chi_Minh"},"lat":18.53957,"lng":105.58302,"population":0},{"id":1582187,"name":"Đức Phong","timezone":{"dstOffset":7,"gmtOffset":7,"timeZoneId":"Asia/Ho_Chi_Minh"},"lat":11.81346,"lng":107.24433,"population":0},{"id":1582190,"name":"Pho Duc","timezone":{"dstOffset":7,"gmtOffset":7,"timeZoneId":"Asia/Ho_Chi_Minh"},"lat":14.81355,"lng":108.95931,"population":0},{"id":1582203,"name":"Tram de Dak Mil","timezone":{"dstOffset":7,"gmtOffset":7,"timeZoneId":"Asia/Ho_Chi_Minh"},"lat":12.44957,"lng":107.62237,"population":0},{"id":1582431,"name":"La Hai","timezone":{"dstOffset":7,"gmtOffset":7,"timeZoneId":"Asia/Ho_Chi_Minh"},"lat":13.37732,"lng":109.10807,"population":0},{"id":1582467,"name":"Thị Trấn Đồng Văn","timezone":{"dstOffset":7,"gmtOffset":7,"timeZoneId":"Asia/Ho_Chi_Minh"},"lat":23.27841,"lng":105.36291,"population":0},{"id":1582743,"name":"Đồng Mỏ","timezone":{"dstOffset":7,"gmtOffset":7,"timeZoneId":"Asia/Ho_Chi_Minh"},"lat":21.65701,"lng":106.57832,"population":0},{"id":1582863,"name":"Thị Trấn Đông Khê","timezone":{"dstOffset":7,"gmtOffset":7,"timeZoneId":"Asia/Ho_Chi_Minh"},"lat":22.42939,"lng":106.43194,"population":0},{"id":1583168,"name":"Anh Son","timezone":{"dstOffset":7,"gmtOffset":7,"timeZoneId":"Asia/Ho_Chi_Minh"},"lat":18.96961,"lng":105.05505,"population":0},{"id":1583240,"name":"Đoan Hùng","timezone":{"dstOffset":7,"gmtOffset":7,"timeZoneId":"Asia/Ho_Chi_Minh"},"lat":21.62254,"lng":105.18462,"population":0},{"id":1583342,"name":"Đình Lập","timezone":{"dstOffset":7,"gmtOffset":7,"timeZoneId":"Asia/Ho_Chi_Minh"},"lat":21.54633,"lng":107.09812,"population":0},{"id":1583432,"name":"Di Linh","timezone":{"dstOffset":7,"gmtOffset":7,"timeZoneId":"Asia/Ho_Chi_Minh"},"lat":11.58153,"lng":108.07642,"population":0},{"id":1583468,"name":"Diên Khánh","timezone":{"dstOffset":7,"gmtOffset":7,"timeZoneId":"Asia/Ho_Chi_Minh"},"lat":12.2549,"lng":109.09332,"population":0},{"id":1583475,"name":"Diễn Châu","timezone":{"dstOffset":7,"gmtOffset":7,"timeZoneId":"Asia/Ho_Chi_Minh"},"lat":18.97652,"lng":105.60034,"population":0},{"id":1583478,"name":"Quang Nam","timezone":{"dstOffset":7,"gmtOffset":7,"timeZoneId":"Asia/Ho_Chi_Minh"},"lat":15.88853,"lng":108.25447,"population":0},{"id":1583497,"name":"Giemdiem","timezone":{"dstOffset":7,"gmtOffset":7,"timeZoneId":"Asia/Ho_Chi_Minh"},"lat":20.55832,"lng":106.56882,"population":0},{"id":1583518,"name":"Dĩ An","timezone":{"dstOffset":7,"gmtOffset":7,"timeZoneId":"Asia/Ho_Chi_Minh"},"lat":10.90682,"lng":106.7694,"population":0},{"id":1583699,"name":"Dầu Tiếng","timezone":{"dstOffset":7,"gmtOffset":7,"timeZoneId":"Asia/Ho_Chi_Minh"},"lat":11.2741,"lng":106.35879,"population":0},{"id":1583752,"name":"Phuoc Tho","timezone":{"dstOffset":7,"gmtOffset":7,"timeZoneId":"Asia/Ho_Chi_Minh"},"lat":10.49093,"lng":107.27014,"population":0},{"id":1584099,"name":"Đắk Song","timezone":{"dstOffset":7,"gmtOffset":7,"timeZoneId":"Asia/Ho_Chi_Minh"},"lat":12.25518,"lng":107.60924,"population":0},{"id":1564046,"name":"Trảng Bàng","timezone":{"dstOffset":7,"gmtOffset":7,"timeZoneId":"Asia/Ho_Chi_Minh"},"lat":11.02987,"lng":106.3575,"population":0},{"id":1564065,"name":"Thị Trấn Trạm Tấu","timezone":{"dstOffset":7,"gmtOffset":7,"timeZoneId":"Asia/Ho_Chi_Minh"},"lat":21.46659,"lng":104.37966,"population":0},{"id":1564070,"name":"Trà My","timezone":{"dstOffset":7,"gmtOffset":7,"timeZoneId":"Asia/Ho_Chi_Minh"},"lat":15.33965,"lng":108.22065,"population":0},{"id":1564075,"name":"Tràm Chim","timezone":{"dstOffset":7,"gmtOffset":7,"timeZoneId":"Asia/Ho_Chi_Minh"},"lat":10.67001,"lng":105.56469,"population":0},{"id":1564238,"name":"Trà Cú","timezone":{"dstOffset":7,"gmtOffset":7,"timeZoneId":"Asia/Ho_Chi_Minh"},"lat":9.69774,"lng":106.25834,"population":0},{"id":1564257,"name":"Trà Bồng","timezone":{"dstOffset":7,"gmtOffset":7,"timeZoneId":"Asia/Ho_Chi_Minh"},"lat":15.25569,"lng":108.51722,"population":0},{"id":1564548,"name":"Thị Trấn Tĩnh Gia","timezone":{"dstOffset":7,"gmtOffset":7,"timeZoneId":"Asia/Ho_Chi_Minh"},"lat":19.44645,"lng":105.77861,"population":0},{"id":1564576,"name":"Tiểu Cần","timezone":{"dstOffset":7,"gmtOffset":7,"timeZoneId":"Asia/Ho_Chi_Minh"},"lat":9.81166,"lng":106.19067,"population":0},{"id":1564629,"name":"Tiên Phước","timezone":{"dstOffset":7,"gmtOffset":7,"timeZoneId":"Asia/Ho_Chi_Minh"},"lat":15.4882,"lng":108.30736,"population":0},{"id":1564818,"name":"Thủ Thừa","timezone":{"dstOffset":7,"gmtOffset":7,"timeZoneId":"Asia/Ho_Chi_Minh"},"lat":10.60232,"lng":106.40207,"population":0},{"id":1564835,"name":"Thị Trấn Thường Xuân","timezone":{"dstOffset":7,"gmtOffset":7,"timeZoneId":"Asia/Ho_Chi_Minh"},"lat":19.90294,"lng":105.34723,"population":0},{"id":1565019,"name":"Thủ Đức","timezone":{"dstOffset":7,"gmtOffset":7,"timeZoneId":"Asia/Ho_Chi_Minh"},"lat":10.84863,"lng":106.77209,"population":0},{"id":1565115,"name":"Thị Trấn Thọ Xuân","timezone":{"dstOffset":7,"gmtOffset":7,"timeZoneId":"Asia/Ho_Chi_Minh"},"lat":19.93133,"lng":105.52179,"population":0},{"id":1565136,"name":"Thốt Nốt","timezone":{"dstOffset":7,"gmtOffset":7,"timeZoneId":"Asia/Ho_Chi_Minh"},"lat":10.27213,"lng":105.5338,"population":0},{"id":1565157,"name":"Thới Lai","timezone":{"dstOffset":7,"gmtOffset":7,"timeZoneId":"Asia/Ho_Chi_Minh"},"lat":10.06522,"lng":105.55863,"population":0},{"id":1565164,"name":"Thới Bình","timezone":{"dstOffset":7,"gmtOffset":7,"timeZoneId":"Asia/Ho_Chi_Minh"},"lat":9.35584,"lng":105.09929,"population":0},{"id":1565760,"name":"Ái Tử","timezone":{"dstOffset":7,"gmtOffset":7,"timeZoneId":"Asia/Ho_Chi_Minh"},"lat":16.76886,"lng":107.16504,"population":0},{"id":1565969,"name":"Thị Trấn Thất Khê","timezone":{"dstOffset":7,"gmtOffset":7,"timeZoneId":"Asia/Ho_Chi_Minh"},"lat":22.25525,"lng":106.47359,"population":0},{"id":1565992,"name":"Than Uyên","timezone":{"dstOffset":7,"gmtOffset":7,"timeZoneId":"Asia/Ho_Chi_Minh"},"lat":21.95907,"lng":103.88001,"population":0},{"id":1566029,"name":"Phú Lộc","timezone":{"dstOffset":7,"gmtOffset":7,"timeZoneId":"Asia/Ho_Chi_Minh"},"lat":9.42838,"lng":105.74111,"population":0},{"id":1566053,"name":"Thanh Sơn","timezone":{"dstOffset":7,"gmtOffset":7,"timeZoneId":"Asia/Ho_Chi_Minh"},"lat":21.19867,"lng":105.17892,"population":0},{"id":1566078,"name":"Thạnh Phú","timezone":{"dstOffset":7,"gmtOffset":7,"timeZoneId":"Asia/Ho_Chi_Minh"},"lat":9.94827,"lng":106.51629,"population":0},{"id":1566093,"name":"Thanh Nê","timezone":{"dstOffset":7,"gmtOffset":7,"timeZoneId":"Asia/Ho_Chi_Minh"},"lat":20.3881,"lng":106.43834,"population":0},{"id":1566206,"name":"Thanh Chương","timezone":{"dstOffset":7,"gmtOffset":7,"timeZoneId":"Asia/Ho_Chi_Minh"},"lat":18.77877,"lng":105.33356,"population":0},{"id":1566226,"name":"Thanh Bình","timezone":{"dstOffset":7,"gmtOffset":7,"timeZoneId":"Asia/Ho_Chi_Minh"},"lat":10.5619,"lng":105.48411,"population":0},{"id":1566378,"name":"Thị Trấn Kim Tân","timezone":{"dstOffset":7,"gmtOffset":7,"timeZoneId":"Asia/Ho_Chi_Minh"},"lat":20.13053,"lng":105.67454,"population":0},{"id":1566411,"name":"Thạch Hà","timezone":{"dstOffset":7,"gmtOffset":7,"timeZoneId":"Asia/Ho_Chi_Minh"},"lat":18.36788,"lng":105.86122,"population":0},{"id":1566566,"name":"Tây Hồ","timezone":{"dstOffset":7,"gmtOffset":7,"timeZoneId":"Asia/Ho_Chi_Minh"},"lat":21.06895,"lng":105.81053,"population":0},{"id":1566570,"name":"Tây Đằng","timezone":{"dstOffset":7,"gmtOffset":7,"timeZoneId":"Asia/Ho_Chi_Minh"},"lat":21.19809,"lng":105.42217,"population":0},{"id":1566889,"name":"Xom Tan Long","timezone":{"dstOffset":7,"gmtOffset":7,"timeZoneId":"Asia/Ho_Chi_Minh"},"lat":8.99214,"lng":105.19602,"population":0},{"id":1566912,"name":"Tân Kỳ","timezone":{"dstOffset":7,"gmtOffset":7,"timeZoneId":"Asia/Ho_Chi_Minh"},"lat":19.04756,"lng":105.26807,"population":0},{"id":1566958,"name":"Tánh Linh","timezone":{"dstOffset":7,"gmtOffset":7,"timeZoneId":"Asia/Ho_Chi_Minh"},"lat":11.08421,"lng":107.68095,"population":0},{"id":1566962,"name":"Tân Hiệp","timezone":{"dstOffset":7,"gmtOffset":7,"timeZoneId":"Asia/Ho_Chi_Minh"},"lat":10.44905,"lng":106.34386,"population":0},{"id":1566963,"name":"Tân Hiệp","timezone":{"dstOffset":7,"gmtOffset":7,"timeZoneId":"Asia/Ho_Chi_Minh"},"lat":10.11709,"lng":105.28578,"population":0},{"id":1567032,"name":"Tân Châu","timezone":{"dstOffset":7,"gmtOffset":7,"timeZoneId":"Asia/Ho_Chi_Minh"},"lat":10.79832,"lng":105.23888,"population":0},{"id":1567178,"name":"Trai Ngau","timezone":{"dstOffset":7,"gmtOffset":7,"timeZoneId":"Asia/Ho_Chi_Minh"},"lat":21.39324,"lng":105.61441,"population":0},{"id":1567201,"name":"Tam Bình","timezone":{"dstOffset":7,"gmtOffset":7,"timeZoneId":"Asia/Ho_Chi_Minh"},"lat":10.04811,"lng":106.00017,"population":0},{"id":1567221,"name":"Thị Trấn Tà Lùng","timezone":{"dstOffset":7,"gmtOffset":7,"timeZoneId":"Asia/Ho_Chi_Minh"},"lat":22.4979,"lng":106.5669,"population":0},{"id":1567617,"name":"Sơn Tịnh","timezone":{"dstOffset":7,"gmtOffset":7,"timeZoneId":"Asia/Ho_Chi_Minh"},"lat":15.15856,"lng":108.79582,"population":0},{"id":1567646,"name":"Sơn Hà","timezone":{"dstOffset":7,"gmtOffset":7,"timeZoneId":"Asia/Ho_Chi_Minh"},"lat":15.04193,"lng":108.46973,"population":0},{"id":1567649,"name":"Sơn Dương","timezone":{"dstOffset":7,"gmtOffset":7,"timeZoneId":"Asia/Ho_Chi_Minh"},"lat":21.69676,"lng":105.39901,"population":0},{"id":1567701,"name":"Sông Mã","timezone":{"dstOffset":7,"gmtOffset":7,"timeZoneId":"Asia/Ho_Chi_Minh"},"lat":21.05091,"lng":103.74987,"population":0},{"id":1567878,"name":"Thị Trấn Sìn Hồ","timezone":{"dstOffset":7,"gmtOffset":7,"timeZoneId":"Asia/Ho_Chi_Minh"},"lat":22.36647,"lng":103.23438,"population":0},{"id":1567902,"name":"Si Ma Cai","timezone":{"dstOffset":7,"gmtOffset":7,"timeZoneId":"Asia/Ho_Chi_Minh"},"lat":22.6951,"lng":104.27857,"population":0},{"id":1568526,"name":"Mường Chiên","timezone":{"dstOffset":7,"gmtOffset":7,"timeZoneId":"Asia/Ho_Chi_Minh"},"lat":21.8424,"lng":103.56608,"population":0},{"id":1568540,"name":"Quỳnh Côi","timezone":{"dstOffset":7,"gmtOffset":7,"timeZoneId":"Asia/Ho_Chi_Minh"},"lat":20.66192,"lng":106.32744,"population":0},{"id":1568593,"name":"Quỳ Hợp","timezone":{"dstOffset":7,"gmtOffset":7,"timeZoneId":"Asia/Ho_Chi_Minh"},"lat":19.32546,"lng":105.18251,"population":0},{"id":1568605,"name":"Oui Dat","timezone":{"dstOffset":7,"gmtOffset":7,"timeZoneId":"Asia/Ho_Chi_Minh"},"lat":17.80459,"lng":105.97044,"population":0},{"id":1568608,"name":"Quỳ Châu","timezone":{"dstOffset":7,"gmtOffset":7,"timeZoneId":"Asia/Ho_Chi_Minh"},"lat":19.55206,"lng":105.09387,"population":0},{"id":1568616,"name":"Quế Sơn","timezone":{"dstOffset":7,"gmtOffset":7,"timeZoneId":"Asia/Ho_Chi_Minh"},"lat":15.67356,"lng":108.2201,"population":0},{"id":1568619,"name":"Kim Sơn","timezone":{"dstOffset":7,"gmtOffset":7,"timeZoneId":"Asia/Ho_Chi_Minh"},"lat":19.60409,"lng":104.91903,"population":0},{"id":1568706,"name":"Thị Trấn Quan Hóa","timezone":{"dstOffset":7,"gmtOffset":7,"timeZoneId":"Asia/Ho_Chi_Minh"},"lat":20.38481,"lng":105.10024,"population":0},{"id":1568717,"name":"Quảng Yên","timezone":{"dstOffset":7,"gmtOffset":7,"timeZoneId":"Asia/Ho_Chi_Minh"},"lat":20.9421,"lng":106.8027,"population":0},{"id":1568728,"name":"Thị Trấn Quảng Uyên","timezone":{"dstOffset":7,"gmtOffset":7,"timeZoneId":"Asia/Ho_Chi_Minh"},"lat":22.69499,"lng":106.44235,"population":0},{"id":1568737,"name":"Ba Đồn","timezone":{"dstOffset":7,"gmtOffset":7,"timeZoneId":"Asia/Ho_Chi_Minh"},"lat":17.75353,"lng":106.42355,"population":0},{"id":1568759,"name":"Quán Hàu","timezone":{"dstOffset":7,"gmtOffset":7,"timeZoneId":"Asia/Ho_Chi_Minh"},"lat":17.40438,"lng":106.64072,"population":0},{"id":1569620,"name":"Plei Kần","timezone":{"dstOffset":7,"gmtOffset":7,"timeZoneId":"Asia/Ho_Chi_Minh"},"lat":14.70495,"lng":107.6862,"population":0},{"id":1569806,"name":"Phù Yên","timezone":{"dstOffset":7,"gmtOffset":7,"timeZoneId":"Asia/Ho_Chi_Minh"},"lat":21.26331,"lng":104.64439,"population":0},{"id":1569850,"name":"Phú Vang","timezone":{"dstOffset":7,"gmtOffset":7,"timeZoneId":"Asia/Ho_Chi_Minh"},"lat":16.43911,"lng":107.71438,"population":0},{"id":1569857,"name":"Phú Túc","timezone":{"dstOffset":7,"gmtOffset":7,"timeZoneId":"Asia/Ho_Chi_Minh"},"lat":13.19682,"lng":108.69042,"population":0},{"id":1569898,"name":"Phủ Thông","timezone":{"dstOffset":7,"gmtOffset":7,"timeZoneId":"Asia/Ho_Chi_Minh"},"lat":22.27314,"lng":105.87943,"population":0},{"id":1569901,"name":"Phú Thọ","timezone":{"dstOffset":7,"gmtOffset":7,"timeZoneId":"Asia/Ho_Chi_Minh"},"lat":21.39963,"lng":105.22221,"population":0},{"id":1569991,"name":"Phú Phong","timezone":{"dstOffset":7,"gmtOffset":7,"timeZoneId":"Asia/Ho_Chi_Minh"},"lat":13.90964,"lng":108.91903,"population":0},{"id":1570243,"name":"Phước An","timezone":{"dstOffset":7,"gmtOffset":7,"timeZoneId":"Asia/Ho_Chi_Minh"},"lat":12.71298,"lng":108.30148,"population":0},{"id":1570319,"name":"Phụng Hiệp","timezone":{"dstOffset":7,"gmtOffset":7,"timeZoneId":"Asia/Ho_Chi_Minh"},"lat":9.77972,"lng":105.7338,"population":0},{"id":1570352,"name":"Phù Mỹ","timezone":{"dstOffset":7,"gmtOffset":7,"timeZoneId":"Asia/Ho_Chi_Minh"},"lat":14.17182,"lng":109.04888,"population":0},{"id":1570496,"name":"Phú Lộc","timezone":{"dstOffset":7,"gmtOffset":7,"timeZoneId":"Asia/Ho_Chi_Minh"},"lat":16.28035,"lng":107.85898,"population":0},{"id":1570656,"name":"Phúc Yên","timezone":{"dstOffset":7,"gmtOffset":7,"timeZoneId":"Asia/Ho_Chi_Minh"},"lat":21.23695,"lng":105.70483,"population":0},{"id":1570752,"name":"Phù Cát","timezone":{"dstOffset":7,"gmtOffset":7,"timeZoneId":"Asia/Ho_Chi_Minh"},"lat":14.00316,"lng":109.05804,"population":0},{"id":1570815,"name":"Thị Trấn Phong Thổ","timezone":{"dstOffset":7,"gmtOffset":7,"timeZoneId":"Asia/Ho_Chi_Minh"},"lat":22.54433,"lng":103.29776,"population":0},{"id":1570863,"name":"Phong Điền","timezone":{"dstOffset":7,"gmtOffset":7,"timeZoneId":"Asia/Ho_Chi_Minh"},"lat":16.58321,"lng":107.36438,"population":0},{"id":1570864,"name":"Phong Điền","timezone":{"dstOffset":7,"gmtOffset":7,"timeZoneId":"Asia/Ho_Chi_Minh"},"lat":9.99753,"lng":105.6673,"population":0},{"id":1570880,"name":"Thị Trấn Phố Lu","timezone":{"dstOffset":7,"gmtOffset":7,"timeZoneId":"Asia/Ho_Chi_Minh"},"lat":22.31918,"lng":104.18719,"population":0},{"id":1570901,"name":"Phố Châu","timezone":{"dstOffset":7,"gmtOffset":7,"timeZoneId":"Asia/Ho_Chi_Minh"},"lat":18.51335,"lng":105.42411,"population":0},{"id":1570906,"name":"Thị Trấn Bến Sung","timezone":{"dstOffset":7,"gmtOffset":7,"timeZoneId":"Asia/Ho_Chi_Minh"},"lat":19.63141,"lng":105.57815,"population":0},{"id":1571029,"name":"Thị Trấn Phát Diệm","timezone":{"dstOffset":7,"gmtOffset":7,"timeZoneId":"Asia/Ho_Chi_Minh"},"lat":20.09054,"lng":106.08323,"population":0},{"id":1571644,"name":"Ô Môn","timezone":{"dstOffset":7,"gmtOffset":7,"timeZoneId":"Asia/Ho_Chi_Minh"},"lat":10.10974,"lng":105.62318,"population":0},{"id":1571725,"name":"Thị Trấn Nước Hai","timezone":{"dstOffset":7,"gmtOffset":7,"timeZoneId":"Asia/Ho_Chi_Minh"},"lat":22.73738,"lng":106.15216,"population":0},{"id":1571768,"name":"Núi Đèo","timezone":{"dstOffset":7,"gmtOffset":7,"timeZoneId":"Asia/Ho_Chi_Minh"},"lat":20.9157,"lng":106.6744,"population":0},{"id":1571951,"name":"Ninh Hòa","timezone":{"dstOffset":7,"gmtOffset":7,"timeZoneId":"Asia/Ho_Chi_Minh"},"lat":12.49187,"lng":109.12496,"population":0},{"id":1571954,"name":"Ninh Giang","timezone":{"dstOffset":7,"gmtOffset":7,"timeZoneId":"Asia/Ho_Chi_Minh"},"lat":20.73083,"lng":106.39789,"population":0},{"id":1572018,"name":"Như Quỳnh","timezone":{"dstOffset":7,"gmtOffset":7,"timeZoneId":"Asia/Ho_Chi_Minh"},"lat":20.98167,"lng":105.98486,"population":0},{"id":1572071,"name":"Thị Trấn Nho Quan","timezone":{"dstOffset":7,"gmtOffset":7,"timeZoneId":"Asia/Ho_Chi_Minh"},"lat":20.32279,"lng":105.75189,"population":0},{"id":1572074,"name":"Nhơn Trạch","timezone":{"dstOffset":7,"gmtOffset":7,"timeZoneId":"Asia/Ho_Chi_Minh"},"lat":10.72294,"lng":106.88341,"population":0},{"id":1572249,"name":"Nhà Bè","timezone":{"dstOffset":7,"gmtOffset":7,"timeZoneId":"Asia/Ho_Chi_Minh"},"lat":10.69672,"lng":106.74032,"population":0},{"id":1572251,"name":"Nhà Bàng","timezone":{"dstOffset":7,"gmtOffset":7,"timeZoneId":"Asia/Ho_Chi_Minh"},"lat":10.62502,"lng":105.00854,"population":0},{"id":1572274,"name":"Thị Trấn Nguyên Bình","timezone":{"dstOffset":7,"gmtOffset":7,"timeZoneId":"Asia/Ho_Chi_Minh"},"lat":22.64995,"lng":105.95984,"population":0},{"id":1572368,"name":"Ngô Đồng","timezone":{"dstOffset":7,"gmtOffset":7,"timeZoneId":"Asia/Ho_Chi_Minh"},"lat":20.28296,"lng":106.44347,"population":0},{"id":1572446,"name":"Thị Trấn Ngọc Lặc","timezone":{"dstOffset":7,"gmtOffset":7,"timeZoneId":"Asia/Ho_Chi_Minh"},"lat":20.09189,"lng":105.36761,"population":0},{"id":1572508,"name":"Tiền Hải","timezone":{"dstOffset":7,"gmtOffset":7,"timeZoneId":"Asia/Ho_Chi_Minh"},"lat":20.40557,"lng":106.50365,"population":0},{"id":1572526,"name":"Nghi Xuân","timezone":{"dstOffset":7,"gmtOffset":7,"timeZoneId":"Asia/Ho_Chi_Minh"},"lat":18.66206,"lng":105.75574,"population":0},{"id":1572536,"name":"Quán Hành","timezone":{"dstOffset":7,"gmtOffset":7,"timeZoneId":"Asia/Ho_Chi_Minh"},"lat":18.77927,"lng":105.64596,"population":0},{"id":1572575,"name":"Nghĩa Hành","timezone":{"dstOffset":7,"gmtOffset":7,"timeZoneId":"Asia/Ho_Chi_Minh"},"lat":15.04568,"lng":108.77724,"population":0},{"id":1572614,"name":"Thị Trấn Nga Sơn","timezone":{"dstOffset":7,"gmtOffset":7,"timeZoneId":"Asia/Ho_Chi_Minh"},"lat":20.00722,"lng":105.97044,"population":0},{"id":1572628,"name":"Vân Tùng","timezone":{"dstOffset":7,"gmtOffset":7,"timeZoneId":"Asia/Ho_Chi_Minh"},"lat":22.43082,"lng":105.99687,"population":0},{"id":1572696,"name":"Thị Trấn Ngải Giao","timezone":{"dstOffset":7,"gmtOffset":7,"timeZoneId":"Asia/Ho_Chi_Minh"},"lat":10.6471,"lng":107.24577,"population":0},{"id":1572898,"name":"Thị Trấn Na Sầm","timezone":{"dstOffset":7,"gmtOffset":7,"timeZoneId":"Asia/Ho_Chi_Minh"},"lat":22.05639,"lng":106.6151,"population":0},{"id":1573524,"name":"Nam Đàn","timezone":{"dstOffset":7,"gmtOffset":7,"timeZoneId":"Asia/Ho_Chi_Minh"},"lat":18.69799,"lng":105.49881,"population":0},{"id":1573570,"name":"Năm Căn","timezone":{"dstOffset":7,"gmtOffset":7,"timeZoneId":"Asia/Ho_Chi_Minh"},"lat":8.75899,"lng":104.99285,"population":0},{"id":1573993,"name":"Mỹ Xuyên","timezone":{"dstOffset":7,"gmtOffset":7,"timeZoneId":"Asia/Ho_Chi_Minh"},"lat":9.56006,"lng":105.98984,"population":0},{"id":1574024,"name":"Mỹ Thọ","timezone":{"dstOffset":7,"gmtOffset":7,"timeZoneId":"Asia/Ho_Chi_Minh"},"lat":10.44267,"lng":105.69508,"population":0},{"id":1574093,"name":"Thị Trấn Mỹ Lộc","timezone":{"dstOffset":7,"gmtOffset":7,"timeZoneId":"Asia/Ho_Chi_Minh"},"lat":20.44111,"lng":106.10238,"population":0},{"id":1574148,"name":"Thạnh Mỹ","timezone":{"dstOffset":7,"gmtOffset":7,"timeZoneId":"Asia/Ho_Chi_Minh"},"lat":15.74889,"lng":107.83678,"population":0},{"id":1560078,"name":"Yên Thành","timezone":{"dstOffset":7,"gmtOffset":7,"timeZoneId":"Asia/Ho_Chi_Minh"},"lat":18.99856,"lng":105.47116,"population":0},{"id":1560143,"name":"Thị Trấn Yên Ninh","timezone":{"dstOffset":7,"gmtOffset":7,"timeZoneId":"Asia/Ho_Chi_Minh"},"lat":20.18396,"lng":106.06121,"population":0},{"id":1560166,"name":"Thị Trấn Yên Minh","timezone":{"dstOffset":7,"gmtOffset":7,"timeZoneId":"Asia/Ho_Chi_Minh"},"lat":23.11792,"lng":105.14159,"population":0},{"id":1560227,"name":"Yến Lạc","timezone":{"dstOffset":7,"gmtOffset":7,"timeZoneId":"Asia/Ho_Chi_Minh"},"lat":22.23693,"lng":106.18149,"population":0},{"id":1560229,"name":"Yên Lạc","timezone":{"dstOffset":7,"gmtOffset":7,"timeZoneId":"Asia/Ho_Chi_Minh"},"lat":21.23646,"lng":105.57297,"population":0},{"id":1560336,"name":"Thị Trấn Yên Châu","timezone":{"dstOffset":7,"gmtOffset":7,"timeZoneId":"Asia/Ho_Chi_Minh"},"lat":21.04584,"lng":104.30101,"population":0},{"id":1561914,"name":"Cai Doi Vam","timezone":{"dstOffset":7,"gmtOffset":7,"timeZoneId":"Asia/Ho_Chi_Minh"},"lat":8.85706,"lng":104.812,"population":0},{"id":1562176,"name":"Trảng Bom","timezone":{"dstOffset":7,"gmtOffset":7,"timeZoneId":"Asia/Ho_Chi_Minh"},"lat":10.95358,"lng":107.00589,"population":0},{"id":1562308,"name":"Gia Ray","timezone":{"dstOffset":7,"gmtOffset":7,"timeZoneId":"Asia/Ho_Chi_Minh"},"lat":10.92615,"lng":107.40172,"population":0},{"id":1562418,"name":"Vũng Liêm","timezone":{"dstOffset":7,"gmtOffset":7,"timeZoneId":"Asia/Ho_Chi_Minh"},"lat":10.09576,"lng":106.18548,"population":0},{"id":1562456,"name":"Thị Trấn Vụ Bản","timezone":{"dstOffset":7,"gmtOffset":7,"timeZoneId":"Asia/Ho_Chi_Minh"},"lat":20.4642,"lng":105.44348,"population":0},{"id":1562464,"name":"Võ Xu","timezone":{"dstOffset":7,"gmtOffset":7,"timeZoneId":"Asia/Ho_Chi_Minh"},"lat":11.18691,"lng":107.56025,"population":0},{"id":1562568,"name":"Thị Trấn Vĩnh Tuy","timezone":{"dstOffset":7,"gmtOffset":7,"timeZoneId":"Asia/Ho_Chi_Minh"},"lat":22.27441,"lng":104.89091,"population":0},{"id":1562592,"name":"Vĩnh Thuận","timezone":{"dstOffset":7,"gmtOffset":7,"timeZoneId":"Asia/Ho_Chi_Minh"},"lat":9.50802,"lng":105.25747,"population":0},{"id":1562611,"name":"Vĩnh Thạnh","timezone":{"dstOffset":7,"gmtOffset":7,"timeZoneId":"Asia/Ho_Chi_Minh"},"lat":14.10884,"lng":108.78381,"population":0},{"id":1562697,"name":"Thị Trấn Vĩnh Lộc","timezone":{"dstOffset":7,"gmtOffset":7,"timeZoneId":"Asia/Ho_Chi_Minh"},"lat":20.05438,"lng":105.61568,"population":0},{"id":1562773,"name":"Vĩnh Châu","timezone":{"dstOffset":7,"gmtOffset":7,"timeZoneId":"Asia/Ho_Chi_Minh"},"lat":9.32439,"lng":105.98006,"population":0},{"id":1562782,"name":"Vĩnh Bình","timezone":{"dstOffset":7,"gmtOffset":7,"timeZoneId":"Asia/Ho_Chi_Minh"},"lat":10.34498,"lng":106.58056,"population":0},{"id":1562984,"name":"Văn Quan","timezone":{"dstOffset":7,"gmtOffset":7,"timeZoneId":"Asia/Ho_Chi_Minh"},"lat":21.86516,"lng":106.53925,"population":0},{"id":1563006,"name":"Vạn Giã","timezone":{"dstOffset":7,"gmtOffset":7,"timeZoneId":"Asia/Ho_Chi_Minh"},"lat":12.69203,"lng":109.22069,"population":0},{"id":1563139,"name":"Vân Đình","timezone":{"dstOffset":7,"gmtOffset":7,"timeZoneId":"Asia/Ho_Chi_Minh"},"lat":20.73514,"lng":105.77236,"population":0},{"id":1563141,"name":"Văn Điển","timezone":{"dstOffset":7,"gmtOffset":7,"timeZoneId":"Asia/Ho_Chi_Minh"},"lat":20.9463,"lng":105.845,"population":0},{"id":1563169,"name":"Vân Canh","timezone":{"dstOffset":7,"gmtOffset":7,"timeZoneId":"Asia/Ho_Chi_Minh"},"lat":13.61945,"lng":108.99805,"population":0},{"id":1563265,"name":"Tuy Phước","timezone":{"dstOffset":7,"gmtOffset":7,"timeZoneId":"Asia/Ho_Chi_Minh"},"lat":13.82738,"lng":109.16651,"population":0},{"id":1563359,"name":"Hòa Bình","timezone":{"dstOffset":7,"gmtOffset":7,"timeZoneId":"Asia/Ho_Chi_Minh"},"lat":19.26393,"lng":104.47232,"population":0},{"id":1563370,"name":"Tư Nghĩa","timezone":{"dstOffset":7,"gmtOffset":7,"timeZoneId":"Asia/Ho_Chi_Minh"},"lat":15.08451,"lng":108.826,"population":0},{"id":1563704,"name":"Thị Trấn Trùng Khánh","timezone":{"dstOffset":7,"gmtOffset":7,"timeZoneId":"Asia/Ho_Chi_Minh"},"lat":22.83514,"lng":106.52496,"population":0},{"id":1563823,"name":"Tri Tôn","timezone":{"dstOffset":7,"gmtOffset":7,"timeZoneId":"Asia/Ho_Chi_Minh"},"lat":10.4202,"lng":105.00073,"population":0},{"id":1563977,"name":"Trà Ôn","timezone":{"dstOffset":7,"gmtOffset":7,"timeZoneId":"Asia/Ho_Chi_Minh"},"lat":9.96261,"lng":105.92168,"population":0},{"id":1594371,"name":"An Lão","timezone":{"dstOffset":7,"gmtOffset":7,"timeZoneId":"Asia/Ho_Chi_Minh"},"lat":14.6124,"lng":108.8899,"population":0},{"id":1594454,"name":"An Dương","timezone":{"dstOffset":7,"gmtOffset":7,"timeZoneId":"Asia/Ho_Chi_Minh"},"lat":20.86382,"lng":106.6133,"population":0},{"id":1594496,"name":"An Châu","timezone":{"dstOffset":7,"gmtOffset":7,"timeZoneId":"Asia/Ho_Chi_Minh"},"lat":21.33465,"lng":106.84934,"population":0},{"id":1594518,"name":"An Biên","timezone":{"dstOffset":7,"gmtOffset":7,"timeZoneId":"Asia/Ho_Chi_Minh"},"lat":9.81532,"lng":105.06366,"population":0},{"id":1594548,"name":"A Lưới","timezone":{"dstOffset":7,"gmtOffset":7,"timeZoneId":"Asia/Ho_Chi_Minh"},"lat":16.27228,"lng":107.23385,"population":0},{"id":1941427,"name":"Thị Trấn Tam Điệp","timezone":{"dstOffset":7,"gmtOffset":7,"timeZoneId":"Asia/Ho_Chi_Minh"},"lat":20.15635,"lng":105.91737,"population":0},{"id":1942015,"name":"Châu Thành","timezone":{"dstOffset":7,"gmtOffset":7,"timeZoneId":"Asia/Ho_Chi_Minh"},"lat":9.86989,"lng":106.34939,"population":0},{"id":1904560,"name":"Quận Bảy","timezone":{"dstOffset":7,"gmtOffset":7,"timeZoneId":"Asia/Ho_Chi_Minh"},"lat":10.7118,"lng":106.73643,"population":0},{"id":7910088,"name":"Uyen Hung","timezone":{"dstOffset":7,"gmtOffset":7,"timeZoneId":"Asia/Ho_Chi_Minh"},"lat":11.08416,"lng":106.78834,"population":0},{"id":8476780,"name":"Thị Trấn Thông Nông","timezone":{"dstOffset":7,"gmtOffset":7,"timeZoneId":"Asia/Ho_Chi_Minh"},"lat":22.7841,"lng":105.9832,"population":0},{"id":8476806,"name":"Thị Trấn Xuân Hoà","timezone":{"dstOffset":7,"gmtOffset":7,"timeZoneId":"Asia/Ho_Chi_Minh"},"lat":22.90243,"lng":106.07737,"population":0},{"id":8476898,"name":"Thị Trấn Hùng Quốc","timezone":{"dstOffset":7,"gmtOffset":7,"timeZoneId":"Asia/Ho_Chi_Minh"},"lat":22.82898,"lng":106.32335,"population":0},{"id":8637745,"name":"Vũ Quang","timezone":{"dstOffset":7,"gmtOffset":7,"timeZoneId":"Asia/Ho_Chi_Minh"},"lat":18.38385,"lng":105.5059,"population":0},{"id":8637813,"name":"Nghèn","timezone":{"dstOffset":7,"gmtOffset":7,"timeZoneId":"Asia/Ho_Chi_Minh"},"lat":18.45119,"lng":105.77969,"population":0},{"id":8650753,"name":"Krông Klang","timezone":{"dstOffset":7,"gmtOffset":7,"timeZoneId":"Asia/Ho_Chi_Minh"},"lat":16.68906,"lng":106.8874,"population":0},{"id":8668502,"name":"Prao","timezone":{"dstOffset":7,"gmtOffset":7,"timeZoneId":"Asia/Ho_Chi_Minh"},"lat":15.92438,"lng":107.64814,"population":0},{"id":8668521,"name":"Khâm Đức","timezone":{"dstOffset":7,"gmtOffset":7,"timeZoneId":"Asia/Ho_Chi_Minh"},"lat":15.44508,"lng":107.79337,"population":0},{"id":8668557,"name":"Núi Thành","timezone":{"dstOffset":7,"gmtOffset":7,"timeZoneId":"Asia/Ho_Chi_Minh"},"lat":15.43194,"lng":108.65946,"population":0},{"id":8668697,"name":"Phú Ninh","timezone":{"dstOffset":7,"gmtOffset":7,"timeZoneId":"Asia/Ho_Chi_Minh"},"lat":15.55473,"lng":108.41142,"population":0},{"id":8673079,"name":"Tây Trà","timezone":{"dstOffset":7,"gmtOffset":7,"timeZoneId":"Asia/Ho_Chi_Minh"},"lat":15.16948,"lng":108.35998,"population":0},{"id":8673396,"name":"Lý Sơn","timezone":{"dstOffset":7,"gmtOffset":7,"timeZoneId":"Asia/Ho_Chi_Minh"},"lat":15.37198,"lng":109.11891,"population":0},{"id":8607120,"name":"Thanh Miện","timezone":{"dstOffset":7,"gmtOffset":7,"timeZoneId":"Asia/Ho_Chi_Minh"},"lat":20.78714,"lng":106.24623,"population":0},{"id":8607137,"name":"Nam Sách","timezone":{"dstOffset":7,"gmtOffset":7,"timeZoneId":"Asia/Ho_Chi_Minh"},"lat":20.99205,"lng":106.33613,"population":0},{"id":8607197,"name":"Gia Lộc","timezone":{"dstOffset":7,"gmtOffset":7,"timeZoneId":"Asia/Ho_Chi_Minh"},"lat":20.86783,"lng":106.3,"population":0},{"id":8607207,"name":"Tứ Kỳ","timezone":{"dstOffset":7,"gmtOffset":7,"timeZoneId":"Asia/Ho_Chi_Minh"},"lat":20.81914,"lng":106.40661,"population":0},{"id":8607221,"name":"Thanh Hà","timezone":{"dstOffset":7,"gmtOffset":7,"timeZoneId":"Asia/Ho_Chi_Minh"},"lat":20.89816,"lng":106.42612,"population":0},{"id":8607234,"name":"Phú Thái","timezone":{"dstOffset":7,"gmtOffset":7,"timeZoneId":"Asia/Ho_Chi_Minh"},"lat":20.96278,"lng":106.5095,"population":0},{"id":8612735,"name":"Văn Giang","timezone":{"dstOffset":7,"gmtOffset":7,"timeZoneId":"Asia/Ho_Chi_Minh"},"lat":20.94301,"lng":105.93119,"population":0},{"id":8612761,"name":"Yên Mỹ","timezone":{"dstOffset":7,"gmtOffset":7,"timeZoneId":"Asia/Ho_Chi_Minh"},"lat":20.88557,"lng":106.0356,"population":0},{"id":8612781,"name":"Khoái Châu","timezone":{"dstOffset":7,"gmtOffset":7,"timeZoneId":"Asia/Ho_Chi_Minh"},"lat":20.83912,"lng":105.97755,"population":0},{"id":8612792,"name":"Lương Bằng","timezone":{"dstOffset":7,"gmtOffset":7,"timeZoneId":"Asia/Ho_Chi_Minh"},"lat":20.74003,"lng":106.05998,"population":0},{"id":8612808,"name":"Ân Thi","timezone":{"dstOffset":7,"gmtOffset":7,"timeZoneId":"Asia/Ho_Chi_Minh"},"lat":20.81835,"lng":106.09118,"population":0},{"id":8612817,"name":"Trần Cao","timezone":{"dstOffset":7,"gmtOffset":7,"timeZoneId":"Asia/Ho_Chi_Minh"},"lat":20.72952,"lng":106.17971,"population":0},{"id":8612829,"name":"Vương","timezone":{"dstOffset":7,"gmtOffset":7,"timeZoneId":"Asia/Ho_Chi_Minh"},"lat":20.7011,"lng":106.11752,"population":0},{"id":8615817,"name":"Liên Quan","timezone":{"dstOffset":7,"gmtOffset":7,"timeZoneId":"Asia/Ho_Chi_Minh"},"lat":21.05723,"lng":105.57919,"population":0},{"id":8615841,"name":"Phúc Thọ","timezone":{"dstOffset":7,"gmtOffset":7,"timeZoneId":"Asia/Ho_Chi_Minh"},"lat":21.10345,"lng":105.54551,"population":0},{"id":8615856,"name":"Phùng","timezone":{"dstOffset":7,"gmtOffset":7,"timeZoneId":"Asia/Ho_Chi_Minh"},"lat":21.08902,"lng":105.65901,"population":0},{"id":8615873,"name":"Trôi","timezone":{"dstOffset":7,"gmtOffset":7,"timeZoneId":"Asia/Ho_Chi_Minh"},"lat":21.06953,"lng":105.70646,"population":0},{"id":8615881,"name":"Quốc Oai","timezone":{"dstOffset":7,"gmtOffset":7,"timeZoneId":"Asia/Ho_Chi_Minh"},"lat":20.99019,"lng":105.64088,"population":0},{"id":8615957,"name":"Thường Tín","timezone":{"dstOffset":7,"gmtOffset":7,"timeZoneId":"Asia/Ho_Chi_Minh"},"lat":20.86874,"lng":105.86125,"population":0},{"id":8615973,"name":"Phú Xuyên","timezone":{"dstOffset":7,"gmtOffset":7,"timeZoneId":"Asia/Ho_Chi_Minh"},"lat":20.74549,"lng":105.91363,"population":0},{"id":8616004,"name":"Đại Nghĩa","timezone":{"dstOffset":7,"gmtOffset":7,"timeZoneId":"Asia/Ho_Chi_Minh"},"lat":20.68667,"lng":105.74471,"population":0},{"id":8616016,"name":"Sóc Sơn","timezone":{"dstOffset":7,"gmtOffset":7,"timeZoneId":"Asia/Ho_Chi_Minh"},"lat":21.25782,"lng":105.84894,"population":0},{"id":8616040,"name":"Đông Anh","timezone":{"dstOffset":7,"gmtOffset":7,"timeZoneId":"Asia/Ho_Chi_Minh"},"lat":21.13962,"lng":105.84926,"population":0},{"id":8616055,"name":"Cầu Diễn","timezone":{"dstOffset":7,"gmtOffset":7,"timeZoneId":"Asia/Ho_Chi_Minh"},"lat":21.03929,"lng":105.76659,"population":0},{"id":8616067,"name":"Trâu Quỳ","timezone":{"dstOffset":7,"gmtOffset":7,"timeZoneId":"Asia/Ho_Chi_Minh"},"lat":21.01951,"lng":105.93694,"population":0},{"id":8616113,"name":"Cầu Giấy","timezone":{"dstOffset":7,"gmtOffset":7,"timeZoneId":"Asia/Ho_Chi_Minh"},"lat":21.03228,"lng":105.80073,"population":0},{"id":8616118,"name":"Thanh Xuân","timezone":{"dstOffset":7,"gmtOffset":7,"timeZoneId":"Asia/Ho_Chi_Minh"},"lat":20.99472,"lng":105.79977,"population":0},{"id":8616121,"name":"Đống Đa","timezone":{"dstOffset":7,"gmtOffset":7,"timeZoneId":"Asia/Ho_Chi_Minh"},"lat":21.02009,"lng":105.83097,"population":0},{"id":8616124,"name":"Hoàn Kiếm","timezone":{"dstOffset":7,"gmtOffset":7,"timeZoneId":"Asia/Ho_Chi_Minh"},"lat":21.02857,"lng":105.85064,"population":0},{"id":8616127,"name":"Hai BàTrưng","timezone":{"dstOffset":7,"gmtOffset":7,"timeZoneId":"Asia/Ho_Chi_Minh"},"lat":21.01342,"lng":105.84772,"population":0},{"id":8675891,"name":"Đắk Glei","timezone":{"dstOffset":7,"gmtOffset":7,"timeZoneId":"Asia/Ho_Chi_Minh"},"lat":15.08642,"lng":107.73577,"population":0},{"id":8675937,"name":"Sa Thầy","timezone":{"dstOffset":7,"gmtOffset":7,"timeZoneId":"Asia/Ho_Chi_Minh"},"lat":14.41377,"lng":107.79339,"population":0},{"id":8675967,"name":"Đắk Hà","timezone":{"dstOffset":7,"gmtOffset":7,"timeZoneId":"Asia/Ho_Chi_Minh"},"lat":14.51345,"lng":107.92102,"population":0},{"id":8675975,"name":"Đắk Rve","timezone":{"dstOffset":7,"gmtOffset":7,"timeZoneId":"Asia/Ho_Chi_Minh"},"lat":14.50717,"lng":108.2473,"population":0},{"id":8675985,"name":"Kon Plông","timezone":{"dstOffset":7,"gmtOffset":7,"timeZoneId":"Asia/Ho_Chi_Minh"},"lat":14.60064,"lng":108.29088,"population":0},{"id":8200099,"name":"Yên Lập","timezone":{"dstOffset":7,"gmtOffset":7,"timeZoneId":"Asia/Ho_Chi_Minh"},"lat":21.34705,"lng":105.05739,"population":0},{"id":8200205,"name":"Thanh Ba","timezone":{"dstOffset":7,"gmtOffset":7,"timeZoneId":"Asia/Ho_Chi_Minh"},"lat":21.4988,"lng":105.14104,"population":0},{"id":8200212,"name":"Sông Thao","timezone":{"dstOffset":7,"gmtOffset":7,"timeZoneId":"Asia/Ho_Chi_Minh"},"lat":21.4213,"lng":105.13374,"population":0},{"id":8200783,"name":"Hưng Hóa","timezone":{"dstOffset":7,"gmtOffset":7,"timeZoneId":"Asia/Ho_Chi_Minh"},"lat":21.25487,"lng":105.2953,"population":0},{"id":8200836,"name":"Phong Châu","timezone":{"dstOffset":7,"gmtOffset":7,"timeZoneId":"Asia/Ho_Chi_Minh"},"lat":21.4068,"lng":105.31228,"population":0},{"id":8336866,"name":"An Châu","timezone":{"dstOffset":7,"gmtOffset":7,"timeZoneId":"Asia/Ho_Chi_Minh"},"lat":10.44559,"lng":105.38622,"population":0},{"id":8336885,"name":"Núi Sập","timezone":{"dstOffset":7,"gmtOffset":7,"timeZoneId":"Asia/Ho_Chi_Minh"},"lat":10.26478,"lng":105.26676,"population":0},{"id":8337809,"name":"Tầm Vu","timezone":{"dstOffset":7,"gmtOffset":7,"timeZoneId":"Asia/Ho_Chi_Minh"},"lat":10.44114,"lng":106.46793,"population":0},{"id":8381874,"name":"Bằng Lũng","timezone":{"dstOffset":7,"gmtOffset":7,"timeZoneId":"Asia/Ho_Chi_Minh"},"lat":22.15777,"lng":105.59559,"population":0},{"id":8381808,"name":"Bộc Bố","timezone":{"dstOffset":7,"gmtOffset":7,"timeZoneId":"Asia/Ho_Chi_Minh"},"lat":22.61206,"lng":105.66707,"population":0},{"id":8375952,"name":"Cái Dầu","timezone":{"dstOffset":7,"gmtOffset":7,"timeZoneId":"Asia/Ho_Chi_Minh"},"lat":10.57428,"lng":105.24005,"population":0},{"id":8376452,"name":"Cầu Gồ","timezone":{"dstOffset":7,"gmtOffset":7,"timeZoneId":"Asia/Ho_Chi_Minh"},"lat":21.47679,"lng":106.12653,"population":0},{"id":8376497,"name":"Đồi Ngô","timezone":{"dstOffset":7,"gmtOffset":7,"timeZoneId":"Asia/Ho_Chi_Minh"},"lat":21.30626,"lng":106.38673,"population":0},{"id":8376580,"name":"Neo","timezone":{"dstOffset":7,"gmtOffset":7,"timeZoneId":"Asia/Ho_Chi_Minh"},"lat":21.20048,"lng":106.24739,"population":0},{"id":8376599,"name":"Bích Động","timezone":{"dstOffset":7,"gmtOffset":7,"timeZoneId":"Asia/Ho_Chi_Minh"},"lat":21.27421,"lng":106.10069,"population":0},{"id":8376620,"name":"Thắng","timezone":{"dstOffset":7,"gmtOffset":7,"timeZoneId":"Asia/Ho_Chi_Minh"},"lat":21.35505,"lng":105.98344,"population":0},{"id":8340623,"name":"Gia Bình","timezone":{"dstOffset":7,"gmtOffset":7,"timeZoneId":"Asia/Ho_Chi_Minh"},"lat":21.05938,"lng":106.17468,"population":0},{"id":8340640,"name":"Thứa","timezone":{"dstOffset":7,"gmtOffset":7,"timeZoneId":"Asia/Ho_Chi_Minh"},"lat":21.01937,"lng":106.20044,"population":0},{"id":8340649,"name":"Chờ","timezone":{"dstOffset":7,"gmtOffset":7,"timeZoneId":"Asia/Ho_Chi_Minh"},"lat":21.19491,"lng":105.95472,"population":0},{"id":8340671,"name":"Phố Mới","timezone":{"dstOffset":7,"gmtOffset":7,"timeZoneId":"Asia/Ho_Chi_Minh"},"lat":21.15328,"lng":106.15164,"population":0},{"id":8340703,"name":"Hồ","timezone":{"dstOffset":7,"gmtOffset":7,"timeZoneId":"Asia/Ho_Chi_Minh"},"lat":21.06308,"lng":106.0857,"population":0},{"id":8340720,"name":"Lim","timezone":{"dstOffset":7,"gmtOffset":7,"timeZoneId":"Asia/Ho_Chi_Minh"},"lat":21.14388,"lng":106.02018,"population":0},{"id":8341023,"name":"Thị Trấn Gành Hào","timezone":{"dstOffset":7,"gmtOffset":7,"timeZoneId":"Asia/Ho_Chi_Minh"},"lat":9.03183,"lng":105.42115,"population":0},{"id":8341032,"name":"Thị Trấn Ngan Dừa","timezone":{"dstOffset":7,"gmtOffset":7,"timeZoneId":"Asia/Ho_Chi_Minh"},"lat":9.56703,"lng":105.45018,"population":0},{"id":8341039,"name":"Thị Trấn Phước Long","timezone":{"dstOffset":7,"gmtOffset":7,"timeZoneId":"Asia/Ho_Chi_Minh"},"lat":9.43753,"lng":105.46217,"population":0},{"id":8341049,"name":"Thị Trấn Giá Rai","timezone":{"dstOffset":7,"gmtOffset":7,"timeZoneId":"Asia/Ho_Chi_Minh"},"lat":9.23789,"lng":105.45524,"population":0},{"id":8341067,"name":"Thị Trấn Hòa Bình","timezone":{"dstOffset":7,"gmtOffset":7,"timeZoneId":"Asia/Ho_Chi_Minh"},"lat":9.28471,"lng":105.62916,"population":0},{"id":8309330,"name":"Thị Trấn Tân Yên","timezone":{"dstOffset":7,"gmtOffset":7,"timeZoneId":"Asia/Ho_Chi_Minh"},"lat":22.0655,"lng":105.0345,"population":0},{"id":8309683,"name":"Tân Việt","timezone":{"dstOffset":7,"gmtOffset":7,"timeZoneId":"Asia/Ho_Chi_Minh"},"lat":22.86408,"lng":105.45904,"population":0},{"id":8309686,"name":"Pác Miầu","timezone":{"dstOffset":7,"gmtOffset":7,"timeZoneId":"Asia/Ho_Chi_Minh"},"lat":22.82968,"lng":105.49334,"population":0},{"id":8310244,"name":"Lập Thạch","timezone":{"dstOffset":7,"gmtOffset":7,"timeZoneId":"Asia/Ho_Chi_Minh"},"lat":21.41539,"lng":105.46081,"population":0},{"id":8564034,"name":"Thị Trấn Quế","timezone":{"dstOffset":7,"gmtOffset":7,"timeZoneId":"Asia/Ho_Chi_Minh"},"lat":20.58064,"lng":105.87266,"population":0},{"id":8564068,"name":"Thị Trấn Vĩnh Trụ","timezone":{"dstOffset":7,"gmtOffset":7,"timeZoneId":"Asia/Ho_Chi_Minh"},"lat":20.5602,"lng":106.02812,"population":0},{"id":8564079,"name":"Thị Trấn Bình Mỹ","timezone":{"dstOffset":7,"gmtOffset":7,"timeZoneId":"Asia/Ho_Chi_Minh"},"lat":20.49121,"lng":106.00955,"population":0},{"id":8564088,"name":"Thị Trấn Thanh Lưu","timezone":{"dstOffset":7,"gmtOffset":7,"timeZoneId":"Asia/Ho_Chi_Minh"},"lat":20.47398,"lng":105.95268,"population":0},{"id":8569519,"name":"Hưng Hà","timezone":{"dstOffset":7,"gmtOffset":7,"timeZoneId":"Asia/Ho_Chi_Minh"},"lat":20.5904,"lng":106.22445,"population":0},{"id":8569541,"name":"Vũ Thư","timezone":{"dstOffset":7,"gmtOffset":7,"timeZoneId":"Asia/Ho_Chi_Minh"},"lat":20.43671,"lng":106.29116,"population":0},{"id":8569646,"name":"Đông Hưng","timezone":{"dstOffset":7,"gmtOffset":7,"timeZoneId":"Asia/Ho_Chi_Minh"},"lat":20.55651,"lng":106.35532,"population":0},{"id":8549842,"name":"Thị Trấn Quảng Xương","timezone":{"dstOffset":7,"gmtOffset":7,"timeZoneId":"Asia/Ho_Chi_Minh"},"lat":19.72948,"lng":105.78273,"population":0},{"id":8549844,"name":"Thị Trấn Nông Cống","timezone":{"dstOffset":7,"gmtOffset":7,"timeZoneId":"Asia/Ho_Chi_Minh"},"lat":19.62403,"lng":105.64941,"population":0},{"id":8549876,"name":"Thị Trấn Quan Sơn","timezone":{"dstOffset":7,"gmtOffset":7,"timeZoneId":"Asia/Ho_Chi_Minh"},"lat":20.25909,"lng":104.94521,"population":0},{"id":8549965,"name":"Thị Trấn Yên Cát","timezone":{"dstOffset":7,"gmtOffset":7,"timeZoneId":"Asia/Ho_Chi_Minh"},"lat":19.66327,"lng":105.42854,"population":0},{"id":8550048,"name":"Thị Trấn Bút Sơn","timezone":{"dstOffset":7,"gmtOffset":7,"timeZoneId":"Asia/Ho_Chi_Minh"},"lat":19.85797,"lng":105.85482,"population":0},{"id":8550086,"name":"Thị Trấn Cành Nàng","timezone":{"dstOffset":7,"gmtOffset":7,"timeZoneId":"Asia/Ho_Chi_Minh"},"lat":20.34803,"lng":105.22881,"population":0},{"id":8550102,"name":"Thị Trấn Hậu Lộc","timezone":{"dstOffset":7,"gmtOffset":7,"timeZoneId":"Asia/Ho_Chi_Minh"},"lat":19.91444,"lng":105.88615,"population":0},{"id":8550248,"name":"Thị Trấn Triệu Sơn","timezone":{"dstOffset":7,"gmtOffset":7,"timeZoneId":"Asia/Ho_Chi_Minh"},"lat":19.81913,"lng":105.60392,"population":0},{"id":8550330,"name":"Thị Trấn Quán Lào","timezone":{"dstOffset":7,"gmtOffset":7,"timeZoneId":"Asia/Ho_Chi_Minh"},"lat":19.97153,"lng":105.65106,"population":0},{"id":8550371,"name":"Thị Trấn Hà Trung","timezone":{"dstOffset":7,"gmtOffset":7,"timeZoneId":"Asia/Ho_Chi_Minh"},"lat":20.01325,"lng":105.85147,"population":0},{"id":8550774,"name":"Thị Trấn Rừng Thông","timezone":{"dstOffset":7,"gmtOffset":7,"timeZoneId":"Asia/Ho_Chi_Minh"},"lat":19.81906,"lng":105.7328,"population":0},{"id":8550778,"name":"Thị Trấn Vạn Hà","timezone":{"dstOffset":7,"gmtOffset":7,"timeZoneId":"Asia/Ho_Chi_Minh"},"lat":19.88659,"lng":105.67879,"population":0},{"id":8551344,"name":"Đà Bắc","timezone":{"dstOffset":7,"gmtOffset":7,"timeZoneId":"Asia/Ho_Chi_Minh"},"lat":20.87714,"lng":105.25417,"population":0},{"id":8551391,"name":"Thị Trấn Mường Khến","timezone":{"dstOffset":7,"gmtOffset":7,"timeZoneId":"Asia/Ho_Chi_Minh"},"lat":20.61441,"lng":105.27948,"population":0},{"id":8551433,"name":"Thị Trấn Hàng Trạm","timezone":{"dstOffset":7,"gmtOffset":7,"timeZoneId":"Asia/Ho_Chi_Minh"},"lat":20.39472,"lng":105.6224,"population":0},{"id":8551473,"name":"Bo","timezone":{"dstOffset":7,"gmtOffset":7,"timeZoneId":"Asia/Ho_Chi_Minh"},"lat":20.67264,"lng":105.53625,"population":0},{"id":8551496,"name":"Lương Sơn","timezone":{"dstOffset":7,"gmtOffset":7,"timeZoneId":"Asia/Ho_Chi_Minh"},"lat":20.87148,"lng":105.52568,"population":0},{"id":8551505,"name":"Kỳ Sơn","timezone":{"dstOffset":7,"gmtOffset":7,"timeZoneId":"Asia/Ho_Chi_Minh"},"lat":20.88668,"lng":105.35244,"population":0},{"id":8551531,"name":"Thị Trấn Cao Phong","timezone":{"dstOffset":7,"gmtOffset":7,"timeZoneId":"Asia/Ho_Chi_Minh"},"lat":20.70446,"lng":105.32063,"population":0},{"id":8553243,"name":"Thị Trấn Me","timezone":{"dstOffset":7,"gmtOffset":7,"timeZoneId":"Asia/Ho_Chi_Minh"},"lat":20.34697,"lng":105.83615,"population":0},{"id":8553249,"name":"Thị Trấn Thiên Tồn","timezone":{"dstOffset":7,"gmtOffset":7,"timeZoneId":"Asia/Ho_Chi_Minh"},"lat":20.29905,"lng":105.95198,"population":0},{"id":8553328,"name":"Thị Trấn Yên Thịnh","timezone":{"dstOffset":7,"gmtOffset":7,"timeZoneId":"Asia/Ho_Chi_Minh"},"lat":20.16245,"lng":106.00697,"population":0},{"id":8545216,"name":"Thị Trấn Hát Lót","timezone":{"dstOffset":7,"gmtOffset":7,"timeZoneId":"Asia/Ho_Chi_Minh"},"lat":21.19733,"lng":104.10595,"population":0},{"id":8540986,"name":"An Phú","timezone":{"dstOffset":7,"gmtOffset":7,"timeZoneId":"Asia/Ho_Chi_Minh"},"lat":10.81591,"lng":105.09038,"population":0},{"id":8540990,"name":"Phú Mỹ","timezone":{"dstOffset":7,"gmtOffset":7,"timeZoneId":"Asia/Ho_Chi_Minh"},"lat":10.59236,"lng":105.35573,"population":0},{"id":8541545,"name":"Thị Trấn Phú Mỹ","timezone":{"dstOffset":7,"gmtOffset":7,"timeZoneId":"Asia/Ho_Chi_Minh"},"lat":10.6036,"lng":107.054,"population":0},{"id":8541991,"name":"Bát Xát","timezone":{"dstOffset":7,"gmtOffset":7,"timeZoneId":"Asia/Ho_Chi_Minh"},"lat":22.54311,"lng":103.88989,"population":0},{"id":8554356,"name":"Xuân Trường","timezone":{"dstOffset":7,"gmtOffset":7,"timeZoneId":"Asia/Ho_Chi_Minh"},"lat":20.29227,"lng":106.33274,"population":0},{"id":8554357,"name":"Yên Định","timezone":{"dstOffset":7,"gmtOffset":7,"timeZoneId":"Asia/Ho_Chi_Minh"},"lat":20.20145,"lng":106.29578,"population":0},{"id":8554466,"name":"Thị Trấn Lâm","timezone":{"dstOffset":7,"gmtOffset":7,"timeZoneId":"Asia/Ho_Chi_Minh"},"lat":20.32773,"lng":106.01208,"population":0},{"id":8554483,"name":"Thị Trấn Gôi","timezone":{"dstOffset":7,"gmtOffset":7,"timeZoneId":"Asia/Ho_Chi_Minh"},"lat":20.33335,"lng":106.07826,"population":0},{"id":8554539,"name":"Thị Trấn Nam Giang","timezone":{"dstOffset":7,"gmtOffset":7,"timeZoneId":"Asia/Ho_Chi_Minh"},"lat":20.33322,"lng":106.17754,"population":0},{"id":8554560,"name":"Cổ Lễ","timezone":{"dstOffset":7,"gmtOffset":7,"timeZoneId":"Asia/Ho_Chi_Minh"},"lat":20.32336,"lng":106.26584,"population":0},{"id":8421407,"name":"Thị Trấn Long Điền","timezone":{"dstOffset":7,"gmtOffset":7,"timeZoneId":"Asia/Ho_Chi_Minh"},"lat":10.48557,"lng":107.21226,"population":0},{"id":8456727,"name":"Tam Đường","timezone":{"dstOffset":7,"gmtOffset":7,"timeZoneId":"Asia/Ho_Chi_Minh"},"lat":22.31812,"lng":103.62619,"population":0},{"id":8456741,"name":"Lai Châu","timezone":{"dstOffset":7,"gmtOffset":7,"timeZoneId":"Asia/Ho_Chi_Minh"},"lat":22.39644,"lng":103.45824,"population":0},{"id":8456777,"name":"Thị Trấn Mường Tè","timezone":{"dstOffset":7,"gmtOffset":7,"timeZoneId":"Asia/Ho_Chi_Minh"},"lat":22.38067,"lng":102.82011,"population":0},{"id":8425634,"name":"Thị Trấn Mường Chà","timezone":{"dstOffset":7,"gmtOffset":7,"timeZoneId":"Asia/Ho_Chi_Minh"},"lat":21.76172,"lng":103.09783,"population":0},{"id":8425650,"name":"Thị Trấn Tủa Chùa","timezone":{"dstOffset":7,"gmtOffset":7,"timeZoneId":"Asia/Ho_Chi_Minh"},"lat":21.85771,"lng":103.3426,"population":0},{"id":8425679,"name":"Điện Biên Đông","timezone":{"dstOffset":7,"gmtOffset":7,"timeZoneId":"Asia/Ho_Chi_Minh"},"lat":21.29673,"lng":103.22009,"population":0},{"id":8425689,"name":"Thị Trấn Điện Biên","timezone":{"dstOffset":7,"gmtOffset":7,"timeZoneId":"Asia/Ho_Chi_Minh"},"lat":21.2596,"lng":103.0344,"population":0},{"id":8656112,"name":"Khe Tre","timezone":{"dstOffset":7,"gmtOffset":7,"timeZoneId":"Asia/Ho_Chi_Minh"},"lat":16.1691,"lng":107.71793,"population":0},{"id":8656203,"name":"Sịa","timezone":{"dstOffset":7,"gmtOffset":7,"timeZoneId":"Asia/Ho_Chi_Minh"},"lat":16.57452,"lng":107.51066,"population":0},{"id":8656376,"name":"Thanh Khê","timezone":{"dstOffset":7,"gmtOffset":7,"timeZoneId":"Asia/Ho_Chi_Minh"},"lat":16.0706,"lng":108.19102,"population":0},{"id":8656395,"name":"Cẩm Lệ","timezone":{"dstOffset":7,"gmtOffset":7,"timeZoneId":"Asia/Ho_Chi_Minh"},"lat":16.01771,"lng":108.20381,"population":0},{"id":8656396,"name":"Sơn Trà","timezone":{"dstOffset":7,"gmtOffset":7,"timeZoneId":"Asia/Ho_Chi_Minh"},"lat":16.06068,"lng":108.23256,"population":0},{"id":8656409,"name":"Liên Chiểu","timezone":{"dstOffset":7,"gmtOffset":7,"timeZoneId":"Asia/Ho_Chi_Minh"},"lat":16.07272,"lng":108.15815,"population":0},{"id":8656412,"name":"Ngũ Hành Sơn","timezone":{"dstOffset":7,"gmtOffset":7,"timeZoneId":"Asia/Ho_Chi_Minh"},"lat":16.01618,"lng":108.25336,"population":0},{"id":8607797,"name":"Đu","timezone":{"dstOffset":7,"gmtOffset":7,"timeZoneId":"Asia/Ho_Chi_Minh"},"lat":21.73847,"lng":105.70388,"population":0},{"id":8607905,"name":"Hương Sơn","timezone":{"dstOffset":7,"gmtOffset":7,"timeZoneId":"Asia/Ho_Chi_Minh"},"lat":21.46014,"lng":105.97814,"population":0},{"id":8607921,"name":"Chùa Hang","timezone":{"dstOffset":7,"gmtOffset":7,"timeZoneId":"Asia/Ho_Chi_Minh"},"lat":21.62384,"lng":105.84168,"population":0},{"id":8608557,"name":"Thanh Thủy","timezone":{"dstOffset":7,"gmtOffset":7,"timeZoneId":"Asia/Ho_Chi_Minh"},"lat":21.17548,"lng":105.28388,"population":0},{"id":8608578,"name":"Lâm Thao","timezone":{"dstOffset":7,"gmtOffset":7,"timeZoneId":"Asia/Ho_Chi_Minh"},"lat":21.3201,"lng":105.29156,"population":0},{"id":8609125,"name":"Mê Linh","timezone":{"dstOffset":7,"gmtOffset":7,"timeZoneId":"Asia/Ho_Chi_Minh"},"lat":21.1831,"lng":105.72041,"population":0},{"id":8609151,"name":"Vĩnh Tường","timezone":{"dstOffset":7,"gmtOffset":7,"timeZoneId":"Asia/Ho_Chi_Minh"},"lat":21.2165,"lng":105.51249,"population":0},{"id":8609160,"name":"Hợp Hòa","timezone":{"dstOffset":7,"gmtOffset":7,"timeZoneId":"Asia/Ho_Chi_Minh"},"lat":21.37525,"lng":105.54256,"population":0},{"id":8627929,"name":"Hưng Nguyên","timezone":{"dstOffset":7,"gmtOffset":7,"timeZoneId":"Asia/Ho_Chi_Minh"},"lat":18.67165,"lng":105.62882,"population":0},{"id":8646553,"name":"Đồng Lê","timezone":{"dstOffset":7,"gmtOffset":7,"timeZoneId":"Asia/Ho_Chi_Minh"},"lat":17.88389,"lng":106.02536,"population":0},{"id":8594709,"name":"Thành Phố Bà Rịa","timezone":{"dstOffset":7,"gmtOffset":7,"timeZoneId":"Asia/Ho_Chi_Minh"},"lat":10.49629,"lng":107.16841,"population":0},{"id":8594715,"name":"Thị Trấn Tuần Giáo","timezone":{"dstOffset":7,"gmtOffset":7,"timeZoneId":"Asia/Ho_Chi_Minh"},"lat":21.58992,"lng":103.42179,"population":0},{"id":8594716,"name":"Thị Trấn Mường Ảng","timezone":{"dstOffset":7,"gmtOffset":7,"timeZoneId":"Asia/Ho_Chi_Minh"},"lat":21.51993,"lng":103.22294,"population":0},{"id":8595083,"name":"An Lão","timezone":{"dstOffset":7,"gmtOffset":7,"timeZoneId":"Asia/Ho_Chi_Minh"},"lat":20.82294,"lng":106.55575,"population":0},{"id":8595111,"name":"Tiên Lãng","timezone":{"dstOffset":7,"gmtOffset":7,"timeZoneId":"Asia/Ho_Chi_Minh"},"lat":20.72464,"lng":106.55391,"population":0},{"id":8595146,"name":"Núi Đối","timezone":{"dstOffset":7,"gmtOffset":7,"timeZoneId":"Asia/Ho_Chi_Minh"},"lat":20.75078,"lng":106.66894,"population":0},{"id":8595948,"name":"Quảng Hà","timezone":{"dstOffset":7,"gmtOffset":7,"timeZoneId":"Asia/Ho_Chi_Minh"},"lat":21.4506,"lng":107.75592,"population":0},{"id":8596004,"name":"Trới","timezone":{"dstOffset":7,"gmtOffset":7,"timeZoneId":"Asia/Ho_Chi_Minh"},"lat":21.03141,"lng":106.99101,"population":0},{"id":8596063,"name":"Cô Tô","timezone":{"dstOffset":7,"gmtOffset":7,"timeZoneId":"Asia/Ho_Chi_Minh"},"lat":20.97268,"lng":107.76578,"population":0},{"id":8473973,"name":"Thị Trấn Tam Sơn","timezone":{"dstOffset":7,"gmtOffset":7,"timeZoneId":"Asia/Ho_Chi_Minh"},"lat":23.0674,"lng":104.98926,"population":0},{"id":8473987,"name":"Thị Trấn Vị Xuyên","timezone":{"dstOffset":7,"gmtOffset":7,"timeZoneId":"Asia/Ho_Chi_Minh"},"lat":22.66762,"lng":104.98191,"population":0},{"id":8473988,"name":"Thị Trấn Việt Lâm","timezone":{"dstOffset":7,"gmtOffset":7,"timeZoneId":"Asia/Ho_Chi_Minh"},"lat":22.62486,"lng":104.95988,"population":0},{"id":8473997,"name":"Thị Trấn Việt Quang","timezone":{"dstOffset":7,"gmtOffset":7,"timeZoneId":"Asia/Ho_Chi_Minh"},"lat":22.41509,"lng":104.80682,"population":0},{"id":8474004,"name":"Yên Phú","timezone":{"dstOffset":7,"gmtOffset":7,"timeZoneId":"Asia/Ho_Chi_Minh"},"lat":22.73223,"lng":105.37146,"population":0},{"id":8474041,"name":"Thị Trấn Vinh Quang","timezone":{"dstOffset":7,"gmtOffset":7,"timeZoneId":"Asia/Ho_Chi_Minh"},"lat":22.74085,"lng":104.67956,"population":0},{"id":8474046,"name":"Yên Bình","timezone":{"dstOffset":7,"gmtOffset":7,"timeZoneId":"Asia/Ho_Chi_Minh"},"lat":22.40989,"lng":104.57949,"population":0},{"id":8538202,"name":"Thị Trấn Na Hang","timezone":{"dstOffset":7,"gmtOffset":7,"timeZoneId":"Asia/Ho_Chi_Minh"},"lat":22.34918,"lng":105.38241,"population":0},{"id":8539621,"name":"Bình Minh","timezone":{"dstOffset":7,"gmtOffset":7,"timeZoneId":"Asia/Ho_Chi_Minh"},"lat":10.06821,"lng":105.82221,"population":0},{"id":8526353,"name":"Sơn Thịnh","timezone":{"dstOffset":7,"gmtOffset":7,"timeZoneId":"Asia/Ho_Chi_Minh"},"lat":21.56252,"lng":104.5948,"population":0},{"id":8526401,"name":"Cổ Phúc","timezone":{"dstOffset":7,"gmtOffset":7,"timeZoneId":"Asia/Ho_Chi_Minh"},"lat":21.75585,"lng":104.82768,"population":0},{"id":8526448,"name":"Thị Trấn Yên Thế","timezone":{"dstOffset":7,"gmtOffset":7,"timeZoneId":"Asia/Ho_Chi_Minh"},"lat":22.11075,"lng":104.76748,"population":0},{"id":8522260,"name":"Thị Trấn Cao Lộc","timezone":{"dstOffset":7,"gmtOffset":7,"timeZoneId":"Asia/Ho_Chi_Minh"},"lat":21.8665,"lng":106.76833,"population":0},{"id":8523103,"name":"Thị Trấn Vĩnh Lộc","timezone":{"dstOffset":7,"gmtOffset":7,"timeZoneId":"Asia/Ho_Chi_Minh"},"lat":22.1436,"lng":105.27192,"population":0},{"id":8991425,"name":"Thạnh Mỹ","timezone":{"dstOffset":7,"gmtOffset":7,"timeZoneId":"Asia/Ho_Chi_Minh"},"lat":11.76165,"lng":108.49473,"population":0},{"id":8991482,"name":"Lộc Thắng","timezone":{"dstOffset":7,"gmtOffset":7,"timeZoneId":"Asia/Ho_Chi_Minh"},"lat":11.62836,"lng":107.83508,"population":0},{"id":8991503,"name":"Đồng Nai","timezone":{"dstOffset":7,"gmtOffset":7,"timeZoneId":"Asia/Ho_Chi_Minh"},"lat":11.57981,"lng":107.36518,"population":0},{"id":8991515,"name":"Đạ Tẻh","timezone":{"dstOffset":7,"gmtOffset":7,"timeZoneId":"Asia/Ho_Chi_Minh"},"lat":11.51148,"lng":107.49092,"population":0},{"id":8993912,"name":"Bác Ái","timezone":{"dstOffset":7,"gmtOffset":7,"timeZoneId":"Asia/Ho_Chi_Minh"},"lat":11.84104,"lng":108.90316,"population":0},{"id":8993916,"name":"Tân Sơn","timezone":{"dstOffset":7,"gmtOffset":7,"timeZoneId":"Asia/Ho_Chi_Minh"},"lat":11.77521,"lng":108.7848,"population":0},{"id":8993931,"name":"Phước Dân","timezone":{"dstOffset":7,"gmtOffset":7,"timeZoneId":"Asia/Ho_Chi_Minh"},"lat":11.52696,"lng":108.92996,"population":0},{"id":8993961,"name":"Khánh Hải","timezone":{"dstOffset":7,"gmtOffset":7,"timeZoneId":"Asia/Ho_Chi_Minh"},"lat":11.59105,"lng":109.04052,"population":0},{"id":8998414,"name":"Chợ Lầu","timezone":{"dstOffset":7,"gmtOffset":7,"timeZoneId":"Asia/Ho_Chi_Minh"},"lat":11.22158,"lng":108.50707,"population":0},{"id":8998439,"name":"Ma Lâm","timezone":{"dstOffset":7,"gmtOffset":7,"timeZoneId":"Asia/Ho_Chi_Minh"},"lat":11.07297,"lng":108.12997,"population":0},{"id":8998450,"name":"Thuận Nam","timezone":{"dstOffset":7,"gmtOffset":7,"timeZoneId":"Asia/Ho_Chi_Minh"},"lat":10.85004,"lng":107.87864,"population":0},{"id":9000266,"name":"Phú Quý","timezone":{"dstOffset":7,"gmtOffset":7,"timeZoneId":"Asia/Ho_Chi_Minh"},"lat":10.5166,"lng":108.93292,"population":0},{"id":8719315,"name":"Hai Riêng","timezone":{"dstOffset":7,"gmtOffset":7,"timeZoneId":"Asia/Ho_Chi_Minh"},"lat":12.97908,"lng":108.89732,"population":0},{"id":8695369,"name":"Đăk Đoa","timezone":{"dstOffset":7,"gmtOffset":7,"timeZoneId":"Asia/Ho_Chi_Minh"},"lat":13.99501,"lng":108.11206,"population":0},{"id":8701187,"name":"K Bang","timezone":{"dstOffset":7,"gmtOffset":7,"timeZoneId":"Asia/Ho_Chi_Minh"},"lat":14.14453,"lng":108.59908,"population":0},{"id":8701220,"name":"Kông Chro","timezone":{"dstOffset":7,"gmtOffset":7,"timeZoneId":"Asia/Ho_Chi_Minh"},"lat":13.77532,"lng":108.52558,"population":0},{"id":8701230,"name":"Ia Pa","timezone":{"dstOffset":7,"gmtOffset":7,"timeZoneId":"Asia/Ho_Chi_Minh"},"lat":13.53362,"lng":108.45528,"population":0},{"id":8701253,"name":"A Yun Pa","timezone":{"dstOffset":7,"gmtOffset":7,"timeZoneId":"Asia/Ho_Chi_Minh"},"lat":13.40025,"lng":108.43504,"population":0},{"id":8701288,"name":"Chư Sê","timezone":{"dstOffset":7,"gmtOffset":7,"timeZoneId":"Asia/Ho_Chi_Minh"},"lat":13.69153,"lng":108.08023,"population":0},{"id":8701301,"name":"Chư Prông","timezone":{"dstOffset":7,"gmtOffset":7,"timeZoneId":"Asia/Ho_Chi_Minh"},"lat":13.75684,"lng":107.88624,"population":0},{"id":8701320,"name":"Chư Ty","timezone":{"dstOffset":7,"gmtOffset":7,"timeZoneId":"Asia/Ho_Chi_Minh"},"lat":13.80507,"lng":107.6961,"population":0},{"id":8701330,"name":"Ia Kha","timezone":{"dstOffset":7,"gmtOffset":7,"timeZoneId":"Asia/Ho_Chi_Minh"},"lat":13.96242,"lng":107.84484,"population":0},{"id":8701345,"name":"Phú Hòa","timezone":{"dstOffset":7,"gmtOffset":7,"timeZoneId":"Asia/Ho_Chi_Minh"},"lat":14.10005,"lng":107.96896,"population":0},{"id":8701374,"name":"Kon Dơng","timezone":{"dstOffset":7,"gmtOffset":7,"timeZoneId":"Asia/Ho_Chi_Minh"},"lat":14.03886,"lng":108.25011,"population":0},{"id":8743021,"name":"Khánh Vĩnh","timezone":{"dstOffset":7,"gmtOffset":7,"timeZoneId":"Asia/Ho_Chi_Minh"},"lat":12.28354,"lng":108.9047,"population":0},{"id":8743031,"name":"Tô Hạp","timezone":{"dstOffset":7,"gmtOffset":7,"timeZoneId":"Asia/Ho_Chi_Minh"},"lat":12.00582,"lng":108.94868,"population":0},{"id":8743057,"name":"Cam Lâm","timezone":{"dstOffset":7,"gmtOffset":7,"timeZoneId":"Asia/Ho_Chi_Minh"},"lat":12.05398,"lng":109.16004,"population":0},{"id":8746448,"name":"Ea T’ling","timezone":{"dstOffset":7,"gmtOffset":7,"timeZoneId":"Asia/Ho_Chi_Minh"},"lat":12.58904,"lng":107.89578,"population":0},{"id":8746533,"name":"Đắk Mâm","timezone":{"dstOffset":7,"gmtOffset":7,"timeZoneId":"Asia/Ho_Chi_Minh"},"lat":12.45789,"lng":107.86246,"population":0},{"id":8724967,"name":"Ea Súp","timezone":{"dstOffset":7,"gmtOffset":7,"timeZoneId":"Asia/Ho_Chi_Minh"},"lat":13.06616,"lng":107.88546,"population":0},{"id":8724987,"name":"Ea Drăng","timezone":{"dstOffset":7,"gmtOffset":7,"timeZoneId":"Asia/Ho_Chi_Minh"},"lat":13.2045,"lng":108.21029,"population":0},{"id":8725000,"name":"Krông Năng","timezone":{"dstOffset":7,"gmtOffset":7,"timeZoneId":"Asia/Ho_Chi_Minh"},"lat":12.9517,"lng":108.34425,"population":0},{"id":8725037,"name":"Quảng Phú","timezone":{"dstOffset":7,"gmtOffset":7,"timeZoneId":"Asia/Ho_Chi_Minh"},"lat":12.81965,"lng":108.07738,"population":0},{"id":8725054,"name":"Ea Kar","timezone":{"dstOffset":7,"gmtOffset":7,"timeZoneId":"Asia/Ho_Chi_Minh"},"lat":12.80816,"lng":108.44901,"population":0},{"id":8725113,"name":"Krông Kmar","timezone":{"dstOffset":7,"gmtOffset":7,"timeZoneId":"Asia/Ho_Chi_Minh"},"lat":12.5045,"lng":108.33288,"population":0},{"id":8725127,"name":"M’Đrăk","timezone":{"dstOffset":7,"gmtOffset":7,"timeZoneId":"Asia/Ho_Chi_Minh"},"lat":12.74624,"lng":108.7428,"population":0},{"id":9101346,"name":"Tân Hưng","timezone":{"dstOffset":7,"gmtOffset":7,"timeZoneId":"Asia/Ho_Chi_Minh"},"lat":10.83476,"lng":105.66135,"population":0},{"id":9101373,"name":"Vĩnh Hưng","timezone":{"dstOffset":7,"gmtOffset":7,"timeZoneId":"Asia/Ho_Chi_Minh"},"lat":10.89067,"lng":105.78495,"population":0},{"id":9101389,"name":"Tân Thạnh","timezone":{"dstOffset":7,"gmtOffset":7,"timeZoneId":"Asia/Ho_Chi_Minh"},"lat":10.60666,"lng":106.04714,"population":0},{"id":9101395,"name":"Thạnh Hóa","timezone":{"dstOffset":7,"gmtOffset":7,"timeZoneId":"Asia/Ho_Chi_Minh"},"lat":10.65744,"lng":106.18081,"population":0},{"id":9101404,"name":"Đông Thành","timezone":{"dstOffset":7,"gmtOffset":7,"timeZoneId":"Asia/Ho_Chi_Minh"},"lat":10.8922,"lng":106.30614,"population":0},{"id":9101411,"name":"Hậu Nghĩa","timezone":{"dstOffset":7,"gmtOffset":7,"timeZoneId":"Asia/Ho_Chi_Minh"},"lat":10.89434,"lng":106.39694,"population":0},{"id":9113556,"name":"Mỹ Phước","timezone":{"dstOffset":7,"gmtOffset":7,"timeZoneId":"Asia/Ho_Chi_Minh"},"lat":10.47711,"lng":106.19256,"population":0},{"id":9113580,"name":"Tân Hòa","timezone":{"dstOffset":7,"gmtOffset":7,"timeZoneId":"Asia/Ho_Chi_Minh"},"lat":10.31906,"lng":106.71128,"population":0},{"id":9280687,"name":"Thứ Mười Một","timezone":{"dstOffset":7,"gmtOffset":7,"timeZoneId":"Asia/Ho_Chi_Minh"},"lat":9.61144,"lng":104.9465,"population":0},{"id":9078184,"name":"Tân Phú","timezone":{"dstOffset":7,"gmtOffset":7,"timeZoneId":"Asia/Ho_Chi_Minh"},"lat":11.45119,"lng":106.86811,"population":0},{"id":9081295,"name":"Tân Châu","timezone":{"dstOffset":7,"gmtOffset":7,"timeZoneId":"Asia/Ho_Chi_Minh"},"lat":11.55202,"lng":106.17245,"population":0},{"id":9081304,"name":"Tân Biên","timezone":{"dstOffset":7,"gmtOffset":7,"timeZoneId":"Asia/Ho_Chi_Minh"},"lat":11.54441,"lng":106.01161,"population":0},{"id":9081315,"name":"Châu Thành","timezone":{"dstOffset":7,"gmtOffset":7,"timeZoneId":"Asia/Ho_Chi_Minh"},"lat":11.31167,"lng":106.0295,"population":0},{"id":9081327,"name":"Hòa Thành","timezone":{"dstOffset":7,"gmtOffset":7,"timeZoneId":"Asia/Ho_Chi_Minh"},"lat":11.28696,"lng":106.12936,"population":0},{"id":9081340,"name":"Gò Dầu","timezone":{"dstOffset":7,"gmtOffset":7,"timeZoneId":"Asia/Ho_Chi_Minh"},"lat":11.0885,"lng":106.26346,"population":0},{"id":9081358,"name":"Dương Minh Châu","timezone":{"dstOffset":7,"gmtOffset":7,"timeZoneId":"Asia/Ho_Chi_Minh"},"lat":11.38414,"lng":106.23078,"population":0},{"id":9075694,"name":"Tân Phú","timezone":{"dstOffset":7,"gmtOffset":7,"timeZoneId":"Asia/Ho_Chi_Minh"},"lat":11.27221,"lng":107.43655,"population":0},{"id":9075713,"name":"Vĩnh An","timezone":{"dstOffset":7,"gmtOffset":7,"timeZoneId":"Asia/Ho_Chi_Minh"},"lat":11.08901,"lng":107.03516,"population":0},{"id":9075749,"name":"Thống Nhất","timezone":{"dstOffset":7,"gmtOffset":7,"timeZoneId":"Asia/Ho_Chi_Minh"},"lat":10.95055,"lng":107.14571,"population":0},{"id":9075789,"name":"Long Khánh","timezone":{"dstOffset":7,"gmtOffset":7,"timeZoneId":"Asia/Ho_Chi_Minh"},"lat":10.92655,"lng":107.24783,"population":0},{"id":9531891,"name":"Châu Thành","timezone":{"dstOffset":7,"gmtOffset":7,"timeZoneId":"Asia/Ho_Chi_Minh"},"lat":10.30122,"lng":106.35701,"population":0},{"id":9533392,"name":"Vĩnh Thạnh","timezone":{"dstOffset":7,"gmtOffset":7,"timeZoneId":"Asia/Ho_Chi_Minh"},"lat":10.22263,"lng":105.39841,"population":0},{"id":9534523,"name":"Nàng Mau","timezone":{"dstOffset":7,"gmtOffset":7,"timeZoneId":"Asia/Ho_Chi_Minh"},"lat":9.75129,"lng":105.53448,"population":0},{"id":9534547,"name":"Ngã Bảy","timezone":{"dstOffset":7,"gmtOffset":7,"timeZoneId":"Asia/Ho_Chi_Minh"},"lat":9.81371,"lng":105.82096,"population":0},{"id":9534553,"name":"Ngã Sáu","timezone":{"dstOffset":7,"gmtOffset":7,"timeZoneId":"Asia/Ho_Chi_Minh"},"lat":9.92303,"lng":105.80542,"population":0},{"id":9534559,"name":"Một Ngàn","timezone":{"dstOffset":7,"gmtOffset":7,"timeZoneId":"Asia/Ho_Chi_Minh"},"lat":9.92402,"lng":105.62964,"population":0},{"id":9534807,"name":"Cù Lao Dung","timezone":{"dstOffset":7,"gmtOffset":7,"timeZoneId":"Asia/Ho_Chi_Minh"},"lat":9.67314,"lng":106.14874,"population":0},{"id":9534824,"name":"Châu Thành","timezone":{"dstOffset":7,"gmtOffset":7,"timeZoneId":"Asia/Ho_Chi_Minh"},"lat":9.7007,"lng":105.90202,"population":0},{"id":9534829,"name":"Huỳnh Hữu Nghĩa","timezone":{"dstOffset":7,"gmtOffset":7,"timeZoneId":"Asia/Ho_Chi_Minh"},"lat":9.63537,"lng":105.81165,"population":0},{"id":9643200,"name":"U Minh","timezone":{"dstOffset":7,"gmtOffset":7,"timeZoneId":"Asia/Ho_Chi_Minh"},"lat":9.41286,"lng":104.97353,"population":0},{"id":9643221,"name":"Trần Văn Thời","timezone":{"dstOffset":7,"gmtOffset":7,"timeZoneId":"Asia/Ho_Chi_Minh"},"lat":9.07713,"lng":104.97914,"population":0},{"id":9643257,"name":"Ngọc Hiển","timezone":{"dstOffset":7,"gmtOffset":7,"timeZoneId":"Asia/Ho_Chi_Minh"},"lat":8.65724,"lng":105.06021,"population":0},{"id":9645048,"name":"Quận Hai","timezone":{"dstOffset":7,"gmtOffset":7,"timeZoneId":"Asia/Ho_Chi_Minh"},"lat":10.79156,"lng":106.74948,"population":0},{"id":9645059,"name":"Quận Chín","timezone":{"dstOffset":7,"gmtOffset":7,"timeZoneId":"Asia/Ho_Chi_Minh"},"lat":10.8397,"lng":106.77093,"population":0},{"id":9645071,"name":"Quận Bốn","timezone":{"dstOffset":7,"gmtOffset":7,"timeZoneId":"Asia/Ho_Chi_Minh"},"lat":10.76684,"lng":106.70574,"population":0},{"id":9645072,"name":"Quận Sáu","timezone":{"dstOffset":7,"gmtOffset":7,"timeZoneId":"Asia/Ho_Chi_Minh"},"lat":10.7468,"lng":106.64903,"population":0},{"id":9645073,"name":"Quận Năm","timezone":{"dstOffset":7,"gmtOffset":7,"timeZoneId":"Asia/Ho_Chi_Minh"},"lat":10.75566,"lng":106.66745,"population":0},{"id":9645074,"name":"Quận Một","timezone":{"dstOffset":7,"gmtOffset":7,"timeZoneId":"Asia/Ho_Chi_Minh"},"lat":10.78069,"lng":106.69944,"population":0},{"id":9645075,"name":"Quận Phú Nhuận","timezone":{"dstOffset":7,"gmtOffset":7,"timeZoneId":"Asia/Ho_Chi_Minh"},"lat":10.79475,"lng":106.6763,"population":0},{"id":9645083,"name":"Quận Tân Phú","timezone":{"dstOffset":7,"gmtOffset":7,"timeZoneId":"Asia/Ho_Chi_Minh"},"lat":10.78379,"lng":106.63704,"population":0},{"id":9645084,"name":"Quận Mười Một","timezone":{"dstOffset":7,"gmtOffset":7,"timeZoneId":"Asia/Ho_Chi_Minh"},"lat":10.76383,"lng":106.64355,"population":0},{"id":9645085,"name":"Quận Mười","timezone":{"dstOffset":7,"gmtOffset":7,"timeZoneId":"Asia/Ho_Chi_Minh"},"lat":10.76823,"lng":106.66632,"population":0},{"id":9645086,"name":"Quận Ba","timezone":{"dstOffset":7,"gmtOffset":7,"timeZoneId":"Asia/Ho_Chi_Minh"},"lat":10.77494,"lng":106.68628,"population":0},{"id":9645087,"name":"Quận Bình Thạnh","timezone":{"dstOffset":7,"gmtOffset":7,"timeZoneId":"Asia/Ho_Chi_Minh"},"lat":10.80325,"lng":106.69666,"population":0},{"id":9289561,"name":"Sa Rài","timezone":{"dstOffset":7,"gmtOffset":7,"timeZoneId":"Asia/Ho_Chi_Minh"},"lat":10.87016,"lng":105.46583,"population":0},{"id":9290486,"name":"Long Hồ","timezone":{"dstOffset":7,"gmtOffset":7,"timeZoneId":"Asia/Ho_Chi_Minh"},"lat":10.19281,"lng":106.01229,"population":0},{"id":9292220,"name":"Duyên Hải","timezone":{"dstOffset":7,"gmtOffset":7,"timeZoneId":"Asia/Ho_Chi_Minh"},"lat":9.63497,"lng":106.49237,"population":0}]