[{"id":146268,"name":"Nicosia","timezone":{"dstOffset":3,"gmtOffset":2,"timeZoneId":"Asia/Nicosia"},"lat":35.17531,"lng":33.3642,"population":200452},{"id":146384,"name":"Limassol","timezone":{"dstOffset":3,"gmtOffset":2,"timeZoneId":"Asia/Nicosia"},"lat":34.68406,"lng":33.03794,"population":154000},{"id":146400,"name":"Larnaca","timezone":{"dstOffset":3,"gmtOffset":2,"timeZoneId":"Asia/Nicosia"},"lat":34.92291,"lng":33.6233,"population":72000},{"id":146617,"name":"Famagusta","timezone":{"dstOffset":3,"gmtOffset":2,"timeZoneId":"Asia/Nicosia"},"lat":35.12054,"lng":33.93894,"population":42526},{"id":146214,"name":"Paphos","timezone":{"dstOffset":3,"gmtOffset":2,"timeZoneId":"Asia/Nicosia"},"lat":34.77679,"lng":32.42451,"population":35961},{"id":146412,"name":"Kyrenia","timezone":{"dstOffset":3,"gmtOffset":2,"timeZoneId":"Asia/Nicosia"},"lat":35.33634,"lng":33.31729,"population":26701},{"id":18918,"name":"Protaras","timezone":{"dstOffset":3,"gmtOffset":2,"timeZoneId":"Asia/Nicosia"},"lat":35.0125,"lng":34.05833,"population":20230},{"id":146189,"name":"Pérgamos","timezone":{"dstOffset":3,"gmtOffset":2,"timeZoneId":"Asia/Nicosia"},"lat":35.04167,"lng":33.70833,"population":15000},{"id":146286,"name":"Mórfou","timezone":{"dstOffset":3,"gmtOffset":2,"timeZoneId":"Asia/Nicosia"},"lat":35.19869,"lng":32.99338,"population":14833},{"id":146796,"name":"Aradíppou","timezone":{"dstOffset":3,"gmtOffset":2,"timeZoneId":"Asia/Nicosia"},"lat":34.95151,"lng":33.59199,"population":13349}]