[{"id":2507480,"name":"Algiers","timezone":{"dstOffset":1,"gmtOffset":1,"timeZoneId":"Africa/Algiers"},"lat":36.7525,"lng":3.04197,"population":1977663},{"id":2474141,"name":"Boumerdas","timezone":{"dstOffset":1,"gmtOffset":1,"timeZoneId":"Africa/Algiers"},"lat":36.76639,"lng":3.47717,"population":786499},{"id":2485926,"name":"Oran","timezone":{"dstOffset":1,"gmtOffset":1,"timeZoneId":"Africa/Algiers"},"lat":35.69111,"lng":-0.64167,"population":645984},{"id":2477461,"name":"Tébessa","timezone":{"dstOffset":1,"gmtOffset":1,"timeZoneId":"Africa/Algiers"},"lat":35.40417,"lng":8.12417,"population":634332},{"id":2501152,"name":"Constantine","timezone":{"dstOffset":1,"gmtOffset":1,"timeZoneId":"Africa/Algiers"},"lat":36.365,"lng":6.61472,"population":450097},{"id":2503826,"name":"Biskra","timezone":{"dstOffset":1,"gmtOffset":1,"timeZoneId":"Africa/Algiers"},"lat":34.85038,"lng":5.72805,"population":307987},{"id":2481700,"name":"Sétif","timezone":{"dstOffset":1,"gmtOffset":1,"timeZoneId":"Africa/Algiers"},"lat":36.19112,"lng":5.41373,"population":288461},{"id":2505572,"name":"Batna City","timezone":{"dstOffset":1,"gmtOffset":1,"timeZoneId":"Africa/Algiers"},"lat":35.55597,"lng":6.17414,"population":280798},{"id":2505854,"name":"Bab Ezzouar","timezone":{"dstOffset":1,"gmtOffset":1,"timeZoneId":"Africa/Algiers"},"lat":36.72615,"lng":3.18291,"population":275630},{"id":2506999,"name":"Annaba","timezone":{"dstOffset":1,"gmtOffset":1,"timeZoneId":"Africa/Algiers"},"lat":36.9,"lng":7.76667,"population":206570}]