[{"id":588409,"name":"Tallinn","timezone":{"dstOffset":3,"gmtOffset":2,"timeZoneId":"Europe/Tallinn"},"lat":59.43696,"lng":24.75353,"population":394024},{"id":588335,"name":"Tartu","timezone":{"dstOffset":3,"gmtOffset":2,"timeZoneId":"Europe/Tallinn"},"lat":58.38062,"lng":26.72509,"population":101092},{"id":590031,"name":"Narva","timezone":{"dstOffset":3,"gmtOffset":2,"timeZoneId":"Europe/Tallinn"},"lat":59.37722,"lng":28.19028,"population":66980},{"id":591260,"name":"Kohtla-Järve","timezone":{"dstOffset":3,"gmtOffset":2,"timeZoneId":"Europe/Tallinn"},"lat":59.39861,"lng":27.27306,"population":46060},{"id":589580,"name":"Pärnu","timezone":{"dstOffset":3,"gmtOffset":2,"timeZoneId":"Europe/Tallinn"},"lat":58.38588,"lng":24.49711,"population":44192},{"id":587577,"name":"Viljandi","timezone":{"dstOffset":3,"gmtOffset":2,"timeZoneId":"Europe/Tallinn"},"lat":58.36389,"lng":25.59,"population":20309},{"id":589165,"name":"Rakvere","timezone":{"dstOffset":3,"gmtOffset":2,"timeZoneId":"Europe/Tallinn"},"lat":59.34639,"lng":26.35583,"population":16736},{"id":588686,"name":"Sillamäe","timezone":{"dstOffset":3,"gmtOffset":2,"timeZoneId":"Europe/Tallinn"},"lat":59.39697,"lng":27.76331,"population":16672},{"id":590447,"name":"Maardu","timezone":{"dstOffset":3,"gmtOffset":2,"timeZoneId":"Europe/Tallinn"},"lat":59.47667,"lng":25.025,"population":16630},{"id":590939,"name":"Kuressaare","timezone":{"dstOffset":3,"gmtOffset":2,"timeZoneId":"Europe/Tallinn"},"lat":58.24806,"lng":22.50389,"population":14921}]