[{"id":360630,"name":"Cairo","timezone":{"dstOffset":2,"gmtOffset":2,"timeZoneId":"Africa/Cairo"},"lat":30.06263,"lng":31.24967,"population":7734614},{"id":361058,"name":"Alexandria","timezone":{"dstOffset":2,"gmtOffset":2,"timeZoneId":"Africa/Cairo"},"lat":31.21564,"lng":29.95527,"population":3811516},{"id":360995,"name":"Giza","timezone":{"dstOffset":2,"gmtOffset":2,"timeZoneId":"Africa/Cairo"},"lat":30.00808,"lng":31.21093,"population":2443203},{"id":358619,"name":"Port Said","timezone":{"dstOffset":2,"gmtOffset":2,"timeZoneId":"Africa/Cairo"},"lat":31.25654,"lng":32.28412,"population":538378},{"id":359796,"name":"Suez","timezone":{"dstOffset":2,"gmtOffset":2,"timeZoneId":"Africa/Cairo"},"lat":29.97371,"lng":32.52627,"population":488125},{"id":360829,"name":"Al Maḩallah al Kubrá","timezone":{"dstOffset":2,"gmtOffset":2,"timeZoneId":"Africa/Cairo"},"lat":30.97063,"lng":31.1669,"population":431052},{"id":360502,"name":"Luxor","timezone":{"dstOffset":2,"gmtOffset":2,"timeZoneId":"Africa/Cairo"},"lat":25.69893,"lng":32.6421,"population":422407},{"id":359783,"name":"Assiut","timezone":{"dstOffset":2,"gmtOffset":2,"timeZoneId":"Africa/Cairo"},"lat":27.18096,"lng":31.18368,"population":420585},{"id":360761,"name":"Al Mansurah","timezone":{"dstOffset":2,"gmtOffset":2,"timeZoneId":"Africa/Cairo"},"lat":31.03637,"lng":31.38069,"population":420195},{"id":347497,"name":"Tanta","timezone":{"dstOffset":2,"gmtOffset":2,"timeZoneId":"Africa/Cairo"},"lat":30.78847,"lng":31.00192,"population":404901}]