[{"id":3718426,"name":"Port-au-Prince","timezone":{"dstOffset":-4,"gmtOffset":-5,"timeZoneId":"America/Port-au-Prince"},"lat":18.53917,"lng":-72.335,"population":1234742},{"id":3728338,"name":"Carrefour","timezone":{"dstOffset":-4,"gmtOffset":-5,"timeZoneId":"America/Port-au-Prince"},"lat":18.54114,"lng":-72.39922,"population":442156},{"id":3726786,"name":"Delmas 73","timezone":{"dstOffset":-4,"gmtOffset":-5,"timeZoneId":"America/Port-au-Prince"},"lat":18.54472,"lng":-72.30278,"population":382920},{"id":3719028,"name":"Pétionville","timezone":{"dstOffset":-4,"gmtOffset":-5,"timeZoneId":"America/Port-au-Prince"},"lat":18.5125,"lng":-72.28528,"population":283052},{"id":3718420,"name":"Port-de-Paix","timezone":{"dstOffset":-4,"gmtOffset":-5,"timeZoneId":"America/Port-au-Prince"},"lat":19.9389,"lng":-72.83257,"population":250000},{"id":3727135,"name":"Croix des Bouquets","timezone":{"dstOffset":-4,"gmtOffset":-5,"timeZoneId":"America/Port-au-Prince"},"lat":18.57512,"lng":-72.22302,"population":229127},{"id":3723779,"name":"Jacmel","timezone":{"dstOffset":-4,"gmtOffset":-5,"timeZoneId":"America/Port-au-Prince"},"lat":18.23427,"lng":-72.53539,"population":137966},{"id":3728474,"name":"Cap-Haïtien","timezone":{"dstOffset":-4,"gmtOffset":-5,"timeZoneId":"America/Port-au-Prince"},"lat":19.75938,"lng":-72.19815,"population":134815},{"id":3722286,"name":"Léogâne","timezone":{"dstOffset":-4,"gmtOffset":-5,"timeZoneId":"America/Port-au-Prince"},"lat":18.50959,"lng":-72.63147,"population":134190},{"id":3728097,"name":"Les Cayes","timezone":{"dstOffset":-4,"gmtOffset":-5,"timeZoneId":"America/Port-au-Prince"},"lat":18.19331,"lng":-73.74601,"population":125799}]