[{"id":1275339,"name":"Mumbai","timezone":{"dstOffset":5.5,"gmtOffset":5.5,"timeZoneId":"Asia/Kolkata"},"lat":19.07283,"lng":72.88261,"population":12691836},{"id":1273294,"name":"Delhi","timezone":{"dstOffset":5.5,"gmtOffset":5.5,"timeZoneId":"Asia/Kolkata"},"lat":28.65195,"lng":77.2315,"population":10927986},{"id":1277333,"name":"Bangalore","timezone":{"dstOffset":5.5,"gmtOffset":5.5,"timeZoneId":"Asia/Kolkata"},"lat":12.97194,"lng":77.59369,"population":5104047},{"id":1275004,"name":"Calcutta","timezone":{"dstOffset":5.5,"gmtOffset":5.5,"timeZoneId":"Asia/Kolkata"},"lat":22.56263,"lng":88.36304,"population":4631392},{"id":1264527,"name":"Chennai","timezone":{"dstOffset":5.5,"gmtOffset":5.5,"timeZoneId":"Asia/Kolkata"},"lat":13.08784,"lng":80.27847,"population":4328063},{"id":1279233,"name":"Ahmedabad","timezone":{"dstOffset":5.5,"gmtOffset":5.5,"timeZoneId":"Asia/Kolkata"},"lat":23.02579,"lng":72.58726,"population":3719710},{"id":1269843,"name":"Hyderabad","timezone":{"dstOffset":5.5,"gmtOffset":5.5,"timeZoneId":"Asia/Kolkata"},"lat":17.38405,"lng":78.45636,"population":3597816},{"id":1259229,"name":"Pune","timezone":{"dstOffset":5.5,"gmtOffset":5.5,"timeZoneId":"Asia/Kolkata"},"lat":18.51957,"lng":73.85535,"population":2935744},{"id":1255364,"name":"Surat","timezone":{"dstOffset":5.5,"gmtOffset":5.5,"timeZoneId":"Asia/Kolkata"},"lat":21.19594,"lng":72.83023,"population":2894504},{"id":1267995,"name":"Kanpur","timezone":{"dstOffset":5.5,"gmtOffset":5.5,"timeZoneId":"Asia/Kolkata"},"lat":26.4478,"lng":80.34627,"population":2823249}]