[{"id":98182,"name":"Baghdad","timezone":{"dstOffset":3,"gmtOffset":3,"timeZoneId":"Asia/Baghdad"},"lat":33.34058,"lng":44.40088,"population":5672513},{"id":99532,"name":"Basra","timezone":{"dstOffset":3,"gmtOffset":3,"timeZoneId":"Asia/Baghdad"},"lat":30.53302,"lng":47.79747,"population":2600000},{"id":99071,"name":"Al Mawşil al Jadīdah","timezone":{"dstOffset":3,"gmtOffset":3,"timeZoneId":"Asia/Baghdad"},"lat":36.33306,"lng":43.1049,"population":2065597},{"id":388349,"name":"Al Başrah al Qadīmah","timezone":{"dstOffset":3,"gmtOffset":3,"timeZoneId":"Asia/Baghdad"},"lat":30.50316,"lng":47.81507,"population":2015483},{"id":99072,"name":"Mosul","timezone":{"dstOffset":3,"gmtOffset":3,"timeZoneId":"Asia/Baghdad"},"lat":36.335,"lng":43.11889,"population":1739800},{"id":95446,"name":"Erbil","timezone":{"dstOffset":3,"gmtOffset":3,"timeZoneId":"Asia/Baghdad"},"lat":36.19257,"lng":44.01062,"population":932800},{"id":100077,"name":"Abu Ghraib","timezone":{"dstOffset":3,"gmtOffset":3,"timeZoneId":"Asia/Baghdad"},"lat":33.30563,"lng":44.18477,"population":900000},{"id":98463,"name":"Sulaymaniyah","timezone":{"dstOffset":3,"gmtOffset":3,"timeZoneId":"Asia/Baghdad"},"lat":35.56496,"lng":45.4329,"population":723170},{"id":94787,"name":"Kirkuk","timezone":{"dstOffset":3,"gmtOffset":3,"timeZoneId":"Asia/Baghdad"},"lat":35.46806,"lng":44.39222,"population":601433},{"id":98860,"name":"Najaf","timezone":{"dstOffset":3,"gmtOffset":3,"timeZoneId":"Asia/Baghdad"},"lat":32.02594,"lng":44.34625,"population":482576}]