[{"id":1821306,"name":"Phnom Penh","timezone":{"dstOffset":7,"gmtOffset":7,"timeZoneId":"Asia/Phnom_Penh"},"lat":11.56245,"lng":104.91601,"population":1573544},{"id":1821940,"name":"Takeo","timezone":{"dstOffset":7,"gmtOffset":7,"timeZoneId":"Asia/Phnom_Penh"},"lat":10.99081,"lng":104.78498,"population":843931},{"id":1831142,"name":"Kampong Saom","timezone":{"dstOffset":7,"gmtOffset":7,"timeZoneId":"Asia/Phnom_Penh"},"lat":10.60932,"lng":103.52958,"population":156691},{"id":1831797,"name":"Battambang","timezone":{"dstOffset":7,"gmtOffset":7,"timeZoneId":"Asia/Phnom_Penh"},"lat":13.10271,"lng":103.19822,"population":150444},{"id":1822214,"name":"Siem Reap","timezone":{"dstOffset":7,"gmtOffset":7,"timeZoneId":"Asia/Phnom_Penh"},"lat":13.36179,"lng":103.86056,"population":139458},{"id":1830194,"name":"Poipet","timezone":{"dstOffset":7,"gmtOffset":7,"timeZoneId":"Asia/Phnom_Penh"},"lat":13.65611,"lng":102.5625,"population":79000},{"id":1831167,"name":"Kampong Chhnang","timezone":{"dstOffset":7,"gmtOffset":7,"timeZoneId":"Asia/Phnom_Penh"},"lat":12.25,"lng":104.66667,"population":75244},{"id":1831173,"name":"Kampong Cham","timezone":{"dstOffset":7,"gmtOffset":7,"timeZoneId":"Asia/Phnom_Penh"},"lat":11.99339,"lng":105.4635,"population":61750},{"id":1822768,"name":"Pursat","timezone":{"dstOffset":7,"gmtOffset":7,"timeZoneId":"Asia/Phnom_Penh"},"lat":12.53878,"lng":103.9192,"population":52476},{"id":1821935,"name":"Ta Khmau","timezone":{"dstOffset":7,"gmtOffset":7,"timeZoneId":"Asia/Phnom_Penh"},"lat":11.48333,"lng":104.95,"population":52066}]