[{"id":1835848,"name":"Seoul","timezone":{"dstOffset":9,"gmtOffset":9,"timeZoneId":"Asia/Seoul"},"lat":37.566,"lng":126.9784,"population":10349312},{"id":1838524,"name":"Busan","timezone":{"dstOffset":9,"gmtOffset":9,"timeZoneId":"Asia/Seoul"},"lat":35.10278,"lng":129.04028,"population":3678555},{"id":1843564,"name":"Incheon","timezone":{"dstOffset":9,"gmtOffset":9,"timeZoneId":"Asia/Seoul"},"lat":37.45646,"lng":126.70515,"population":2628000},{"id":1835329,"name":"Daegu","timezone":{"dstOffset":9,"gmtOffset":9,"timeZoneId":"Asia/Seoul"},"lat":35.87028,"lng":128.59111,"population":2566540},{"id":1835235,"name":"Daejeon","timezone":{"dstOffset":9,"gmtOffset":9,"timeZoneId":"Asia/Seoul"},"lat":36.32139,"lng":127.41972,"population":1475221},{"id":1841811,"name":"Gwangju","timezone":{"dstOffset":9,"gmtOffset":9,"timeZoneId":"Asia/Seoul"},"lat":35.15472,"lng":126.91556,"population":1416938},{"id":1835553,"name":"Suwon-si","timezone":{"dstOffset":9,"gmtOffset":9,"timeZoneId":"Asia/Seoul"},"lat":37.29111,"lng":127.00889,"population":1242724},{"id":1842485,"name":"Goyang-si","timezone":{"dstOffset":9,"gmtOffset":9,"timeZoneId":"Asia/Seoul"},"lat":37.65639,"lng":126.835,"population":1073069},{"id":1897000,"name":"Seongnam-si","timezone":{"dstOffset":9,"gmtOffset":9,"timeZoneId":"Asia/Seoul"},"lat":37.43861,"lng":127.13778,"population":1031935},{"id":1833747,"name":"Ulsan","timezone":{"dstOffset":9,"gmtOffset":9,"timeZoneId":"Asia/Seoul"},"lat":35.53722,"lng":129.31667,"population":962865}]