[{"id":285839,"name":"Al Ahmadi","timezone":{"dstOffset":3,"gmtOffset":3,"timeZoneId":"Asia/Kuwait"},"lat":29.07694,"lng":48.08389,"population":637411},{"id":285629,"name":"Ḩawallī","timezone":{"dstOffset":3,"gmtOffset":3,"timeZoneId":"Asia/Kuwait"},"lat":29.33278,"lng":48.02861,"population":164212},{"id":285704,"name":"As Sālimīyah","timezone":{"dstOffset":3,"gmtOffset":3,"timeZoneId":"Asia/Kuwait"},"lat":29.33389,"lng":48.07611,"population":147649},{"id":412800,"name":"Şabāḩ as Sālim","timezone":{"dstOffset":3,"gmtOffset":3,"timeZoneId":"Asia/Kuwait"},"lat":29.25722,"lng":48.05722,"population":139163},{"id":285815,"name":"Al Farwānīyah","timezone":{"dstOffset":3,"gmtOffset":3,"timeZoneId":"Asia/Kuwait"},"lat":29.2775,"lng":47.95861,"population":86525},{"id":285811,"name":"Al Faḩāḩīl","timezone":{"dstOffset":3,"gmtOffset":3,"timeZoneId":"Asia/Kuwait"},"lat":29.0825,"lng":48.13028,"population":68290},{"id":285787,"name":"Kuwait City","timezone":{"dstOffset":3,"gmtOffset":3,"timeZoneId":"Asia/Kuwait"},"lat":29.36972,"lng":47.97833,"population":60064},{"id":285726,"name":"Ar Rumaythīyah","timezone":{"dstOffset":3,"gmtOffset":3,"timeZoneId":"Asia/Kuwait"},"lat":29.31167,"lng":48.07417,"population":58135},{"id":285728,"name":"Ar Riqqah","timezone":{"dstOffset":3,"gmtOffset":3,"timeZoneId":"Asia/Kuwait"},"lat":29.14583,"lng":48.09472,"population":52068},{"id":387958,"name":"Salwá","timezone":{"dstOffset":3,"gmtOffset":3,"timeZoneId":"Asia/Kuwait"},"lat":29.29583,"lng":48.07861,"population":40945}]