[{"id":1526384,"name":"Almaty","timezone":{"dstOffset":6,"gmtOffset":6,"timeZoneId":"Asia/Almaty"},"lat":43.25654,"lng":76.92848,"population":2000900},{"id":609655,"name":"Karagandy","timezone":{"dstOffset":6,"gmtOffset":6,"timeZoneId":"Asia/Almaty"},"lat":49.83333,"lng":73.1658,"population":451800},{"id":1518980,"name":"Shymkent","timezone":{"dstOffset":6,"gmtOffset":6,"timeZoneId":"Asia/Almaty"},"lat":42.3,"lng":69.6,"population":414032},{"id":1516905,"name":"Taraz","timezone":{"dstOffset":6,"gmtOffset":6,"timeZoneId":"Asia/Almaty"},"lat":42.9,"lng":71.36667,"population":358153},{"id":1526273,"name":"Astana","timezone":{"dstOffset":6,"gmtOffset":6,"timeZoneId":"Asia/Almaty"},"lat":51.1801,"lng":71.44598,"population":345604},{"id":1520240,"name":"Pavlodar","timezone":{"dstOffset":6,"gmtOffset":6,"timeZoneId":"Asia/Almaty"},"lat":52.27401,"lng":77.00438,"population":329002},{"id":1520316,"name":"Ust-Kamenogorsk","timezone":{"dstOffset":6,"gmtOffset":6,"timeZoneId":"Asia/Almaty"},"lat":49.97143,"lng":82.60586,"population":319067},{"id":1519922,"name":"Ak-Mechet","timezone":{"dstOffset":6,"gmtOffset":6,"timeZoneId":"Asia/Qyzylorda"},"lat":44.85278,"lng":65.50917,"population":300000},{"id":1519922,"name":"Kyzyl-Orda","timezone":{"dstOffset":6,"gmtOffset":6,"timeZoneId":"Asia/Almaty"},"lat":44.8479,"lng":65.49989,"population":300000},{"id":1519422,"name":"Semey","timezone":{"dstOffset":6,"gmtOffset":6,"timeZoneId":"Asia/Almaty"},"lat":50.42675,"lng":80.26669,"population":292780}]