[{"id":3570675,"name":"Fort-de-France","timezone":{"dstOffset":-4,"gmtOffset":-4,"timeZoneId":"America/Martinique"},"lat":14.60892,"lng":-61.07334,"population":89995},{"id":3570428,"name":"Le Lamentin","timezone":{"dstOffset":-4,"gmtOffset":-4,"timeZoneId":"America/Martinique"},"lat":14.608,"lng":-61.00933,"population":39229},{"id":3570412,"name":"Le Robert","timezone":{"dstOffset":-4,"gmtOffset":-4,"timeZoneId":"America/Martinique"},"lat":14.67751,"lng":-60.94228,"population":23814},{"id":3569926,"name":"Sainte-Marie","timezone":{"dstOffset":-4,"gmtOffset":-4,"timeZoneId":"America/Martinique"},"lat":14.78392,"lng":-60.99274,"population":20380},{"id":3570429,"name":"Le François","timezone":{"dstOffset":-4,"gmtOffset":-4,"timeZoneId":"America/Martinique"},"lat":14.61557,"lng":-60.90308,"population":19682},{"id":3570785,"name":"Ducos","timezone":{"dstOffset":-4,"gmtOffset":-4,"timeZoneId":"America/Martinique"},"lat":14.57529,"lng":-60.97453,"population":17394},{"id":3569915,"name":"Saint-Joseph","timezone":{"dstOffset":-4,"gmtOffset":-4,"timeZoneId":"America/Martinique"},"lat":14.67099,"lng":-61.03905,"population":16974},{"id":3570166,"name":"Petite Rivière Salée","timezone":{"dstOffset":-4,"gmtOffset":-4,"timeZoneId":"America/Martinique"},"lat":14.75,"lng":-60.96667,"population":15152},{"id":3570446,"name":"La Trinité","timezone":{"dstOffset":-4,"gmtOffset":-4,"timeZoneId":"America/Martinique"},"lat":14.73758,"lng":-60.96286,"population":15040},{"id":3569970,"name":"Rivière-Pilote","timezone":{"dstOffset":-4,"gmtOffset":-4,"timeZoneId":"America/Martinique"},"lat":14.47746,"lng":-60.9035,"population":13359}]