[{"id":1736376,"name":"Kota Bharu","timezone":{"dstOffset":8,"gmtOffset":8,"timeZoneId":"Asia/Kuala_Lumpur"},"lat":6.13328,"lng":102.2386,"population":1459994},{"id":1735161,"name":"Kuala Lumpur","timezone":{"dstOffset":8,"gmtOffset":8,"timeZoneId":"Asia/Kuala_Lumpur"},"lat":3.1412,"lng":101.68653,"population":1453975},{"id":1732905,"name":"Klang","timezone":{"dstOffset":8,"gmtOffset":8,"timeZoneId":"Asia/Kuala_Lumpur"},"lat":3.03333,"lng":101.45,"population":879867},{"id":1771023,"name":"Kampung Baru Subang","timezone":{"dstOffset":8,"gmtOffset":8,"timeZoneId":"Asia/Kuala_Lumpur"},"lat":3.15,"lng":101.53333,"population":833571},{"id":1732752,"name":"Johor Bahru","timezone":{"dstOffset":8,"gmtOffset":8,"timeZoneId":"Asia/Kuala_Lumpur"},"lat":1.4655,"lng":103.7578,"population":802489},{"id":8504423,"name":"Subang Jaya","timezone":{"dstOffset":8,"gmtOffset":8,"timeZoneId":"Asia/Kuala_Lumpur"},"lat":3.04384,"lng":101.58062,"population":708296},{"id":1734634,"name":"Ipoh","timezone":{"dstOffset":8,"gmtOffset":8,"timeZoneId":"Asia/Kuala_Lumpur"},"lat":4.5841,"lng":101.0829,"population":673318},{"id":1735634,"name":"Kuching","timezone":{"dstOffset":8,"gmtOffset":8,"timeZoneId":"Asia/Kuching"},"lat":1.55,"lng":110.33333,"population":570407},{"id":1735158,"name":"Petaling Jaya","timezone":{"dstOffset":8,"gmtOffset":8,"timeZoneId":"Asia/Kuala_Lumpur"},"lat":3.10726,"lng":101.60671,"population":520698},{"id":1732903,"name":"Shah Alam","timezone":{"dstOffset":8,"gmtOffset":8,"timeZoneId":"Asia/Kuala_Lumpur"},"lat":3.08507,"lng":101.53281,"population":481654}]