[{"id":2440485,"name":"Niamey","timezone":{"dstOffset":1,"gmtOffset":1,"timeZoneId":"Africa/Niamey"},"lat":13.51366,"lng":2.1098,"population":774235},{"id":2437798,"name":"Zinder","timezone":{"dstOffset":1,"gmtOffset":1,"timeZoneId":"Africa/Niamey"},"lat":13.80716,"lng":8.9881,"population":191424},{"id":2441291,"name":"Maradi","timezone":{"dstOffset":1,"gmtOffset":1,"timeZoneId":"Africa/Niamey"},"lat":13.5,"lng":7.10174,"population":163487},{"id":2448085,"name":"Agadez","timezone":{"dstOffset":1,"gmtOffset":1,"timeZoneId":"Africa/Niamey"},"lat":16.97333,"lng":7.99111,"population":124324},{"id":2447938,"name":"Alaghsas","timezone":{"dstOffset":1,"gmtOffset":1,"timeZoneId":"Africa/Niamey"},"lat":17.0187,"lng":8.0168,"population":88561},{"id":2439376,"name":"Tahoua","timezone":{"dstOffset":1,"gmtOffset":1,"timeZoneId":"Africa/Niamey"},"lat":14.8888,"lng":5.2692,"population":80425},{"id":2445488,"name":"Dosso","timezone":{"dstOffset":1,"gmtOffset":1,"timeZoneId":"Africa/Niamey"},"lat":13.049,"lng":3.1937,"population":49750},{"id":2437732,"name":"Birni N Konni","timezone":{"dstOffset":1,"gmtOffset":1,"timeZoneId":"Africa/Niamey"},"lat":13.79599,"lng":5.25026,"population":48103},{"id":2438823,"name":"Tessaoua","timezone":{"dstOffset":1,"gmtOffset":1,"timeZoneId":"Africa/Niamey"},"lat":13.75737,"lng":7.9874,"population":35775},{"id":2444489,"name":"Gaya","timezone":{"dstOffset":1,"gmtOffset":1,"timeZoneId":"Africa/Niamey"},"lat":11.88435,"lng":3.44919,"population":33051}]