[{"id":3617763,"name":"Managua","timezone":{"dstOffset":-6,"gmtOffset":-6,"timeZoneId":"America/Managua"},"lat":12.13282,"lng":-86.2504,"population":973087},{"id":3618030,"name":"León","timezone":{"dstOffset":-6,"gmtOffset":-6,"timeZoneId":"America/Managua"},"lat":12.43787,"lng":-86.87804,"population":144538},{"id":3617723,"name":"Masaya","timezone":{"dstOffset":-6,"gmtOffset":-6,"timeZoneId":"America/Managua"},"lat":11.97444,"lng":-86.09417,"population":130113},{"id":3616035,"name":"Tipitapa","timezone":{"dstOffset":-6,"gmtOffset":-6,"timeZoneId":"America/Managua"},"lat":12.19732,"lng":-86.09706,"population":127153},{"id":3620381,"name":"Chinandega","timezone":{"dstOffset":-6,"gmtOffset":-6,"timeZoneId":"America/Managua"},"lat":12.62937,"lng":-87.13105,"population":126387},{"id":3617708,"name":"Matagalpa","timezone":{"dstOffset":-6,"gmtOffset":-6,"timeZoneId":"America/Managua"},"lat":12.92559,"lng":-85.91747,"population":109089},{"id":3619194,"name":"Estelí","timezone":{"dstOffset":-6,"gmtOffset":-6,"timeZoneId":"America/Managua"},"lat":13.09185,"lng":-86.35384,"population":96422},{"id":3619136,"name":"Granada","timezone":{"dstOffset":-6,"gmtOffset":-6,"timeZoneId":"America/Managua"},"lat":11.92988,"lng":-85.95602,"population":89409},{"id":3828262,"name":"Ciudad Sandino","timezone":{"dstOffset":-6,"gmtOffset":-6,"timeZoneId":"America/Managua"},"lat":12.15889,"lng":-86.34417,"population":70013},{"id":3618908,"name":"Juigalpa","timezone":{"dstOffset":-6,"gmtOffset":-6,"timeZoneId":"America/Managua"},"lat":12.10629,"lng":-85.36452,"population":54731}]