[{"id":1701668,"name":"Manila","timezone":{"dstOffset":8,"gmtOffset":8,"timeZoneId":"Asia/Manila"},"lat":14.6042,"lng":120.9822,"population":10444527},{"id":1692192,"name":"Quezon City","timezone":{"dstOffset":8,"gmtOffset":8,"timeZoneId":"Asia/Manila"},"lat":14.6488,"lng":121.0509,"population":2761720},{"id":1723510,"name":"Budta","timezone":{"dstOffset":8,"gmtOffset":8,"timeZoneId":"Asia/Manila"},"lat":7.20417,"lng":124.43972,"population":1273715},{"id":1715348,"name":"Davao City","timezone":{"dstOffset":8,"gmtOffset":8,"timeZoneId":"Asia/Manila"},"lat":7.07306,"lng":125.61278,"population":1212504},{"id":1978681,"name":"Malingao","timezone":{"dstOffset":8,"gmtOffset":8,"timeZoneId":"Asia/Manila"},"lat":7.16083,"lng":124.475,"population":1121974},{"id":1717512,"name":"Cebu City","timezone":{"dstOffset":8,"gmtOffset":8,"timeZoneId":"Asia/Manila"},"lat":10.31672,"lng":123.89071,"population":798634},{"id":1713022,"name":"General Santos","timezone":{"dstOffset":8,"gmtOffset":8,"timeZoneId":"Asia/Manila"},"lat":6.11278,"lng":125.17167,"population":679588},{"id":1684308,"name":"Taguig","timezone":{"dstOffset":8,"gmtOffset":8,"timeZoneId":"Asia/Manila"},"lat":14.5243,"lng":121.0792,"population":644473},{"id":7290466,"name":"Pasig","timezone":{"dstOffset":8,"gmtOffset":8,"timeZoneId":"Asia/Manila"},"lat":14.58691,"lng":121.0614,"population":617301},{"id":1730501,"name":"Antipolo","timezone":{"dstOffset":8,"gmtOffset":8,"timeZoneId":"Asia/Manila"},"lat":14.62578,"lng":121.12251,"population":549543}]