[{"id":2267057,"name":"Lisbon","timezone":{"dstOffset":1,"gmtOffset":0,"timeZoneId":"Europe/Lisbon"},"lat":38.71667,"lng":-9.13333,"population":517802},{"id":2735943,"name":"Porto","timezone":{"dstOffset":1,"gmtOffset":0,"timeZoneId":"Europe/Lisbon"},"lat":41.14961,"lng":-8.61099,"population":249633},{"id":2271772,"name":"Amadora","timezone":{"dstOffset":1,"gmtOffset":0,"timeZoneId":"Europe/Lisbon"},"lat":38.75382,"lng":-9.23083,"population":178858},{"id":2742032,"name":"Braga","timezone":{"dstOffset":1,"gmtOffset":0,"timeZoneId":"Europe/Lisbon"},"lat":41.55032,"lng":-8.42005,"population":121394},{"id":2262963,"name":"Setúbal","timezone":{"dstOffset":1,"gmtOffset":0,"timeZoneId":"Europe/Lisbon"},"lat":38.5244,"lng":-8.8882,"population":117110},{"id":2740637,"name":"Coimbra","timezone":{"dstOffset":1,"gmtOffset":0,"timeZoneId":"Europe/Lisbon"},"lat":40.20564,"lng":-8.41955,"population":106582},{"id":2264268,"name":"Queluz","timezone":{"dstOffset":1,"gmtOffset":0,"timeZoneId":"Europe/Lisbon"},"lat":38.75657,"lng":-9.25451,"population":103399},{"id":2267827,"name":"Funchal","timezone":{"dstOffset":1,"gmtOffset":0,"timeZoneId":"Atlantic/Madeira"},"lat":32.63333,"lng":-16.9,"population":100847},{"id":2270503,"name":"Cacém","timezone":{"dstOffset":1,"gmtOffset":0,"timeZoneId":"Europe/Lisbon"},"lat":38.76698,"lng":-9.29793,"population":93982},{"id":2732544,"name":"Vila Nova de Gaia","timezone":{"dstOffset":1,"gmtOffset":0,"timeZoneId":"Europe/Lisbon"},"lat":41.13363,"lng":-8.61742,"population":70811}]