[{"id":935264,"name":"Saint-Denis","timezone":{"dstOffset":4,"gmtOffset":4,"timeZoneId":"Indian/Reunion"},"lat":-20.88231,"lng":55.4504,"population":137195},{"id":935221,"name":"Saint-Paul","timezone":{"dstOffset":4,"gmtOffset":4,"timeZoneId":"Indian/Reunion"},"lat":-21.00963,"lng":55.27071,"population":99307},{"id":935214,"name":"Saint-Piorre","timezone":{"dstOffset":4,"gmtOffset":4,"timeZoneId":"Indian/Reunion"},"lat":-21.3393,"lng":55.47811,"population":76655},{"id":935582,"name":"Le Tampon","timezone":{"dstOffset":4,"gmtOffset":4,"timeZoneId":"Indian/Reunion"},"lat":-21.28309,"lng":55.51802,"population":69986},{"id":935268,"name":"Saint-André","timezone":{"dstOffset":4,"gmtOffset":4,"timeZoneId":"Indian/Reunion"},"lat":-20.96333,"lng":55.65031,"population":48674},{"id":935223,"name":"Saint-Louis","timezone":{"dstOffset":4,"gmtOffset":4,"timeZoneId":"Indian/Reunion"},"lat":-21.28585,"lng":55.41124,"population":47881},{"id":935616,"name":"Le Port","timezone":{"dstOffset":4,"gmtOffset":4,"timeZoneId":"Indian/Reunion"},"lat":-20.9373,"lng":55.29189,"population":40771},{"id":935267,"name":"Saint-Benoît","timezone":{"dstOffset":4,"gmtOffset":4,"timeZoneId":"Indian/Reunion"},"lat":-21.03801,"lng":55.71937,"population":35310},{"id":935227,"name":"Saint-Joseph","timezone":{"dstOffset":4,"gmtOffset":4,"timeZoneId":"Indian/Reunion"},"lat":-21.37838,"lng":55.61918,"population":33694},{"id":935255,"name":"Sainte-Marie","timezone":{"dstOffset":4,"gmtOffset":4,"timeZoneId":"Indian/Reunion"},"lat":-20.89684,"lng":55.5496,"population":31636}]