[{"id":934995,"name":"Manzini","timezone":{"dstOffset":2,"gmtOffset":2,"timeZoneId":"Africa/Mbabane"},"lat":-26.49884,"lng":31.38004,"population":110537},{"id":934985,"name":"Mbabane","timezone":{"dstOffset":2,"gmtOffset":2,"timeZoneId":"Africa/Mbabane"},"lat":-26.31667,"lng":31.13333,"population":76218},{"id":935113,"name":"Big Bend","timezone":{"dstOffset":2,"gmtOffset":2,"timeZoneId":"Africa/Mbabane"},"lat":-26.81667,"lng":31.93333,"population":10342},{"id":935005,"name":"Malkerns","timezone":{"dstOffset":2,"gmtOffset":2,"timeZoneId":"Africa/Mbabane"},"lat":-26.56667,"lng":31.18333,"population":9724},{"id":934966,"name":"Mhlume","timezone":{"dstOffset":2,"gmtOffset":2,"timeZoneId":"Africa/Mbabane"},"lat":-26.03333,"lng":31.85,"population":8652},{"id":935076,"name":"Hluti","timezone":{"dstOffset":2,"gmtOffset":2,"timeZoneId":"Africa/Mbabane"},"lat":-27.21667,"lng":31.61667,"population":6763},{"id":934851,"name":"Siteki","timezone":{"dstOffset":2,"gmtOffset":2,"timeZoneId":"Africa/Mbabane"},"lat":-26.45,"lng":31.95,"population":6152},{"id":934881,"name":"Piggs Peak","timezone":{"dstOffset":2,"gmtOffset":2,"timeZoneId":"Africa/Mbabane"},"lat":-25.96667,"lng":31.25,"population":5750},{"id":935048,"name":"Lobamba","timezone":{"dstOffset":2,"gmtOffset":2,"timeZoneId":"Africa/Mbabane"},"lat":-26.46667,"lng":31.2,"population":4557},{"id":7910862,"name":"Vuvulane","timezone":{"dstOffset":2,"gmtOffset":2,"timeZoneId":"Africa/Mbabane"},"lat":-26.07427,"lng":31.87672,"population":4155}]