[{"id":162183,"name":"Ashgabat","timezone":{"dstOffset":5,"gmtOffset":5,"timeZoneId":"Asia/Ashgabat"},"lat":37.95,"lng":58.38333,"population":727700},{"id":1219649,"name":"Turkmenabat","timezone":{"dstOffset":5,"gmtOffset":5,"timeZoneId":"Asia/Ashgabat"},"lat":39.07328,"lng":63.57862,"population":234817},{"id":601734,"name":"Dashoguz","timezone":{"dstOffset":5,"gmtOffset":5,"timeZoneId":"Asia/Ashgabat"},"lat":41.83625,"lng":59.96662,"population":166500},{"id":1218667,"name":"Mary","timezone":{"dstOffset":5,"gmtOffset":5,"timeZoneId":"Asia/Ashgabat"},"lat":37.59378,"lng":61.83031,"population":114680},{"id":161616,"name":"Balkanabat","timezone":{"dstOffset":5,"gmtOffset":5,"timeZoneId":"Asia/Ashgabat"},"lat":39.51075,"lng":54.36713,"population":87822},{"id":1219762,"name":"Bayramaly","timezone":{"dstOffset":5,"gmtOffset":5,"timeZoneId":"Asia/Ashgabat"},"lat":37.61852,"lng":62.16715,"population":75797},{"id":601594,"name":"Türkmenbaşy","timezone":{"dstOffset":5,"gmtOffset":5,"timeZoneId":"Asia/Ashgabat"},"lat":40.02216,"lng":52.95518,"population":68292},{"id":1218239,"name":"Tejen","timezone":{"dstOffset":5,"gmtOffset":5,"timeZoneId":"Asia/Ashgabat"},"lat":37.38338,"lng":60.50544,"population":67294},{"id":162099,"name":"Abadan","timezone":{"dstOffset":5,"gmtOffset":5,"timeZoneId":"Asia/Ashgabat"},"lat":38.05415,"lng":58.19721,"population":39481},{"id":1218021,"name":"Yolöten","timezone":{"dstOffset":5,"gmtOffset":5,"timeZoneId":"Asia/Ashgabat"},"lat":37.29886,"lng":62.35975,"population":37705}]