[{"id":160263,"name":"Dar es Salaam","timezone":{"dstOffset":3,"gmtOffset":3,"timeZoneId":"Africa/Dar_es_Salaam"},"lat":-6.82349,"lng":39.26951,"population":2698652},{"id":152224,"name":"Mwanza","timezone":{"dstOffset":3,"gmtOffset":3,"timeZoneId":"Africa/Dar_es_Salaam"},"lat":-2.51667,"lng":32.9,"population":436801},{"id":148730,"name":"Zanzibar","timezone":{"dstOffset":3,"gmtOffset":3,"timeZoneId":"Africa/Dar_es_Salaam"},"lat":-6.16394,"lng":39.19793,"population":403658},{"id":161325,"name":"Arusha","timezone":{"dstOffset":3,"gmtOffset":3,"timeZoneId":"Africa/Dar_es_Salaam"},"lat":-3.36667,"lng":36.68333,"population":341136},{"id":154380,"name":"Mbeya","timezone":{"dstOffset":3,"gmtOffset":3,"timeZoneId":"Africa/Dar_es_Salaam"},"lat":-8.9,"lng":33.45,"population":291649},{"id":153220,"name":"Morogoro","timezone":{"dstOffset":3,"gmtOffset":3,"timeZoneId":"Africa/Dar_es_Salaam"},"lat":-6.82102,"lng":37.66122,"population":250902},{"id":149606,"name":"Tanga","timezone":{"dstOffset":3,"gmtOffset":3,"timeZoneId":"Africa/Dar_es_Salaam"},"lat":-5.06893,"lng":39.09875,"population":224876},{"id":160196,"name":"Dodoma","timezone":{"dstOffset":3,"gmtOffset":3,"timeZoneId":"Africa/Dar_es_Salaam"},"lat":-6.17221,"lng":35.73947,"population":180541},{"id":157738,"name":"Kigoma","timezone":{"dstOffset":3,"gmtOffset":3,"timeZoneId":"Africa/Dar_es_Salaam"},"lat":-4.87694,"lng":29.62667,"population":164268},{"id":153209,"name":"Moshi","timezone":{"dstOffset":3,"gmtOffset":3,"timeZoneId":"Africa/Dar_es_Salaam"},"lat":-3.35,"lng":37.33333,"population":156959}]