[{"id":232422,"name":"Kampala","timezone":{"dstOffset":3,"gmtOffset":3,"timeZoneId":"Africa/Kampala"},"lat":0.31628,"lng":32.58219,"population":1353189},{"id":233346,"name":"Gulu","timezone":{"dstOffset":3,"gmtOffset":3,"timeZoneId":"Africa/Kampala"},"lat":2.77457,"lng":32.29899,"population":146858},{"id":230166,"name":"Lira","timezone":{"dstOffset":3,"gmtOffset":3,"timeZoneId":"Africa/Kampala"},"lat":2.2499,"lng":32.89985,"population":119323},{"id":229268,"name":"Mbarara","timezone":{"dstOffset":3,"gmtOffset":3,"timeZoneId":"Africa/Kampala"},"lat":-0.60467,"lng":30.64851,"population":97500},{"id":233114,"name":"Jinja","timezone":{"dstOffset":3,"gmtOffset":3,"timeZoneId":"Africa/Kampala"},"lat":0.43902,"lng":33.20317,"population":93061},{"id":233730,"name":"Bwizibwera","timezone":{"dstOffset":3,"gmtOffset":3,"timeZoneId":"Africa/Kampala"},"lat":-0.59167,"lng":30.62861,"population":79157},{"id":229278,"name":"Mbale","timezone":{"dstOffset":3,"gmtOffset":3,"timeZoneId":"Africa/Kampala"},"lat":1.08209,"lng":34.17503,"population":76493},{"id":228853,"name":"Mukono","timezone":{"dstOffset":3,"gmtOffset":3,"timeZoneId":"Africa/Kampala"},"lat":0.35333,"lng":32.75528,"population":67290},{"id":232066,"name":"Kasese","timezone":{"dstOffset":3,"gmtOffset":3,"timeZoneId":"Africa/Kampala"},"lat":0.18333,"lng":30.08333,"population":67269},{"id":229380,"name":"Masaka","timezone":{"dstOffset":3,"gmtOffset":3,"timeZoneId":"Africa/Kampala"},"lat":-0.33379,"lng":31.73409,"population":65373}]