[{"id":3577887,"name":"Kingstown","timezone":{"dstOffset":-4,"gmtOffset":-4,"timeZoneId":"America/St_Vincent"},"lat":13.15872,"lng":-61.22475,"population":24518},{"id":3748726,"name":"Kingstown Park","timezone":{"dstOffset":-4,"gmtOffset":-4,"timeZoneId":"America/St_Vincent"},"lat":13.15833,"lng":-61.235,"population":17994},{"id":3577900,"name":"Georgetown","timezone":{"dstOffset":-4,"gmtOffset":-4,"timeZoneId":"America/St_Vincent"},"lat":13.2879,"lng":-61.1302,"population":1680},{"id":3577944,"name":"Byera Village","timezone":{"dstOffset":-4,"gmtOffset":-4,"timeZoneId":"America/St_Vincent"},"lat":13.2572,"lng":-61.12656,"population":1365},{"id":3577955,"name":"Biabou","timezone":{"dstOffset":-4,"gmtOffset":-4,"timeZoneId":"America/St_Vincent"},"lat":13.2,"lng":-61.13333,"population":1050},{"id":3577962,"name":"Barrouallie","timezone":{"dstOffset":-4,"gmtOffset":-4,"timeZoneId":"America/St_Vincent"},"lat":13.23333,"lng":-61.26667,"population":1000},{"id":3577844,"name":"Port Elizabeth","timezone":{"dstOffset":-4,"gmtOffset":-4,"timeZoneId":"America/St_Vincent"},"lat":13.01102,"lng":-61.23548,"population":839},{"id":3577933,"name":"Chateaubelair","timezone":{"dstOffset":-4,"gmtOffset":-4,"timeZoneId":"America/St_Vincent"},"lat":13.28333,"lng":-61.25,"population":735},{"id":3577879,"name":"Layou","timezone":{"dstOffset":-4,"gmtOffset":-4,"timeZoneId":"America/St_Vincent"},"lat":13.2,"lng":-61.26667,"population":140}]